# Time (s),Altitude (m),Vertical velocity (m/s),Vertical acceleration (m/s²),Total velocity (m/s),Total acceleration (m/s²),Position East of launch (m),Position North of launch (m),Lateral distance (m),Lateral direction (°),Lateral velocity (m/s),Lateral acceleration (m/s²),Latitude (°),Longitude (°),Gravitational acceleration (m/s²),Angle of attack (°),Roll rate (°/s),Pitch rate (°/s),Yaw rate (°/s),Mass (g),Propellant mass (g),Longitudinal moment of inertia (kg·m²),Rotational moment of inertia (kg·m²),CP location (cm),CG location (cm),Stability margin calibers (?),Mach number (?),Reynolds number (?),Thrust (N),Drag force (N),Drag coefficient (?),Axial drag coefficient (?),Friction drag coefficient (?),Pressure drag coefficient (?),Base drag coefficient (?),Normal force coefficient (?),Pitch moment coefficient (?),Yaw moment coefficient (?),Side force coefficient (?),Roll moment coefficient (?),Roll forcing coefficient (?),Roll damping coefficient (?),Pitch damping coefficient (?),Coriolis acceleration (m/s²),Reference length (cm),Reference area (cm²),Vertical orientation (zenith) (°),Lateral orientation (azimuth) (°),Wind velocity (m/s),Air temperature (°C),Air pressure (mbar),Speed of sound (m/s),Simulation time step (s),Computation time (s)
0,0,0,-6.0607,0,6.1062,0,0,0,0,0,0.74416,28.61,-80.6,9.7884,0,0,0,0,26109,3771.5,38.3,0.11038,NaN,222.09,NaN,0,0,94.235,0,1.7436,1.7436,1.5246,0.099002,0.12,NaN,NaN,NaN,NaN,NaN,NaN,NaN,NaN,0,14.016,154.28,83,0,NaN,7.0752,875.43,335.59,2e-3,0.0024771
2e-3,0,0,1.104,0,1.1123,0,0,0,0,0,0.13556,28.61,-80.6,9.7884,0,0,0,0,26109,3771.5,38.3,0.11038,NaN,222.09,NaN,0,0,282.7,0,1.7436,1.7436,1.5246,0.099002,0.12,NaN,NaN,NaN,NaN,NaN,NaN,NaN,NaN,0,14.016,154.28,83,0,NaN,7.0752,875.43,335.59,2e-3,0.0038467
4e-3,2.2087e-6,0.0022088,8.2695,0.0022254,8.3316,2.7119e-7,0,2.7119e-7,0,2.7121e-4,1.0154,28.61,-80.6,9.7884,0,0,0,0,26108,3770.4,38.299,0.11038,NaN,222.08,NaN,6.6313e-6,470.27,471.17,7.2492e-8,1.7436,1.7436,1.5246,0.099002,0.12,NaN,NaN,NaN,NaN,NaN,NaN,NaN,NaN,2.8556e-7,14.016,154.28,83,0,NaN,7.0752,875.43,335.59,2e-3,0.0044559
6e-3,2.3166e-5,0.018749,15.436,0.01889,15.551,2.8444e-6,0,2.8444e-6,0,0.0023021,1.8952,28.61,-80.6,9.7884,0,0,0,0,26107,3769.4,38.298,0.11038,NaN,222.08,NaN,5.6289e-5,3991.8,659.64,5.2231e-6,1.7436,1.7436,1.5246,0.099002,0.12,NaN,NaN,NaN,NaN,NaN,NaN,NaN,NaN,2.4239e-6,14.016,154.28,83,0,NaN,7.0752,875.43,335.59,2e-3,0.0067692
8e-3,9.1536e-5,0.049622,22.602,0.049994,22.772,1.1239e-5,0,1.1239e-5,0,0.0060928,2.7752,28.61,-80.6,9.7884,0,0,0,0,26106,3768.3,38.297,0.11038,NaN,222.08,NaN,1.4898e-4,10565,848.11,3.5988e-5,1.715,1.715,1.496,0.099002,0.12,NaN,NaN,NaN,NaN,NaN,NaN,NaN,NaN,6.4151e-6,14.016,154.28,83,0,NaN,7.0752,875.43,335.59,2e-3,0.0074762
0.01,2.3599e-4,0.094828,29.769,0.09554,29.993,2.8975e-5,0,2.8975e-5,0,0.011643,3.6552,28.61,-80.6,9.7884,0,0,0,0,26105,3767.3,38.296,0.11038,NaN,222.07,NaN,2.847e-4,20190,1036.6,1.0866e-4,1.4179,1.4179,1.1989,0.099002,0.12,NaN,NaN,NaN,NaN,NaN,NaN,NaN,NaN,1.2259e-5,14.016,154.28,83,0,NaN,7.0752,875.43,335.59,2e-3,0.0081412
0.012,4.8518e-4,0.15437,36.937,0.15553,37.214,5.9573e-5,0,5.9573e-5,0,0.018954,4.5353,28.61,-80.6,9.7884,0,0,0,0,26104,3766.2,38.295,0.11038,NaN,222.07,NaN,4.6345e-4,32867,1225.1,2.5365e-4,1.249,1.249,1.03,0.099002,0.12,NaN,NaN,NaN,NaN,NaN,NaN,NaN,NaN,1.9957e-5,14.016,154.28,83,0,NaN,7.0752,875.43,335.59,2e-3,0.0092529
0.014,8.678e-4,0.22825,44.105,0.22996,44.437,1.0655e-4,0,1.0655e-4,0,0.028025,5.4155,28.61,-80.6,9.7884,0,0,0,0,26103,3765.1,38.295,0.11038,NaN,222.07,NaN,6.8525e-4,48596,1413.5,5.0526e-4,1.1381,1.1381,0.91905,0.099002,0.12,NaN,NaN,NaN,NaN,NaN,NaN,NaN,NaN,2.9508e-5,14.016,154.28,83,0,NaN,7.0752,875.43,335.59,2e-3,0.0099118
0.016,0.0014125,0.31646,51.274,0.31884,51.659,1.7343e-4,0,1.7343e-4,0,0.038857,6.2957,28.61,-80.6,9.7884,0,0,0,0,26102,3764.1,38.294,0.11037,NaN,222.06,NaN,9.5009e-4,67378,1602,9.034e-4,1.0585,1.0585,0.83952,0.099002,0.12,NaN,NaN,NaN,NaN,NaN,NaN,NaN,NaN,4.0912e-5,14.016,154.28,83,0,NaN,7.0752,875.43,335.59,2e-3,0.011141
0.018,0.002148,0.41901,58.444,0.42216,58.883,2.6374e-4,0,2.6374e-4,0,0.051448,7.176,28.61,-80.6,9.7884,0,0,0,0,26101,3763,38.293,0.11037,NaN,222.06,NaN,0.001258,89212,1790.5,0.0014935,0.99816,0.99816,0.77916,0.099002,0.12,NaN,NaN,NaN,NaN,NaN,NaN,NaN,NaN,5.4171e-5,14.016,154.28,83,0,NaN,7.0752,875.43,335.59,2e-3,0.011869
0.02,0.0031029,0.53591,65.614,0.53993,66.107,3.8099e-4,0,3.8099e-4,0,0.065801,8.0564,28.61,-80.6,9.7884,0,0,0,0,26100,3762,38.292,0.11037,NaN,222.05,NaN,0.0016089,114100,1978.9,0.0023262,0.95045,0.95045,0.73145,0.099002,0.12,NaN,NaN,NaN,NaN,NaN,NaN,NaN,NaN,6.9282e-5,14.016,154.28,83,0,NaN,7.0752,875.43,335.59,2e-3,0.012472
0.022,0.0043059,0.66714,72.784,0.67215,73.331,5.287e-4,0,5.287e-4,0,0.081914,8.9368,28.61,-80.6,9.7884,0,0,0,0,26099,3760.9,38.291,0.11037,NaN,222.05,NaN,0.0020029,142040,2167.4,0.0034575,0.91157,0.91157,0.69257,0.099002,0.12,NaN,NaN,NaN,NaN,NaN,NaN,NaN,NaN,8.6248e-5,14.016,154.28,83,0,NaN,7.0752,875.43,335.59,2e-3,0.013069
0.024,0.0057858,0.81271,76.243,0.81882,76.815,7.1041e-4,0,7.1041e-4,0,0.099789,9.3614,28.61,-80.6,9.7884,0,0,0,0,26098,3759.9,38.29,0.11037,NaN,222.05,NaN,0.00244,173034,2258.2,0.0049484,0.87913,0.87913,0.66013,0.099002,0.12,NaN,NaN,NaN,NaN,NaN,NaN,NaN,NaN,1.0507e-4,14.016,154.28,83,0,NaN,7.0752,875.43,335.59,2e-3,0.013701
0.026,0.0075637,0.96521,75.99,0.97245,76.561,9.2871e-4,0,9.2871e-4,0,0.11851,9.3304,28.61,-80.6,9.7884,0,0,0,0,26096,3758.3,38.288,0.11037,NaN,222.04,NaN,0.0028978,205502,2251.5,0.0067697,0.85269,0.85269,0.63369,0.099002,0.12,NaN,NaN,NaN,NaN,NaN,NaN,NaN,NaN,1.2478e-4,14.016,154.28,83,0,NaN,7.0752,875.43,335.59,2e-3,0.014334
0.028,0.0096461,1.1172,75.739,1.1256,76.308,0.0011844,0,0.0011844,0,0.13717,9.2996,28.61,-80.6,9.7884,0,0,0,0,26094,3756.3,38.287,0.11036,NaN,222.03,NaN,0.0033541,237862,2244.7,0.0088436,0.83143,0.83143,0.61243,0.099002,0.12,NaN,NaN,NaN,NaN,NaN,NaN,NaN,NaN,1.4443e-4,14.016,154.28,83,0,NaN,7.0751,875.43,335.59,2e-3,0.014946
0.03,0.012032,1.2687,75.488,1.2782,76.055,0.0014773,0,0.0014773,0,0.15578,9.2687,28.61,-80.6,9.7884,0,0,0,0,26092,3754.3,38.285,0.11036,NaN,222.03,NaN,0.0038089,270116,2237.9,0.011163,0.81381,0.81381,0.59481,0.099002,0.12,NaN,NaN,NaN,NaN,NaN,NaN,NaN,NaN,1.6402e-4,14.016,154.28,83,0,NaN,7.0751,875.43,335.59,2e-3,0.015628
0.032,0.01472,1.4197,75.236,1.4303,75.801,0.0018074,0,0.0018074,0,0.17431,9.2379,28.61,-80.6,9.7884,0,0,0,0,26090,3752.2,38.283,0.11036,NaN,222.02,NaN,0.0042622,302262,2231.1,0.013721,0.79885,0.79885,0.57985,0.099003,0.12,NaN,NaN,NaN,NaN,NaN,NaN,NaN,NaN,1.8354e-4,14.016,154.28,83,0,NaN,7.0751,875.43,335.59,2e-3,0.016242
0.034,0.01771,1.5702,74.985,1.5819,75.548,0.0021745,0,0.0021745,0,0.19279,9.207,28.61,-80.6,9.7884,0,0,0,0,26088,3750.2,38.281,0.11036,NaN,222.01,NaN,0.004714,334301,2224.4,0.016512,0.78592,0.78592,0.56692,0.099003,0.12,NaN,NaN,NaN,NaN,NaN,NaN,NaN,NaN,2.0299e-4,14.016,154.28,83,0,NaN,7.0751,875.43,335.59,2e-3,0.016865
0.036,0.021,1.7201,74.734,1.7331,75.295,0.0025785,0,0.0025785,0,0.21121,9.1762,28.61,-80.6,9.7884,0,0,0,0,26086,3748.1,38.279,0.11036,NaN,222,NaN,0.0051643,366234,2217.6,0.019532,0.77459,0.77459,0.55558,0.099003,0.12,NaN,NaN,NaN,NaN,NaN,NaN,NaN,NaN,2.2238e-4,14.016,154.28,83,0,NaN,7.0751,875.43,335.59,2e-3,0.017579
0.038,0.02459,1.8696,74.482,1.8837,75.042,0.0030193,0,0.0030193,0,0.22956,9.1453,28.61,-80.6,9.7884,0,0,0,0,26084,3746.1,38.278,0.11035,NaN,222,NaN,0.005613,398059,2210.8,0.022774,0.76453,0.76453,0.54552,0.099003,0.12,NaN,NaN,NaN,NaN,NaN,NaN,NaN,NaN,2.4171e-4,14.016,154.28,83,0,NaN,7.075,875.43,335.59,2e-3,0.018209
0.04,0.028478,2.0186,74.231,2.0338,74.788,0.0034967,0,0.0034967,0,0.24785,9.1144,28.61,-80.6,9.7884,0,0,0,0,26082,3744,38.276,0.11035,NaN,221.99,NaN,0.0060603,429777,2204,0.026235,0.75551,0.75551,0.5365,0.099003,0.12,NaN,NaN,NaN,NaN,NaN,NaN,NaN,NaN,2.6097e-4,14.016,154.28,83,0,NaN,7.075,875.43,335.59,2e-3,0.018835
0.042,0.032664,2.1671,73.979,2.1833,74.535,0.0040106,0,0.0040106,0,0.26608,9.0835,28.61,-80.6,9.7884,0,0,0,0,26080,3742,38.274,0.11035,NaN,221.98,NaN,0.006506,461388,2197.3,0.02991,0.74736,0.74736,0.52835,0.099003,0.12001,NaN,NaN,NaN,NaN,NaN,NaN,NaN,NaN,2.8016e-4,14.016,154.28,83,0,NaN,7.075,875.43,335.59,2e-3,0.019447
0.044,0.037146,2.315,73.728,2.3324,74.282,0.004561,0,0.004561,0,0.28425,9.0527,28.61,-80.6,9.7884,0,0,0,0,26078,3740,38.272,0.11035,NaN,221.98,NaN,0.0069503,492892,2190.5,0.033795,0.73994,0.73994,0.52093,0.099004,0.12001,NaN,NaN,NaN,NaN,NaN,NaN,NaN,NaN,2.9929e-4,14.016,154.28,83,0,NaN,7.075,875.43,335.59,2e-3,0.020062
0.046,0.041924,2.4625,73.476,2.481,74.028,0.0051476,0,0.0051476,0,0.30236,9.0218,28.61,-80.6,9.7884,0,0,0,0,26076,3737.9,38.27,0.11034,NaN,221.97,NaN,0.007393,524289,2183.7,0.037886,0.73315,0.73315,0.51414,0.099004,0.12001,NaN,NaN,NaN,NaN,NaN,NaN,NaN,NaN,3.1835e-4,14.016,154.28,83,0,NaN,7.0749,875.42,335.59,2e-3,0.020675
0.048,0.046996,2.6095,73.225,2.6291,73.775,0.0057703,0,0.0057703,0,0.3204,8.9909,28.61,-80.6,9.7884,0,0,0,0,26074,3735.9,38.269,0.11034,NaN,221.96,NaN,0.0078342,555579,2176.9,0.04218,0.72689,0.72689,0.50788,0.099004,0.12001,NaN,NaN,NaN,NaN,NaN,NaN,NaN,NaN,3.3735e-4,14.016,154.28,83,0,NaN,7.0749,875.42,335.59,2e-3,0.023735
0.05,0.052361,2.7559,72.973,2.7766,73.521,0.0064291,0,0.0064291,0,0.33838,8.96,28.61,-80.6,9.7884,0,0,0,0,26072,3733.8,38.267,0.11034,NaN,221.95,NaN,0.0082739,586761,2170.2,0.046673,0.7211,0.7211,0.50208,0.099004,0.12001,NaN,NaN,NaN,NaN,NaN,NaN,NaN,NaN,3.5629e-4,14.016,154.28,83,0,NaN,7.0749,875.42,335.59,2e-3,0.024508
0.052,0.058019,2.9019,72.721,2.9237,73.267,0.0071238,0,0.0071238,0,0.35631,8.9291,28.61,-80.6,9.7884,0,0,0,0,26070,3731.8,38.265,0.11034,NaN,221.95,NaN,0.0087121,617836,2163.4,0.051362,0.71572,0.71572,0.4967,0.099005,0.12001,NaN,NaN,NaN,NaN,NaN,NaN,NaN,NaN,3.7516e-4,14.016,154.28,83,0,NaN,7.0748,875.42,335.59,2e-3,0.025119
0.054,0.063968,3.0473,72.47,3.0702,73.014,0.0078543,0,0.0078543,0,0.37417,8.8981,28.61,-80.6,9.7884,0,0,0,0,26067,3729.8,38.263,0.11033,NaN,221.94,NaN,0.0091488,648804,2156.6,0.056242,0.71069,0.71069,0.49168,0.099005,0.12001,NaN,NaN,NaN,NaN,NaN,NaN,NaN,NaN,3.9396e-4,14.016,154.28,83,0,NaN,7.0748,875.42,335.59,2e-3,0.025728
0.056,0.070208,3.1923,72.218,3.2163,72.76,0.0086204,0,0.0086204,0,0.39196,8.8672,28.61,-80.6,9.7884,0,0,0,0,26065,3727.7,38.261,0.11033,NaN,221.93,NaN,0.009584,679665,2149.8,0.061311,0.70599,0.70599,0.48698,0.099005,0.12001,NaN,NaN,NaN,NaN,NaN,NaN,NaN,NaN,4.127e-4,14.016,154.28,83,0,NaN,7.0747,875.42,335.59,2e-3,0.026395
0.058,0.076737,3.3367,71.966,3.3618,72.506,0.0094221,0,0.0094221,0,0.4097,8.8363,28.61,-80.6,9.7884,0,0,0,0,26063,3725.7,38.26,0.11033,NaN,221.93,NaN,0.010018,710418,2143,0.066567,0.70158,0.70158,0.48256,0.099005,0.12001,NaN,NaN,NaN,NaN,NaN,NaN,NaN,NaN,4.3138e-4,14.016,154.28,83,0,NaN,7.0747,875.42,335.59,2e-3,0.027085
0.06,0.083554,3.4807,71.714,3.5068,72.252,0.010259,0,0.010259,0,0.42737,8.8054,28.61,-80.6,9.7884,0,0,0,0,26061,3723.6,38.258,0.11033,NaN,221.92,NaN,0.01045,741065,2136.3,0.072005,0.69742,0.69742,0.4784,0.099006,0.12001,NaN,NaN,NaN,NaN,NaN,NaN,NaN,NaN,4.4998e-4,14.016,154.28,83,0,NaN,7.0747,875.42,335.59,2e-3,0.027668
0.062,0.090659,3.6241,71.462,3.6513,71.999,0.011132,0,0.011132,0,0.44498,8.7744,28.61,-80.6,9.7884,0,0,0,0,26059,3721.6,38.256,0.11032,NaN,221.91,NaN,0.01088,771603,2129.5,0.077622,0.6935,0.6935,0.47448,0.099006,0.12002,NaN,NaN,NaN,NaN,NaN,NaN,NaN,NaN,4.6853e-4,14.016,154.28,83,0,NaN,7.0746,875.42,335.59,2e-3,0.028277
0.064,0.09805,3.767,71.21,3.7953,71.745,0.012039,0,0.012039,0,0.46253,8.7435,28.61,-80.6,9.7884,0,0,0,0,26057,3719.6,38.254,0.11032,NaN,221.9,NaN,0.01131,802035,2122.7,0.083416,0.68979,0.68979,0.47076,0.099006,0.12002,NaN,NaN,NaN,NaN,NaN,NaN,NaN,NaN,4.8701e-4,14.016,154.28,83,0,NaN,7.0746,875.42,335.59,2e-3,0.028953
0.066,0.10573,3.9095,70.992,3.9388,71.525,0.012982,0,0.012982,0,0.48002,8.7167,28.61,-80.6,9.7884,0,0,0,0,26055,3717.5,38.252,0.11032,NaN,221.9,NaN,0.011737,832359,2116.8,0.089385,0.68626,0.68626,0.46724,0.099007,0.12002,NaN,NaN,NaN,NaN,NaN,NaN,NaN,NaN,5.0542e-4,14.016,154.28,83,0,NaN,7.0745,875.42,335.59,2e-3,0.029617
0.068,0.11369,4.0515,70.976,4.0819,71.509,0.013959,0,0.013959,0,0.49746,8.7148,28.61,-80.6,9.7884,0,0,0,0,26053,3715.5,38.251,0.11032,NaN,221.89,NaN,0.012163,862590,2116.3,0.095527,0.68291,0.68291,0.46389,0.099007,0.12002,NaN,NaN,NaN,NaN,NaN,NaN,NaN,NaN,5.2378e-4,14.016,154.28,83,0,NaN,7.0745,875.42,335.59,2e-3,0.030216
0.07,0.12193,4.1934,70.994,4.2249,71.527,0.014971,0,0.014971,0,0.51489,8.717,28.61,-80.6,9.7884,0,0,0,0,26051,3713.4,38.249,0.11031,NaN,221.88,NaN,0.01259,892814,2116.6,0.10186,0.67972,0.67972,0.46069,0.099007,0.12002,NaN,NaN,NaN,NaN,NaN,NaN,NaN,NaN,5.4213e-4,14.016,154.28,83,0,NaN,7.0744,875.42,335.59,2e-3,0.030815
0.072,0.13046,4.3354,71.012,4.368,71.546,0.016019,0,0.016019,0,0.53232,8.7192,28.61,-80.6,9.7884,0,0,0,0,26049,3711.4,38.247,0.11031,NaN,221.87,NaN,0.013016,923046,2116.9,0.10838,0.67665,0.67665,0.45762,0.099008,0.12002,NaN,NaN,NaN,NaN,NaN,NaN,NaN,NaN,5.6049e-4,14.016,154.28,83,0,NaN,7.0744,875.42,335.59,2e-3,0.031427
0.074,0.13927,4.4775,71.03,4.5111,71.564,0.017101,0,0.017101,0,0.54976,8.7214,28.61,-80.6,9.7884,0,0,0,0,26047,3709.4,38.245,0.11031,NaN,221.87,NaN,0.013442,953286,2117.2,0.1151,0.67372,0.67372,0.45469,0.099008,0.12002,NaN,NaN,NaN,NaN,NaN,NaN,NaN,NaN,5.7885e-4,14.016,154.28,83,0,NaN,7.0743,875.41,335.59,2e-3,0.032009
0.076,0.14837,4.6195,71.048,4.6542,71.582,0.018218,0,0.018218,0,0.56721,8.7236,28.61,-80.6,9.7884,0,0,0,0,26045,3707.3,38.243,0.11031,NaN,221.86,NaN,0.013869,983533,2117.5,0.12201,0.6709,0.6709,0.45187,0.099009,0.12003,NaN,NaN,NaN,NaN,NaN,NaN,NaN,NaN,5.9722e-4,14.016,154.28,83,0,NaN,7.0742,875.41,335.59,2e-3,0.03261
0.078,0.15775,4.7616,71.067,4.7974,71.6,0.01937,0,0.01937,0,0.58466,8.7259,28.61,-80.6,9.7884,0,0,0,0,26043,3705.3,38.242,0.1103,NaN,221.85,NaN,0.014296,1013788,2117.8,0.12911,0.6682,0.6682,0.44916,0.099009,0.12003,NaN,NaN,NaN,NaN,NaN,NaN,NaN,NaN,6.1559e-4,14.016,154.28,83,0,NaN,7.0742,875.41,335.59,2e-3,0.033215
0.08,0.16742,4.9038,71.085,4.9406,71.618,0.020556,0,0.020556,0,0.60211,8.7281,28.61,-80.6,9.7884,0,0,0,0,26041,3703.2,38.24,0.1103,NaN,221.85,NaN,0.014722,1044050,2118.1,0.1364,0.66559,0.66559,0.44656,0.099009,0.12003,NaN,NaN,NaN,NaN,NaN,NaN,NaN,NaN,6.3397e-4,14.016,154.28,83,0,NaN,7.0741,875.41,335.59,2e-3,0.033825
0.082,0.17737,5.046,71.103,5.0839,71.637,0.021778,0,0.021778,0,0.61957,8.7303,28.61,-80.6,9.7884,0,0,0,0,26039,3701.2,38.238,0.1103,NaN,221.84,NaN,0.015149,1074321,2118.5,0.14388,0.66308,0.66308,0.44404,0.09901,0.12003,NaN,NaN,NaN,NaN,NaN,NaN,NaN,NaN,6.5235e-4,14.016,154.28,83,0,NaN,7.074,875.41,335.59,2e-3,0.034419
0.084,0.1876,5.1882,71.121,5.2271,71.655,0.023035,0,0.023035,0,0.63703,8.7325,28.61,-80.6,9.7884,0,0,0,0,26037,3699.1,38.236,0.1103,NaN,221.83,NaN,0.015576,1104598,2118.8,0.15155,0.66067,0.66067,0.44162,0.09901,0.12003,NaN,NaN,NaN,NaN,NaN,NaN,NaN,NaN,6.7073e-4,14.016,154.28,83,0,NaN,7.074,875.41,335.59,2e-3,0.034996
0.086,0.19812,5.3304,71.139,5.3705,71.673,0.024326,0,0.024326,0,0.65449,8.7347,28.61,-80.6,9.7884,0,0,0,0,26035,3697.1,38.234,0.11029,NaN,221.82,NaN,0.016003,1134884,2119.1,0.1594,0.65833,0.65833,0.43929,0.099011,0.12003,NaN,NaN,NaN,NaN,NaN,NaN,NaN,NaN,6.8912e-4,14.016,154.28,83,0,NaN,7.0739,875.41,335.59,2e-3,0.035584
0.088,0.20892,5.4727,71.157,5.5138,71.691,0.025653,0,0.025653,0,0.67197,8.737,28.61,-80.6,9.7884,0,0,0,0,26033,3695.1,38.233,0.11029,NaN,221.82,NaN,0.01643,1165177,2119.4,0.16745,0.65607,0.65607,0.43703,0.099011,0.12004,NaN,NaN,NaN,NaN,NaN,NaN,NaN,NaN,7.0752e-4,14.016,154.28,83,0,NaN,7.0738,875.41,335.59,2e-3,0.036165
0.09,0.22001,5.615,71.175,5.6572,71.709,0.027014,0,0.027014,0,0.68944,8.7392,28.61,-80.6,9.7884,0,0,0,0,26031,3693,38.231,0.11029,NaN,221.81,NaN,0.016858,1195477,2119.7,0.17569,0.65389,0.65389,0.43484,0.099012,0.12004,NaN,NaN,NaN,NaN,NaN,NaN,NaN,NaN,7.2592e-4,14.016,154.28,83,0,NaN,7.0738,875.41,335.59,2e-3,0.036745
0.092,0.23138,5.7574,71.193,5.8006,71.728,0.02841,0,0.02841,0,0.70692,8.7414,28.61,-80.6,9.7884,0,0,0,0,26029,3691,38.229,0.11029,NaN,221.8,NaN,0.017285,1225786,2120,0.18411,0.65178,0.65178,0.43273,0.099012,0.12004,NaN,NaN,NaN,NaN,NaN,NaN,NaN,NaN,7.4432e-4,14.016,154.28,83,0,NaN,7.0737,875.4,335.59,2e-3,0.037331
0.094,0.24304,5.8998,71.211,5.9441,71.746,0.029842,0,0.029842,0,0.7244,8.7436,28.61,-80.6,9.7884,0,0,0,0,26027,3688.9,38.227,0.11028,NaN,221.79,NaN,0.017713,1256102,2120.4,0.19273,0.64973,0.64973,0.43068,0.099013,0.12004,NaN,NaN,NaN,NaN,NaN,NaN,NaN,NaN,7.6273e-4,14.016,154.28,83,0,NaN,7.0736,875.4,335.59,2e-3,0.037912
0.096,0.25498,6.0422,71.229,6.0876,71.764,0.031308,0,0.031308,0,0.74189,8.7458,28.61,-80.6,9.7884,0,0,0,0,26025,3686.9,38.225,0.11028,NaN,221.79,NaN,0.01814,1286425,2120.7,0.20153,0.64775,0.64775,0.42869,0.099013,0.12004,NaN,NaN,NaN,NaN,NaN,NaN,NaN,NaN,7.8115e-4,14.016,154.28,83,0,NaN,7.0735,875.4,335.59,2e-3,0.038556
0.098,0.26721,6.1847,71.247,6.2311,71.782,0.032809,0,0.032809,0,0.75939,8.748,28.61,-80.6,9.7884,0,0,0,0,26023,3684.8,38.224,0.11028,NaN,221.78,NaN,0.018568,1316756,2121,0.21051,0.64582,0.64582,0.42676,0.099014,0.12004,NaN,NaN,NaN,NaN,NaN,NaN,NaN,NaN,7.9956e-4,14.016,154.28,83,0,NaN,7.0735,875.4,335.59,2e-3,0.039151
0.1,0.27972,6.3272,71.265,6.3747,71.8,0.034345,0,0.034345,0,0.77688,8.7503,28.61,-80.6,9.7884,0,0,0,0,26020,3682.8,38.222,0.11028,NaN,221.77,NaN,0.018996,1347095,2121.3,0.21969,0.64395,0.64395,0.42489,0.099014,0.12005,NaN,NaN,NaN,NaN,NaN,NaN,NaN,NaN,8.1799e-4,14.016,154.28,83,0,NaN,7.0734,875.4,335.59,2e-3,0.039773
0.102,0.29252,6.4697,71.283,6.5183,71.819,0.035917,0,0.035917,0,0.79438,8.7525,28.61,-80.6,9.7884,0,0,0,0,26018,3680.8,38.22,0.11027,NaN,221.77,NaN,0.019424,1377441,2121.6,0.22905,0.64214,0.64214,0.42307,0.099015,0.12005,NaN,NaN,NaN,NaN,NaN,NaN,NaN,NaN,8.3642e-4,14.016,154.28,83,0,NaN,7.0733,875.4,335.59,2e-3,0.040422
0.104,0.3056,6.6123,71.301,6.662,71.837,0.037523,0,0.037523,0,0.81189,8.7547,28.61,-80.6,9.7884,0,0,0,0,26016,3678.7,38.218,0.11027,NaN,221.76,NaN,0.019852,1407795,2121.9,0.2386,0.64037,0.64037,0.42131,0.099016,0.12005,NaN,NaN,NaN,NaN,NaN,NaN,NaN,NaN,8.5485e-4,14.016,154.28,83,0,NaN,7.0732,875.4,335.59,2e-3,0.040979
0.106,0.31897,6.7549,71.319,6.8057,71.855,0.039164,0,0.039164,0,0.8294,8.7569,28.61,-80.6,9.7884,0,0,0,0,26014,3676.7,38.216,0.11027,NaN,221.75,NaN,0.02028,1438156,2122.3,0.24833,0.63865,0.63865,0.41958,0.099016,0.12005,NaN,NaN,NaN,NaN,NaN,NaN,NaN,NaN,8.7329e-4,14.016,154.28,83,0,NaN,7.0731,875.4,335.59,2e-3,0.041548
0.108,0.33262,6.8976,71.337,6.9494,71.873,0.040841,0,0.040841,0,0.84692,8.7591,28.61,-80.6,9.7884,0,0,0,0,26012,3674.6,38.214,0.11027,NaN,221.74,NaN,0.020708,1468525,2122.6,0.25825,0.63698,0.63698,0.41791,0.099017,0.12006,NaN,NaN,NaN,NaN,NaN,NaN,NaN,NaN,8.9173e-4,14.016,154.28,83,0,NaN,7.073,875.39,335.59,2e-3,0.042168
0.11,0.34656,7.0403,71.355,7.0931,71.891,0.042552,0,0.042552,0,0.86444,8.7613,28.61,-80.6,9.7884,0,0,0,0,26010,3672.6,38.213,0.11026,NaN,221.74,NaN,0.021137,1498901,2122.9,0.26836,0.63536,0.63536,0.41628,0.099017,0.12006,NaN,NaN,NaN,NaN,NaN,NaN,NaN,NaN,9.1017e-4,14.016,154.28,83,0,NaN,7.0729,875.39,335.59,2e-3,0.042774
0.112,0.36078,7.183,71.373,7.2369,71.909,0.044298,0,0.044298,0,0.88196,8.7635,28.61,-80.6,9.7884,0,0,0,0,26008,3670.5,38.211,0.11026,NaN,221.73,NaN,0.021565,1529286,2123.2,0.27865,0.63377,0.63377,0.41469,0.099018,0.12006,NaN,NaN,NaN,NaN,NaN,NaN,NaN,NaN,9.2862e-4,14.016,154.28,83,0,NaN,7.0729,875.39,335.59,2e-3,0.043376
0.114,0.37529,7.3257,71.391,7.3808,71.927,0.04608,0,0.04608,0,0.89949,8.7658,28.61,-80.6,9.7884,0,0,0,0,26006,3668.5,38.209,0.11026,NaN,221.72,NaN,0.021994,1559677,2123.5,0.28913,0.63222,0.63222,0.41314,0.099019,0.12006,NaN,NaN,NaN,NaN,NaN,NaN,NaN,NaN,9.4708e-4,14.016,154.28,83,0,NaN,7.0728,875.39,335.58,2e-3,0.043935
0.116,0.39008,7.4685,71.409,7.5246,71.946,0.047896,0,0.047896,0,0.91702,8.768,28.61,-80.6,9.7884,0,0,0,0,26004,3666.4,38.207,0.11026,NaN,221.71,NaN,0.022422,1590076,2123.8,0.2998,0.63071,0.63071,0.41163,0.099019,0.12007,NaN,NaN,NaN,NaN,NaN,NaN,NaN,NaN,9.6554e-4,14.016,154.28,83,0,NaN,7.0727,875.39,335.58,2e-3,0.044475
0.118,0.40516,7.6114,71.427,7.6685,71.964,0.049748,0,0.049748,0,0.93456,8.7702,28.61,-80.6,9.7884,0,0,0,0,26002,3664.4,38.205,0.11025,NaN,221.71,NaN,0.022851,1620483,2124.1,0.31065,0.62924,0.62924,0.41015,0.09902,0.12007,NaN,NaN,NaN,NaN,NaN,NaN,NaN,NaN,9.8401e-4,14.016,154.28,83,0,NaN,7.0726,875.39,335.58,2e-3,0.04505
0.12,0.42053,7.7542,71.445,7.8125,71.982,0.051635,0,0.051635,0,0.9521,8.7724,28.61,-80.6,9.7884,0,0,0,0,26000,3662.4,38.204,0.11025,NaN,221.7,NaN,0.02328,1650898,2124.5,0.32168,0.6278,0.6278,0.40871,0.099021,0.12007,NaN,NaN,NaN,NaN,NaN,NaN,NaN,NaN,0.0010025,14.016,154.28,83,0,NaN,7.0725,875.38,335.58,2e-3,0.045629
0.122,0.43618,7.8971,71.463,7.9564,72,0.053556,0,0.053556,0,0.96965,8.7746,28.61,-80.6,9.7884,0,0,0,0,25998,3660.3,38.202,0.11025,NaN,221.69,NaN,0.023709,1681319,2124.8,0.3329,0.6264,0.6264,0.4073,0.099022,0.12007,NaN,NaN,NaN,NaN,NaN,NaN,NaN,NaN,0.0010209,14.016,154.28,83,0,NaN,7.0724,875.38,335.58,2e-3,0.04626
0.124,0.45212,8.0401,71.481,8.1005,72.018,0.055513,0,0.055513,0,0.9872,8.7768,28.61,-80.6,9.7884,0,0,0,0,25996,3658.3,38.2,0.11025,NaN,221.69,NaN,0.024138,1711749,2125.1,0.3443,0.62503,0.62503,0.40593,0.099022,0.12008,NaN,NaN,NaN,NaN,NaN,NaN,NaN,NaN,0.0010394,14.016,154.28,83,0,NaN,7.0723,875.38,335.58,2e-3,0.046987
0.126,0.46834,8.183,71.499,8.2445,72.036,0.057505,0,0.057505,0,1.0048,8.779,28.61,-80.6,9.7884,0,0,0,0,25994,3656.2,38.198,0.11024,NaN,221.68,NaN,0.024568,1742186,2125.4,0.35589,0.62369,0.62369,0.40458,0.099023,0.12008,NaN,NaN,NaN,NaN,NaN,NaN,NaN,NaN,0.0010579,14.016,154.28,83,0,NaN,7.0722,875.38,335.58,2e-3,0.047591
0.128,0.48485,8.3261,71.517,8.3886,72.054,0.059532,0,0.059532,0,1.0223,8.7812,28.61,-80.6,9.7884,0,0,0,0,25992,3654.2,38.196,0.11024,NaN,221.67,NaN,0.024997,1772630,2125.7,0.36766,0.62237,0.62237,0.40327,0.099024,0.12008,NaN,NaN,NaN,NaN,NaN,NaN,NaN,NaN,0.0010764,14.016,154.28,83,0,NaN,7.072,875.38,335.58,2e-3,0.048131
0.13,0.50165,8.4691,71.535,8.5327,72.072,0.061594,0,0.061594,0,1.0399,8.7834,28.61,-80.6,9.7884,0,0,0,0,25990,3652.1,38.194,0.11024,NaN,221.66,NaN,0.025426,1803082,2126,0.37962,0.62109,0.62109,0.40198,0.099024,0.12008,NaN,NaN,NaN,NaN,NaN,NaN,NaN,NaN,0.0010949,14.016,154.28,83,0,NaN,7.0719,875.38,335.58,2e-3,0.04867
0.132,0.51873,8.6122,71.553,8.6769,72.091,0.063692,0,0.063692,0,1.0574,8.7856,28.61,-80.6,9.7884,0,0,0,0,25988,3650.1,38.193,0.11024,NaN,221.66,NaN,0.025856,1833542,2126.4,0.39176,0.61983,0.61983,0.40072,0.099025,0.12009,NaN,NaN,NaN,NaN,NaN,NaN,NaN,NaN,0.0011134,14.016,154.28,83,0,NaN,7.0718,875.37,335.58,2e-3,0.049199
0.134,0.53609,8.7553,71.571,8.821,72.109,0.065824,0,0.065824,0,1.075,8.7878,28.61,-80.6,9.7884,0,0,0,0,25986,3648.1,38.191,0.11023,NaN,221.65,NaN,0.026286,1864009,2126.7,0.40408,0.6186,0.6186,0.39949,0.099026,0.12009,NaN,NaN,NaN,NaN,NaN,NaN,NaN,NaN,0.0011319,14.016,154.28,83,0,NaN,7.0717,875.37,335.58,2e-3,0.04973
0.136,0.55375,8.8984,71.589,8.9653,72.127,0.067992,0,0.067992,0,1.0926,8.79,28.61,-80.6,9.7884,0,0,0,0,25984,3646,38.189,0.11023,NaN,221.64,NaN,0.026715,1894484,2127,0.41659,0.6174,0.6174,0.39828,0.099027,0.12009,NaN,NaN,NaN,NaN,NaN,NaN,NaN,NaN,0.0011504,14.016,154.28,83,0,NaN,7.0716,875.37,335.58,2e-3,0.050252
0.138,0.57169,9.0416,71.607,9.1095,72.145,0.070195,0,0.070195,0,1.1102,8.7922,28.61,-80.6,9.7884,0,0,0,0,25982,3644,38.187,0.11023,NaN,221.63,NaN,0.027145,1924966,2127.3,0.42928,0.61622,0.61622,0.3971,0.099028,0.1201,NaN,NaN,NaN,NaN,NaN,NaN,NaN,NaN,0.0011689,14.016,154.28,83,0,NaN,7.0715,875.37,335.58,2e-3,0.050775
0.14,0.58992,9.1849,71.625,9.2538,72.163,0.072432,0,0.072432,0,1.1278,8.7945,28.61,-80.6,9.7884,0,0,0,0,25980,3641.9,38.185,0.11023,NaN,221.63,NaN,0.027575,1955455,2127.6,0.44216,0.61506,0.61506,0.39593,0.099028,0.1201,NaN,NaN,NaN,NaN,NaN,NaN,NaN,NaN,0.0011874,14.016,154.28,83,0,NaN,7.0714,875.37,335.58,2e-3,0.051314
0.142,0.60843,9.3281,71.643,9.3982,72.181,0.074706,0,0.074706,0,1.1453,8.7967,28.61,-80.6,9.7884,0,0,0,0,25978,3639.9,38.184,0.11023,NaN,221.62,NaN,0.028005,1985953,2127.9,0.45522,0.61393,0.61393,0.3948,0.099029,0.1201,NaN,NaN,NaN,NaN,NaN,NaN,NaN,NaN,0.0012059,14.016,154.28,83,0,NaN,7.0712,875.36,335.58,2e-3,0.051852
0.144,0.62723,9.4714,71.661,9.5425,72.199,0.077014,0,0.077014,0,1.1629,8.7989,28.61,-80.6,9.7884,0,0,0,0,25976,3637.8,38.182,0.11022,NaN,221.61,NaN,0.028436,2016457,2128.3,0.46846,0.61282,0.61282,0.39368,0.09903,0.12011,NaN,NaN,NaN,NaN,NaN,NaN,NaN,NaN,0.0012245,14.016,154.28,83,0,NaN,7.0711,875.36,335.58,2e-3,0.052358
0.146,0.64631,9.6147,71.679,9.687,72.217,0.079357,0,0.079357,0,1.1805,8.8011,28.61,-80.6,9.7884,0,0,0,0,25973,3635.8,38.18,0.11022,NaN,221.61,NaN,0.028866,2046969,2128.6,0.48189,0.61172,0.61172,0.39258,0.099031,0.12011,NaN,NaN,NaN,NaN,NaN,NaN,NaN,NaN,0.001243,14.016,154.28,83,0,NaN,7.071,875.36,335.58,2e-3,0.052716
0.148,0.66569,9.7581,71.697,9.8314,72.235,0.081736,0,0.081736,0,1.1981,8.8033,28.61,-80.6,9.7884,0,0,0,0,25971,3633.8,38.178,0.11022,NaN,221.6,NaN,0.029296,2077489,2128.9,0.49549,0.61065,0.61065,0.39151,0.099032,0.12011,NaN,NaN,NaN,NaN,NaN,NaN,NaN,NaN,0.0012615,14.016,154.28,83,0,NaN,7.0709,875.36,335.58,2e-3,0.053078
0.15,0.68535,9.9015,71.715,9.9759,72.253,0.08415,0,0.08415,0,1.2158,8.8055,28.61,-80.6,9.7884,0,0,0,0,25969,3631.7,38.176,0.11022,NaN,221.59,NaN,0.029727,2108016,2129.2,0.50929,0.6096,0.6096,0.39045,0.099033,0.12011,NaN,NaN,NaN,NaN,NaN,NaN,NaN,NaN,0.0012801,14.016,154.28,83,0,NaN,7.0707,875.36,335.58,2e-3,0.053572
0.152,0.70529,10.045,71.733,10.12,72.271,0.086599,0,0.086599,0,1.2334,8.8077,28.61,-80.6,9.7884,0,0,0,0,25967,3629.7,38.174,0.11021,NaN,221.58,NaN,0.030158,2138551,2129.5,0.52326,0.60857,0.60857,0.38942,0.099034,0.12012,NaN,NaN,NaN,NaN,NaN,NaN,NaN,NaN,0.0012986,14.016,154.28,83,0,NaN,7.0706,875.35,335.58,2e-3,0.054113
0.154,0.72553,10.188,71.751,10.265,72.289,0.089083,0,0.089083,0,1.251,8.8099,28.61,-80.6,9.7884,0,0,0,0,25965,3627.6,38.173,0.11021,NaN,221.58,NaN,0.030588,2169093,2129.8,0.53742,0.60756,0.60756,0.3884,0.099035,0.12012,NaN,NaN,NaN,NaN,NaN,NaN,NaN,NaN,0.0013172,14.016,154.28,83,0,NaN,7.0705,875.35,335.58,2e-3,0.054674
0.156,0.74605,10.332,71.769,10.41,72.308,0.091603,0,0.091603,0,1.2686,8.8121,28.61,-80.6,9.7884,0,0,0,0,25963,3625.6,38.171,0.11021,NaN,221.57,NaN,0.031019,2199643,2130.1,0.55176,0.60656,0.60656,0.3874,0.099036,0.12013,NaN,NaN,NaN,NaN,NaN,NaN,NaN,NaN,0.0013357,14.016,154.28,83,0,NaN,7.0704,875.35,335.58,2e-3,0.055225
0.158,0.76685,10.475,71.786,10.554,72.326,0.094158,0,0.094158,0,1.2862,8.8143,28.61,-80.6,9.7884,0,0,0,0,25961,3623.5,38.169,0.11021,NaN,221.56,NaN,0.03145,2230200,2130.5,0.56628,0.60558,0.60558,0.38642,0.099036,0.12013,NaN,NaN,NaN,NaN,NaN,NaN,NaN,NaN,0.0013543,14.016,154.28,83,0,NaN,7.0702,875.35,335.58,2e-3,0.055758
0.16,0.78795,10.619,71.804,10.699,72.344,0.096748,0,0.096748,0,1.3039,8.8165,28.61,-80.6,9.7884,0,0,0,0,25959,3621.5,38.167,0.1102,NaN,221.55,NaN,0.031881,2260764,2130.8,0.58099,0.60462,0.60462,0.38545,0.099037,0.12013,NaN,NaN,NaN,NaN,NaN,NaN,NaN,NaN,0.0013728,14.016,154.28,83,0,NaN,7.0701,875.35,335.58,2e-3,0.056644
0.162,0.80933,10.763,71.822,10.844,72.362,0.099373,0,0.099373,0,1.3215,8.8187,28.61,-80.6,9.7884,0,0,0,0,25957,3619.5,38.165,0.1102,NaN,221.55,NaN,0.032312,2291336,2131.1,0.59587,0.60368,0.60368,0.3845,0.099038,0.12014,NaN,NaN,NaN,NaN,NaN,NaN,NaN,NaN,0.0013914,14.016,154.28,83,0,NaN,7.0699,875.34,335.58,2e-3,0.057226
0.164,0.831,10.906,71.84,10.988,72.38,0.10203,0,0.10203,0,1.3391,8.8209,28.61,-80.6,9.7884,0,0,0,0,25955,3617.4,38.164,0.1102,NaN,221.54,NaN,0.032744,2321916,2131.4,0.61094,0.60275,0.60275,0.38357,0.099039,0.12014,NaN,NaN,NaN,NaN,NaN,NaN,NaN,NaN,0.00141,14.016,154.28,83,0,NaN,7.0698,875.34,335.58,2e-3,0.057766
0.166,0.85296,11.05,71.858,11.133,72.398,0.10473,0,0.10473,0,1.3568,8.8231,28.61,-80.6,9.7884,0,0,0,0,25953,3615.4,38.162,0.1102,NaN,221.53,NaN,0.033175,2352503,2131.7,0.62619,0.60183,0.60183,0.38265,0.09904,0.12014,NaN,NaN,NaN,NaN,NaN,NaN,NaN,NaN,0.0014286,14.016,154.28,83,0,NaN,7.0697,875.34,335.58,2e-3,0.058304
0.168,0.8752,11.194,71.876,11.278,72.416,0.10746,0,0.10746,0,1.3744,8.8253,28.61,-80.6,9.7884,0,0,0,0,25951,3613.3,38.16,0.11019,NaN,221.53,NaN,0.033607,2383097,2132,0.64163,0.60094,0.60094,0.38175,0.099041,0.12015,NaN,NaN,NaN,NaN,NaN,NaN,NaN,NaN,0.0014471,14.016,154.28,83,0,NaN,7.0695,875.34,335.58,2e-3,0.058835
0.17,0.89773,11.338,71.894,11.423,72.434,0.11023,0,0.11023,0,1.3921,8.8275,28.61,-80.6,9.7884,0,0,0,0,25949,3611.3,38.158,0.11019,NaN,221.52,NaN,0.034038,2413699,2132.4,0.65725,0.60005,0.60005,0.38086,0.099042,0.12015,NaN,NaN,NaN,NaN,NaN,NaN,NaN,NaN,0.0014657,14.016,154.28,83,0,NaN,7.0694,875.33,335.58,2e-3,0.059364
0.172,0.92055,11.481,71.912,11.568,72.452,0.11303,0,0.11303,0,1.4097,8.8297,28.61,-80.6,9.7884,0,0,0,0,25947,3609.2,38.156,0.11019,NaN,221.51,NaN,0.03447,2444309,2132.7,0.67304,0.59918,0.59918,0.37998,0.099043,0.12015,NaN,NaN,NaN,NaN,NaN,NaN,NaN,NaN,0.0014843,14.016,154.28,83,0,NaN,7.0692,875.33,335.58,2e-3,0.059877
0.174,0.94366,11.625,71.93,11.712,72.47,0.11587,0,0.11587,0,1.4274,8.8319,28.61,-80.6,9.7884,0,0,0,0,25945,3607.2,38.154,0.11019,NaN,221.5,NaN,0.034902,2474925,2133,0.68903,0.59832,0.59832,0.37912,0.099044,0.12016,NaN,NaN,NaN,NaN,NaN,NaN,NaN,NaN,0.0015029,14.016,154.28,83,0,NaN,7.0691,875.33,335.58,2e-3,0.060413
0.176,0.96705,11.769,71.948,11.857,72.488,0.11874,0,0.11874,0,1.4451,8.834,28.61,-80.6,9.7884,0,0,0,0,25943,3605.2,38.153,0.11018,NaN,221.5,NaN,0.035334,2505550,2133.3,0.70519,0.59748,0.59748,0.37827,0.099046,0.12016,NaN,NaN,NaN,NaN,NaN,NaN,NaN,NaN,0.0015215,14.016,154.28,83,0,NaN,7.0689,875.33,335.58,2e-3,0.060965
0.178,0.99073,11.913,71.965,12.002,72.506,0.12165,0,0.12165,0,1.4627,8.8362,28.61,-80.6,9.7884,0,0,0,0,25941,3603.1,38.151,0.11018,NaN,221.49,NaN,0.035766,2536181,2133.6,0.72153,0.59665,0.59665,0.37744,0.099047,0.12017,NaN,NaN,NaN,NaN,NaN,NaN,NaN,NaN,0.0015401,14.016,154.28,83,0,NaN,7.0688,875.32,335.58,2e-3,0.061537
0.18,1.0147,12.057,71.983,12.147,72.524,0.12459,0,0.12459,0,1.4804,8.8384,28.61,-80.6,9.7884,0,0,0,0,25939,3601.1,38.149,0.11018,NaN,221.48,NaN,0.036198,2566820,2133.9,0.73806,0.59583,0.59583,0.37661,0.099048,0.12017,NaN,NaN,NaN,NaN,NaN,NaN,NaN,NaN,0.0015587,14.016,154.28,83,0,NaN,7.0686,875.32,335.58,2e-3,0.062085
0.182,1.039,12.201,72.001,12.292,72.542,0.12757,0,0.12757,0,1.4981,8.8406,28.61,-80.6,9.7884,0,0,0,0,25937,3599,38.147,0.11018,NaN,221.47,NaN,0.03663,2597467,2134.3,0.75477,0.59503,0.59503,0.3758,0.099049,0.12017,NaN,NaN,NaN,NaN,NaN,NaN,NaN,NaN,0.0015773,14.016,154.28,83,0,NaN,7.0684,875.32,335.58,2e-3,0.062621
0.184,1.0635,12.345,72.019,12.438,72.56,0.13058,0,0.13058,0,1.5158,8.8428,28.61,-80.6,9.7884,0,0,0,0,25935,3597,38.145,0.11017,NaN,221.47,NaN,0.037063,2628121,2134.6,0.77166,0.59423,0.59423,0.37501,0.09905,0.12018,NaN,NaN,NaN,NaN,NaN,NaN,NaN,NaN,0.001596,14.016,154.28,83,0,NaN,7.0683,875.32,335.58,2e-3,0.063183
0.186,1.0883,12.489,72.037,12.583,72.578,0.13363,0,0.13363,0,1.5334,8.845,28.61,-80.6,9.7884,0,0,0,0,25933,3594.9,38.144,0.11017,NaN,221.46,NaN,0.037495,2658782,2134.9,0.78873,0.59345,0.59345,0.37422,0.099051,0.12018,NaN,NaN,NaN,NaN,NaN,NaN,NaN,NaN,0.0016146,14.016,154.28,83,0,NaN,7.0681,875.31,335.58,2e-3,0.063717
0.188,1.1135,12.633,72.055,12.728,72.596,0.13672,0,0.13672,0,1.5511,8.8472,28.61,-80.6,9.7884,0,0,0,0,25931,3592.9,38.142,0.11017,NaN,221.45,NaN,0.037928,2689451,2135.2,0.80599,0.59268,0.59268,0.37344,0.099052,0.12019,NaN,NaN,NaN,NaN,NaN,NaN,NaN,NaN,0.0016332,14.016,154.28,83,0,NaN,7.068,875.31,335.58,2e-3,0.064268
0.19,1.1389,12.777,72.073,12.873,72.614,0.13984,0,0.13984,0,1.5688,8.8494,28.61,-80.6,9.7884,0,0,0,0,25929,3590.8,38.14,0.11017,NaN,221.44,NaN,0.03836,2720127,2135.5,0.82342,0.59192,0.59192,0.37268,0.099053,0.12019,NaN,NaN,NaN,NaN,NaN,NaN,NaN,NaN,0.0016518,14.016,154.28,83,0,NaN,7.0678,875.31,335.58,2e-3,0.064791
0.192,1.1646,12.921,72.09,13.018,72.632,0.14299,0,0.14299,0,1.5865,8.8516,28.61,-80.6,9.7884,0,0,0,0,25926,3588.8,38.138,0.11016,NaN,221.44,NaN,0.038793,2750811,2135.8,0.84104,0.59117,0.59117,0.37192,0.099055,0.1202,NaN,NaN,NaN,NaN,NaN,NaN,NaN,NaN,0.0016705,14.016,154.28,83,0,NaN,7.0676,875.31,335.58,2e-3,0.065307
0.194,1.1906,13.065,72.108,13.164,72.65,0.14618,0,0.14618,0,1.6042,8.8538,28.61,-80.6,9.7884,0,0,0,0,25924,3586.8,38.136,0.11016,NaN,221.43,NaN,0.039226,2781502,2136.1,0.85884,0.59043,0.59043,0.37118,0.099056,0.1202,NaN,NaN,NaN,NaN,NaN,NaN,NaN,NaN,0.0016891,14.016,154.28,83,0,NaN,7.0675,875.3,335.58,2e-3,0.065843
0.196,1.2168,13.21,72.126,13.309,72.668,0.14941,0,0.14941,0,1.6219,8.856,28.61,-80.6,9.7884,0,0,0,0,25922,3584.7,38.134,0.11016,NaN,221.42,NaN,0.039659,2812200,2136.5,0.87682,0.58971,0.58971,0.37044,0.099057,0.1202,NaN,NaN,NaN,NaN,NaN,NaN,NaN,NaN,0.0017078,14.016,154.28,83,0,NaN,7.0673,875.3,335.58,2e-3,0.066408
0.198,1.2434,13.354,72.144,13.454,72.686,0.15267,0,0.15267,0,1.6397,8.8582,28.61,-80.6,9.7884,0,0,0,0,25920,3582.7,38.133,0.11016,NaN,221.42,NaN,0.040092,2842906,2136.8,0.89498,0.58899,0.58899,0.36972,0.099058,0.12021,NaN,NaN,NaN,NaN,NaN,NaN,NaN,NaN,0.0017264,14.016,154.28,83,0,NaN,7.0671,875.3,335.58,2e-3,0.066939
0.2,1.2702,13.498,72.162,13.6,72.704,0.15597,0,0.15597,0,1.6574,8.8604,28.61,-80.6,9.7884,0,0,0,0,25918,3580.6,38.131,0.11015,NaN,221.41,NaN,0.040526,2873619,2137.1,0.91332,0.58828,0.58828,0.36901,0.099059,0.12021,NaN,NaN,NaN,NaN,NaN,NaN,NaN,NaN,0.0017451,14.016,154.28,83,0,NaN,7.0669,875.29,335.58,2e-3,0.067509
0.202,1.2974,13.643,72.18,13.745,72.722,0.1593,0,0.1593,0,1.6751,8.8625,28.61,-80.6,9.7884,0,0,0,0,25916,3578.6,38.129,0.11015,NaN,221.4,NaN,0.040959,2904340,2137.4,0.93189,0.58761,0.58761,0.36833,0.099061,0.12022,NaN,NaN,NaN,NaN,NaN,NaN,NaN,NaN,0.0017637,14.016,154.28,83,0,NaN,7.0668,875.29,335.58,2e-3,0.068064
0.204,1.3248,13.787,72.197,13.89,72.74,0.16267,0,0.16267,0,1.6928,8.8647,28.61,-80.6,9.7884,0,0,0,0,25914,3576.5,38.127,0.11015,NaN,221.39,NaN,0.041392,2935068,2137.7,0.95172,0.58761,0.58761,0.36833,0.099062,0.12022,NaN,NaN,NaN,NaN,NaN,NaN,NaN,NaN,0.0017824,14.016,154.28,83,0,NaN,7.0666,875.29,335.58,2e-3,0.068728
0.206,1.3525,13.931,72.215,14.036,72.757,0.16607,0,0.16607,0,1.7106,8.8669,28.61,-80.6,9.7884,0,0,0,0,25912,3574.5,38.125,0.11015,NaN,221.39,NaN,0.041826,2965803,2138,0.97177,0.58762,0.58762,0.36833,0.099063,0.12023,NaN,NaN,NaN,NaN,NaN,NaN,NaN,NaN,0.0018011,14.016,154.28,83,0,NaN,7.0664,875.29,335.58,2e-3,0.069341
0.208,1.3805,14.076,72.233,14.182,72.775,0.16951,0,0.16951,0,1.7283,8.8691,28.61,-80.6,9.7884,0,0,0,0,25910,3572.5,38.123,0.11014,NaN,221.38,NaN,0.04226,2996546,2138.4,0.99203,0.58762,0.58762,0.36832,0.099064,0.12023,NaN,NaN,NaN,NaN,NaN,NaN,NaN,NaN,0.0018197,14.016,154.28,83,0,NaN,7.0662,875.28,335.58,2e-3,0.069963
0.21,1.4088,14.22,72.251,14.327,72.793,0.17298,0,0.17298,0,1.746,8.8713,28.61,-80.6,9.7884,0,0,0,0,25908,3570.4,38.122,0.11014,NaN,221.37,NaN,0.042693,3027296,2138.7,1.0125,0.58763,0.58763,0.36832,0.099066,0.12024,NaN,NaN,NaN,NaN,NaN,NaN,NaN,NaN,0.0018384,14.016,154.28,83,0,NaN,7.066,875.28,335.58,2e-3,0.070534
0.212,1.4374,14.365,72.268,14.473,72.811,0.17649,0,0.17649,0,1.7638,8.8735,28.61,-80.6,9.7884,0,0,0,0,25906,3568.4,38.12,0.11014,NaN,221.36,NaN,0.043127,3058054,2139,1.0332,0.58763,0.58763,0.36832,0.099067,0.12024,NaN,NaN,NaN,NaN,NaN,NaN,NaN,NaN,0.0018571,14.016,154.28,83,0,NaN,7.0659,875.28,335.58,2e-3,0.071048
0.214,1.4663,14.509,72.286,14.618,72.829,0.18004,0,0.18004,0,1.7815,8.8756,28.61,-80.6,9.7884,0,0,0,0,25904,3566.3,38.118,0.11014,NaN,221.36,NaN,0.043561,3088818,2139.3,1.0541,0.58763,0.58763,0.36832,0.099068,0.12025,NaN,NaN,NaN,NaN,NaN,NaN,NaN,NaN,0.0018758,14.016,154.28,83,0,NaN,7.0657,875.27,335.58,2e-3,0.07158
0.216,1.4955,14.654,72.304,14.764,72.847,0.18362,0,0.18362,0,1.7993,8.8778,28.61,-80.6,9.7884,0,0,0,0,25902,3564.3,38.116,0.11013,NaN,221.35,NaN,0.043995,3119591,2139.6,1.0752,0.58764,0.58764,0.36832,0.09907,0.12025,NaN,NaN,NaN,NaN,NaN,NaN,NaN,NaN,0.0018945,14.016,154.28,83,0,NaN,7.0655,875.27,335.58,2e-3,0.072138
0.218,1.5249,14.799,72.322,14.91,72.865,0.18724,0,0.18724,0,1.817,8.88,28.61,-80.6,9.7884,0,0,0,0,25900,3562.2,38.114,0.11013,NaN,221.34,NaN,0.044429,3150370,2139.9,1.0965,0.58764,0.58764,0.36832,0.099071,0.12026,NaN,NaN,NaN,NaN,NaN,NaN,NaN,NaN,0.0019132,14.016,154.28,83,0,NaN,7.0653,875.27,335.58,2e-3,0.072879
0.22,1.5547,14.943,72.339,15.055,72.883,0.19089,0,0.19089,0,1.8348,8.8822,28.61,-80.6,9.7884,0,0,0,0,25898,3560.2,38.112,0.11013,NaN,221.33,NaN,0.044864,3181157,2140.2,1.1181,0.58765,0.58765,0.36832,0.099072,0.12026,NaN,NaN,NaN,NaN,NaN,NaN,NaN,NaN,0.0019319,14.016,154.28,83,0,NaN,7.0651,875.26,335.58,2e-3,0.073432
0.222,1.5847,15.088,72.357,15.201,72.901,0.19458,0,0.19458,0,1.8526,8.8843,28.61,-80.6,9.7884,0,0,0,0,25896,3558.2,38.111,0.11013,NaN,221.33,NaN,0.045298,3211951,2140.6,1.1399,0.58765,0.58765,0.36831,0.099074,0.12027,NaN,NaN,NaN,NaN,NaN,NaN,NaN,NaN,0.0019506,14.016,154.28,83,0,NaN,7.0649,875.26,335.58,2e-3,0.07397
0.224,1.615,15.233,72.375,15.347,72.918,0.1983,0,0.1983,0,1.8703,8.8865,28.61,-80.6,9.7884,0,0,0,0,25894,3556.1,38.109,0.11012,NaN,221.32,NaN,0.045733,3242752,2140.9,1.1618,0.58766,0.58766,0.36831,0.099075,0.12027,NaN,NaN,NaN,NaN,NaN,NaN,NaN,NaN,0.0019693,14.016,154.28,83,0,NaN,7.0647,875.26,335.58,2e-3,0.074516
0.226,1.6456,15.377,72.393,15.493,72.936,0.20206,0,0.20206,0,1.8881,8.8887,28.61,-80.6,9.7884,0,0,0,0,25892,3554.1,38.107,0.11012,NaN,221.31,NaN,0.046167,3273561,2141.2,1.184,0.58766,0.58766,0.36831,0.099076,0.12028,NaN,NaN,NaN,NaN,NaN,NaN,NaN,NaN,0.001988,14.016,154.28,83,0,NaN,7.0645,875.25,335.58,2e-3,0.075048
0.228,1.6765,15.522,72.41,15.639,72.954,0.20585,0,0.20585,0,1.9059,8.8909,28.61,-80.6,9.7884,0,0,0,0,25890,3552,38.105,0.11012,NaN,221.31,NaN,0.046602,3304377,2141.5,1.2064,0.58767,0.58767,0.36831,0.099078,0.12028,NaN,NaN,NaN,NaN,NaN,NaN,NaN,NaN,0.0020067,14.016,154.28,83,0,NaN,7.0643,875.25,335.58,2e-3,0.075572
0.23,1.7077,15.667,72.428,15.785,72.972,0.20968,0,0.20968,0,1.9237,8.893,28.61,-80.6,9.7884,0,0,0,0,25888,3550,38.103,0.11012,NaN,221.3,NaN,0.047037,3335201,2141.8,1.2291,0.58768,0.58768,0.36831,0.099079,0.12029,NaN,NaN,NaN,NaN,NaN,NaN,NaN,NaN,0.0020254,14.016,154.28,83,0,NaN,7.0641,875.25,335.58,2e-3,0.076093
0.232,1.7392,15.812,72.446,15.931,72.99,0.21355,0,0.21355,0,1.9415,8.8952,28.61,-80.6,9.7884,0,0,0,0,25886,3547.9,38.102,0.11011,NaN,221.29,NaN,0.047472,3366031,2142.1,1.2519,0.58768,0.58768,0.36831,0.099081,0.12029,NaN,NaN,NaN,NaN,NaN,NaN,NaN,NaN,0.0020442,14.016,154.28,83,0,NaN,7.0639,875.24,335.58,2e-3,0.076654
0.234,1.771,15.957,72.463,16.077,73.008,0.21745,0,0.21745,0,1.9592,8.8974,28.61,-80.6,9.7884,0,0,0,0,25884,3545.9,38.1,0.11011,NaN,221.28,NaN,0.047907,3396869,2142.5,1.275,0.58769,0.58769,0.36831,0.099082,0.1203,NaN,NaN,NaN,NaN,NaN,NaN,NaN,NaN,0.0020629,14.016,154.28,83,0,NaN,7.0637,875.24,335.58,2e-3,0.077195
0.236,1.803,16.102,72.481,16.223,73.025,0.22138,0,0.22138,0,1.977,8.8996,28.61,-80.6,9.7884,0,0,0,0,25882,3543.9,38.098,0.11011,NaN,221.28,NaN,0.048342,3427715,2142.8,1.2982,0.58769,0.58769,0.3683,0.099084,0.1203,NaN,NaN,NaN,NaN,NaN,NaN,NaN,NaN,0.0020816,14.016,154.28,83,0,NaN,7.0635,875.24,335.58,2e-3,0.077737
0.238,1.8354,16.247,72.499,16.369,73.043,0.22535,0,0.22535,0,1.9948,8.9017,28.61,-80.6,9.7884,0,0,0,0,25880,3541.8,38.096,0.11011,NaN,221.27,NaN,0.048777,3458567,2143.1,1.3217,0.5877,0.5877,0.3683,0.099085,0.12031,NaN,NaN,NaN,NaN,NaN,NaN,NaN,NaN,0.0021004,14.016,154.28,83,0,NaN,7.0633,875.23,335.58,2e-3,0.078259
0.24,1.868,16.392,72.516,16.515,73.061,0.22936,0,0.22936,0,2.0126,8.9039,28.61,-80.6,9.7884,0,0,0,0,25877,3539.8,38.094,0.1101,NaN,221.26,NaN,0.049213,3489427,2143.4,1.3454,0.5877,0.5877,0.3683,0.099087,0.12031,NaN,NaN,NaN,NaN,NaN,NaN,NaN,NaN,0.0021191,14.016,154.28,83,0,NaN,7.0631,875.23,335.58,2e-3,0.078797
0.242,1.9009,16.537,72.534,16.661,73.079,0.2334,0,0.2334,0,2.0305,8.9061,28.61,-80.6,9.7884,0,0,0,0,25875,3537.7,38.092,0.1101,NaN,221.25,NaN,0.049648,3520294,2143.7,1.3694,0.58771,0.58771,0.3683,0.099088,0.12032,NaN,NaN,NaN,NaN,NaN,NaN,NaN,NaN,0.0021379,14.016,154.28,83,0,NaN,7.0628,875.23,335.58,2e-3,0.07936
0.244,1.9341,16.682,72.552,16.807,73.097,0.23748,0,0.23748,0,2.0483,8.9082,28.61,-80.6,9.7884,0,0,0,0,25873,3535.7,38.091,0.1101,NaN,221.25,NaN,0.050084,3551169,2144,1.3935,0.58771,0.58771,0.3683,0.09909,0.12033,NaN,NaN,NaN,NaN,NaN,NaN,NaN,NaN,0.0021566,14.016,154.28,83,0,NaN,7.0626,875.22,335.58,2e-3,0.079865
0.246,1.9677,16.827,72.569,16.953,73.114,0.2416,0,0.2416,0,2.0661,8.9104,28.61,-80.6,9.7884,0,0,0,0,25871,3533.6,38.089,0.1101,NaN,221.24,NaN,0.05052,3582051,2144.4,1.4179,0.58772,0.58772,0.3683,0.099091,0.12033,NaN,NaN,NaN,NaN,NaN,NaN,NaN,NaN,0.0021754,14.016,154.28,83,0,NaN,7.0624,875.22,335.58,2e-3,0.080372
0.248,2.0015,16.972,72.587,17.1,73.132,0.24575,0,0.24575,0,2.0839,8.9126,28.61,-80.6,9.7884,0,0,0,0,25869,3531.6,38.087,0.1101,NaN,221.23,NaN,0.050955,3612940,2144.7,1.4424,0.58772,0.58772,0.36829,0.099093,0.12034,NaN,NaN,NaN,NaN,NaN,NaN,NaN,NaN,0.0021942,14.016,154.28,83,0,NaN,7.0622,875.22,335.58,2e-3,0.080879
0.25,2.0355,17.117,72.605,17.246,73.15,0.24993,0,0.24993,0,2.1017,8.9147,28.61,-80.6,9.7884,0,0,0,0,25867,3529.5,38.085,0.11009,NaN,221.22,NaN,0.051391,3643836,2145,1.4672,0.58773,0.58773,0.36829,0.099094,0.12034,NaN,NaN,NaN,NaN,NaN,NaN,NaN,NaN,0.0022129,14.016,154.28,83,0,NaN,7.062,875.21,335.58,2e-3,0.081407
0.252,2.0699,17.262,72.622,17.392,73.168,0.25415,0,0.25415,0,2.1196,8.9169,28.61,-80.6,9.7884,0,0,0,0,25865,3527.5,38.083,0.11009,NaN,221.22,NaN,0.051827,3674739,2145.3,1.4922,0.58774,0.58774,0.36829,0.099096,0.12035,NaN,NaN,NaN,NaN,NaN,NaN,NaN,NaN,0.0022317,14.016,154.28,83,0,NaN,7.0617,875.21,335.58,2e-3,0.081919
0.254,2.1046,17.408,72.64,17.538,73.186,0.25841,0,0.25841,0,2.1374,8.9191,28.61,-80.6,9.7884,0,0,0,0,25863,3525.5,38.081,0.11009,NaN,221.21,NaN,0.052263,3705650,2145.6,1.5175,0.58774,0.58774,0.36829,0.099097,0.12036,NaN,NaN,NaN,NaN,NaN,NaN,NaN,NaN,0.0022505,14.016,154.28,83,0,NaN,7.0615,875.21,335.58,2e-3,0.08243
0.256,2.1396,17.553,72.658,17.685,73.203,0.2627,0,0.2627,0,2.1552,8.9212,28.61,-80.6,9.7884,0,0,0,0,25861,3523.4,38.08,0.11009,NaN,221.2,NaN,0.0527,3736568,2145.9,1.5429,0.58775,0.58775,0.36829,0.099099,0.12036,NaN,NaN,NaN,NaN,NaN,NaN,NaN,NaN,0.0022693,14.016,154.28,83,0,NaN,7.0613,875.2,335.58,2e-3,0.082946
0.258,2.1748,17.698,72.675,17.831,73.221,0.26703,0,0.26703,0,2.1731,8.9234,28.61,-80.6,9.7884,0,0,0,0,25859,3521.4,38.078,0.11008,NaN,221.2,NaN,0.053136,3767493,2146.2,1.5686,0.58775,0.58775,0.36829,0.099101,0.12037,NaN,NaN,NaN,NaN,NaN,NaN,NaN,NaN,0.0022881,14.016,154.28,83,0,NaN,7.0611,875.2,335.58,2e-3,0.083467
0.26,2.2103,17.844,72.693,17.978,73.239,0.2714,0,0.2714,0,2.1909,8.9256,28.61,-80.6,9.7884,0,0,0,0,25857,3519.3,38.076,0.11008,NaN,221.19,NaN,0.053572,3798426,2146.6,1.5945,0.58776,0.58776,0.36828,0.099102,0.12037,NaN,NaN,NaN,NaN,NaN,NaN,NaN,NaN,0.0023069,14.016,154.28,83,0,NaN,7.0608,875.19,335.58,2e-3,0.083971
0.262,2.2462,17.989,72.711,18.124,73.257,0.2758,0,0.2758,0,2.2088,8.9277,28.61,-80.6,9.7884,0,0,0,0,25855,3517.3,38.074,0.11008,NaN,221.18,NaN,0.054009,3829366,2146.9,1.6206,0.58777,0.58777,0.36828,0.099104,0.12038,NaN,NaN,NaN,NaN,NaN,NaN,NaN,NaN,0.0023256,14.016,154.28,83,0,NaN,7.0606,875.19,335.58,2e-3,0.084486
0.264,2.2823,18.135,72.728,18.271,73.274,0.28023,0,0.28023,0,2.2266,8.9299,28.61,-80.6,9.7884,0,0,0,0,25853,3515.2,38.072,0.11008,NaN,221.17,NaN,0.054446,3860313,2147.2,1.6469,0.58777,0.58777,0.36828,0.099106,0.12039,NaN,NaN,NaN,NaN,NaN,NaN,NaN,NaN,0.0023444,14.016,154.28,83,0,NaN,7.0604,875.19,335.58,2e-3,0.084993
0.266,2.3187,18.28,72.746,18.417,73.292,0.2847,0,0.2847,0,2.2445,8.9321,28.61,-80.6,9.7884,0,0,0,0,25851,3513.2,38.07,0.11007,NaN,221.17,NaN,0.054882,3891267,2147.5,1.6734,0.58778,0.58778,0.36828,0.099107,0.12039,NaN,NaN,NaN,NaN,NaN,NaN,NaN,NaN,0.0023633,14.016,154.28,83,0,NaN,7.0601,875.18,335.58,2e-3,0.0855
0.268,2.3554,18.425,72.763,18.564,73.31,0.28921,0,0.28921,0,2.2624,8.9342,28.61,-80.6,9.7884,0,0,0,0,25849,3511.2,38.069,0.11007,NaN,221.16,NaN,0.055319,3922228,2147.8,1.7002,0.58778,0.58778,0.36828,0.099109,0.1204,NaN,NaN,NaN,NaN,NaN,NaN,NaN,NaN,0.0023821,14.016,154.28,83,0,NaN,7.0599,875.18,335.58,2e-3,0.086002
0.27,2.3924,18.571,72.781,18.71,73.328,0.29375,0,0.29375,0,2.2802,8.9364,28.61,-80.6,9.7884,0,0,0,0,25847,3509.1,38.067,0.11007,NaN,221.15,NaN,0.055756,3953197,2148.1,1.7272,0.58779,0.58779,0.36828,0.099111,0.1204,NaN,NaN,NaN,NaN,NaN,NaN,NaN,NaN,0.0024009,14.016,154.28,83,0,NaN,7.0596,875.17,335.58,2e-3,0.086589
0.272,2.4297,18.717,72.654,18.857,73.355,0.29833,0,0.29833,0,2.2981,10.12,28.61,-80.6,9.7884,0,0,0,0,25845,3507.1,38.065,0.11007,265.58,221.14,3.1704,0.056193,3984173,2148.5,1.7544,0.5878,0.5878,0.36827,0.099112,0.12041,0,4.1878e-4,-3.9199e-4,0,0,0,0,0,0.0024197,14.016,154.28,83,0,NaN,7.0594,875.17,335.58,3e-3,0.087324
0.275,2.4862,18.935,72.681,19.077,73.383,0.30527,0,0.30527,1.3614e-7,2.3285,10.123,28.61,-80.6,9.7884,0.010726,0,5.5893e-6,0,25842,3504.5,38.063,0.11006,265.53,221.13,3.1675,0.056849,4030650,2149.1,1.7956,0.58781,0.58781,0.36827,0.099115,0.12042,0.0018717,0.0055256,-4.7757e-5,0,0,0,0,0,0.002448,14.016,154.28,83,0,NaN,7.059,875.16,335.58,0.0045,0.087914
0.2795,2.5721,19.262,72.723,19.407,73.425,0.31585,0,0.31585,8.277e-7,2.374,10.128,28.61,-80.6,9.7884,0.026355,0,3.541e-5,-4.0515e-7,25838,3500.7,38.059,0.11006,265.46,221.12,3.1635,0.057833,4100395,2150,1.8583,0.58782,0.58782,0.36827,0.099119,0.12043,0.0046028,0.014816,4.1371e-4,0,0,0,0,0,0.0024904,14.016,154.28,83,0,NaN,7.0585,875.16,335.58,0.00675,0.088523
0.28625,2.7038,19.753,72.785,19.903,73.488,0.33211,1.6631e-8,0.33211,2.8692e-6,2.4424,10.135,28.61,-80.6,9.7884,0.048815,0,1.311e-4,-1.5177e-6,25833,3494.9,38.054,0.11005,265.36,221.1,3.1577,0.05931,4205079,2151.3,1.9545,0.58784,0.58785,0.36826,0.099125,0.12046,0.0085361,0.026812,4.1621e-4,0,0,0,0,0,0.002554,14.016,154.28,83,0,NaN,7.0576,875.14,335.58,0.01,0.089553
0.29625,2.905,20.481,72.878,20.638,73.581,0.35704,4.8845e-8,0.35704,7.8384e-6,2.5438,10.146,28.61,-80.6,9.7884,0.080081,0,3.9157e-4,-3.3512e-6,25824,3486.4,38.046,0.11004,265.22,221.07,3.1498,0.061501,4360314,2152.9,2.1016,0.58788,0.58789,0.36825,0.099134,0.12049,0.014028,0.044065,4.854e-4,0,0,0,0,0,0.0026484,14.016,154.28,83,0,NaN,7.0563,875.12,335.58,0.01,0.090212
0.30625,3.1134,21.21,72.965,21.374,73.669,0.38298,9.8796e-8,0.38298,1.478e-5,2.6453,10.155,28.61,-80.6,9.7884,0.10917,0,8.0038e-4,-5.3052e-6,25814,3476.2,38.037,0.11003,265.09,221.03,3.1432,0.063694,4515731,2154.5,2.2543,0.58791,0.58793,0.36824,0.099144,0.12053,0.019154,0.059893,-4.0664e-4,0,0,0,0,0,0.0027429,14.016,154.28,83,0,NaN,7.055,875.1,335.57,0.01,0.090755
0.31625,3.3292,21.94,73.053,22.111,73.757,0.40994,1.6718e-7,0.40994,2.3366e-5,2.7469,10.165,28.61,-80.6,9.7884,0.13628,0,0.0013698,-2.135e-6,25804,3466,38.028,0.11002,264.96,221,3.1371,0.06589,4671327,2156.1,2.4126,0.58795,0.58798,0.36823,0.099154,0.12056,0.023948,0.075055,2.2392e-4,0,0,0,0,1.0857e-8,0.0028375,14.016,154.28,83,0,NaN,7.0536,875.07,335.57,0.01,0.091309
0.32625,3.5522,22.671,73.14,22.849,73.845,0.43792,2.5469e-7,0.43792,3.3323e-5,2.8485,10.175,28.61,-80.6,9.7884,0.16162,0,0.002109,-2.9002e-6,25793,3455.7,38.019,0.11,264.85,220.96,3.1317,0.068089,4827102,2157.7,2.5764,0.58799,0.58803,0.36822,0.099164,0.1206,0.028439,0.089175,3.1893e-4,0,0,0,0,2.4101e-8,0.0029322,14.016,154.28,83,0,NaN,7.0521,875.05,335.57,0.01,0.091986
0.33625,3.7826,23.402,73.228,23.587,73.932,0.46691,3.6202e-7,0.46691,4.4424e-5,2.9503,10.184,28.61,-80.6,9.7884,0.18534,0,0.0030248,-6.119e-6,25783,3445.5,38.009,0.10999,264.75,220.92,3.1269,0.07029,4983054,2159.2,2.7459,0.58802,0.58809,0.36821,0.099175,0.12064,0.032655,0.10259,-4.8444e-4,0,0,0,0,4.6521e-8,0.003027,14.016,154.28,83,0,NaN,7.0506,875.03,335.57,0.01,0.092622
0.34625,4.0203,24.135,73.315,24.327,74.02,0.49693,4.8986e-7,0.49693,5.6481e-5,3.0522,10.194,28.61,-80.6,9.7884,0.20757,0,0.0041294,-5.6968e-6,25773,3435.3,38,0.10998,264.65,220.88,3.1225,0.072494,5139184,2160.8,2.921,0.58807,0.58814,0.3682,0.099186,0.12068,0.036619,0.11471,3.3488e-4,0,0,0,0,8.1511e-8,0.003122,14.016,154.28,83,0,NaN,7.0491,875,335.57,0.01,0.093248
0.35625,4.2653,24.868,73.402,25.067,74.107,0.52796,6.3891e-7,0.52796,6.9336e-5,3.1541,10.203,28.61,-80.6,9.7884,0.22846,0,0.0054301,-7.3933e-6,25763,3425.1,37.991,0.10997,264.56,220.85,3.1186,0.074701,5295490,2162.4,3.1017,0.58811,0.5882,0.36818,0.099197,0.12073,0.040351,0.12633,2.318e-4,0,0,0,0,1.3275e-7,0.003217,14.016,154.28,83,0,NaN,7.0475,874.98,335.57,0.01,0.094906
0.36625,4.5176,25.602,73.488,25.809,74.195,0.56001,8.0985e-7,0.56001,8.2857e-5,3.2562,10.212,28.61,-80.6,9.7884,0.24806,0,0.0069388,-6.8068e-6,25753,3414.9,37.982,0.10996,264.47,220.81,3.1151,0.07691,5451972,2164,3.2881,0.58815,0.58826,0.36817,0.099209,0.12077,0.043859,0.13677,-3.3341e-4,0,0,0,0,2.0448e-7,0.0033122,14.016,154.28,83,7.0246e-7,NaN,7.0458,874.95,335.57,0.01,0.095663
0.37625,4.7773,26.337,73.575,26.551,74.282,0.59308,1.0034e-6,0.59308,9.6934e-5,3.3583,10.222,28.61,-80.6,9.7884,0.2665,0,0.008665,-6.7625e-6,25742,3404.7,37.972,0.10994,264.39,220.77,3.112,0.079122,5608630,2165.5,3.4802,0.58819,0.58832,0.36816,0.099221,0.12081,0.047168,0.14674,-3.9195e-4,0,0,0,0,3.013e-7,0.0034075,14.016,154.28,83,1.3206e-6,NaN,7.0441,874.92,335.57,0.01,0.096606
0.38625,5.0444,27.073,73.661,27.294,74.369,0.62718,1.2202e-6,0.62718,1.1147e-4,3.4606,10.231,28.61,-80.6,9.7884,0.28388,0,0.010617,-4.4019e-6,25732,3394.4,37.963,0.10993,264.31,220.74,3.1092,0.081336,5765461,2167.1,3.678,0.58824,0.58839,0.36815,0.099233,0.12086,0.050293,0.15618,1.2857e-4,0,0,0,0,4.2803e-7,0.0035029,14.016,154.28,83,1.9198e-6,NaN,7.0424,874.89,335.57,0.01,0.098853
0.39625,5.3188,27.81,73.748,28.038,74.455,0.66229,1.461e-6,0.66229,1.264e-4,3.5629,10.24,28.61,-80.6,9.7884,0.30028,0,0.012805,-4.6185e-6,25722,3384.2,37.954,0.10992,264.24,220.7,3.1068,0.083553,5922467,2168.7,3.8816,0.58829,0.58845,0.36813,0.099246,0.12091,0.053246,0.16566,1.2132e-6,0,0,0,0,5.901e-7,0.0035984,14.016,154.28,83,2.4269e-6,NaN,7.0406,874.86,335.57,0.01,0.099556
0.40625,5.6006,28.548,73.834,28.782,74.542,0.69843,1.7265e-6,0.69843,1.4164e-4,3.6653,10.249,28.61,-80.6,9.7884,0.31576,0,0.015243,-5.0161e-6,25712,3374,37.945,0.10991,264.18,220.66,3.1047,0.085773,6079646,2170.3,4.0908,0.58833,0.58851,0.36812,0.099259,0.12096,0.05604,0.17402,4.5895e-4,0,0,0,0,7.934e-7,0.003694,14.016,154.28,83,2.9952e-6,NaN,7.0388,874.83,335.56,0.01,0.10016
0.41625,5.8898,29.287,73.92,29.528,74.628,0.7356,2.0174e-6,0.7356,1.5714e-4,3.7678,10.259,28.61,-80.6,9.7884,0.33039,0,0.017934,-1.0061e-5,25701,3363.8,37.935,0.10989,264.11,220.62,3.1029,0.087995,6236997,2171.9,4.3059,0.58838,0.58858,0.3681,0.099273,0.12101,0.058685,0.18231,-4.7377e-4,0,0,0,0,1.0435e-6,0.0037898,14.016,154.28,82.999,3.8882e-6,NaN,7.0369,874.8,335.56,0.01,0.10077
0.42625,6.1863,30.026,74.006,30.274,74.715,0.77379,2.3344e-6,0.77379,1.7285e-4,3.8704,10.268,28.61,-80.6,9.7884,0.34423,0,0.020891,-1.2879e-5,25691,3353.6,37.926,0.10988,264.05,220.59,3.1013,0.09022,6394521,2173.4,4.5268,0.58843,0.58865,0.36809,0.099287,0.12106,0.061191,0.19025,-4.17e-4,0,0,0,0,1.3471e-6,0.0038856,14.016,154.28,82.999,5.0113e-6,NaN,7.035,874.77,335.56,0.01,0.10136
0.43625,6.4903,30.766,74.092,31.022,74.801,0.81301,2.6782e-6,0.81301,1.8874e-4,3.9731,10.277,28.61,-80.6,9.7884,0.35733,0,0.024125,-1.407e-5,25681,3343.4,37.917,0.10987,264,220.55,3.1,0.092448,6552215,2175,4.7534,0.58849,0.58872,0.36807,0.099301,0.12111,0.063566,0.19667,7.1443e-5,0,0,0,0,1.7109e-6,0.0039816,14.016,154.28,82.999,6.3925e-6,NaN,7.033,874.74,335.56,0.01,0.10196
0.44625,6.8017,31.507,74.177,31.77,74.887,0.85326,3.0495e-6,0.85326,2.0477e-4,4.0759,10.286,28.61,-80.6,9.7884,0.36973,0,0.027638,-1.6881e-5,25671,3333.1,37.908,0.10986,263.95,220.51,3.0989,0.094678,6710080,2176.6,4.9859,0.58854,0.58879,0.36806,0.099316,0.12117,0.065818,0.20386,-4.9457e-4,0,0,0,0,2.141e-6,0.0040776,14.016,154.28,82.999,8.0768e-6,NaN,7.031,874.71,335.56,0.01,0.10263
0.45625,7.1204,32.249,74.263,32.519,74.973,0.89453,3.449e-6,0.89453,2.2091e-4,4.1788,10.295,28.61,-80.6,9.7884,0.38147,0,0.031442,-1.5864e-5,25661,3322.9,37.898,0.10984,263.9,220.48,3.098,0.09691,6868115,2178.2,5.2243,0.5886,0.58886,0.36804,0.099331,0.12122,0.067954,0.21052,1.9296e-4,0,0,0,0,2.6446e-6,0.0041738,14.016,154.28,82.998,9.8499e-6,NaN,7.0289,874.67,335.56,0.01,0.10325
0.46625,7.4467,32.992,74.348,33.269,75.059,0.93683,3.8774e-6,0.93683,2.3714e-4,4.2818,10.304,28.61,-80.6,9.7884,0.3926,0,0.035553,-1.6535e-5,25650,3312.7,37.889,0.10983,263.85,220.44,3.0973,0.099146,7026319,2179.7,5.4685,0.58865,0.58893,0.36803,0.099346,0.12128,0.06998,0.21698,3.3171e-4,0,0,0,0,3.2307e-6,0.0042701,14.016,154.28,82.998,1.1751e-5,NaN,7.0268,874.64,335.56,0.01,0.10386
0.47625,7.7803,33.736,74.433,34.02,75.144,0.98016,4.3354e-6,0.98016,2.5343e-4,4.3848,10.313,28.61,-80.6,9.7884,0.40315,0,0.03998,-1.9414e-5,25640,3302.5,37.88,0.10982,263.8,220.4,3.0968,0.10138,7184692,2181.3,5.7186,0.58871,0.589,0.36801,0.099362,0.12134,0.071903,0.22274,3.8784e-4,0,0,0,0,3.9069e-6,0.0043665,14.016,154.28,82.998,1.382e-5,NaN,7.0246,874.6,335.56,0.01,0.10445
0.48625,8.1214,34.481,74.518,34.771,75.229,1.0245,4.8238e-6,1.0245,2.6976e-4,4.488,10.322,28.61,-80.6,9.7884,0.41315,0,0.044729,-1.8564e-5,25630,3292.3,37.87,0.10981,263.76,220.36,3.0965,0.10362,7343232,2182.9,5.9747,0.58877,0.58908,0.36799,0.099378,0.1214,0.073728,0.22848,-8.1775e-5,0,0,0,0,4.6812e-6,0.004463,14.016,154.28,82.997,1.6076e-5,NaN,7.0224,874.57,335.55,0.01,0.10684
0.49625,8.4699,35.226,74.603,35.524,75.315,1.0699,5.3432e-6,1.0699,2.8614e-4,4.5912,10.331,28.61,-80.6,9.7884,0.42262,0,0.049804,-2.2974e-5,25620,3282.1,37.861,0.1098,263.72,220.33,3.0964,0.10587,7501940,2184.5,6.2366,0.58883,0.58915,0.36798,0.099394,0.12146,0.075459,0.23328,2.4625e-4,0,0,0,0,5.5603e-6,0.0045596,14.016,154.28,82.997,1.8527e-5,NaN,7.0201,874.53,335.55,0.01,0.10741
0.50625,8.8259,35.972,74.687,36.277,75.4,1.1164,5.8944e-6,1.1164,3.0253e-4,4.6946,10.34,28.61,-80.6,9.7884,0.43159,0,0.05522,-2.26e-5,25610,3271.8,37.852,0.10978,263.69,220.29,3.0964,0.10811,7660814,2186.1,6.5045,0.58889,0.58923,0.36796,0.099411,0.12152,0.077102,0.23846,-3.4864e-4,0,0,0,0,6.5546e-6,0.0046563,14.016,154.28,82.996,2.1325e-5,NaN,7.0178,874.49,335.55,0.01,0.10795
0.51625,9.1894,36.719,74.772,37.032,75.485,1.1638,6.4781e-6,1.1638,3.1893e-4,4.798,10.349,28.61,-80.6,9.7884,0.4401,0,0.060986,-1.7461e-5,25599,3261.6,37.842,0.10977,263.65,220.25,3.0966,0.11036,7819854,2187.6,6.7785,0.58895,0.5893,0.36794,0.099428,0.12158,0.078659,0.24342,-1.7509e-5,0,0,0,0,7.6724e-6,0.0047531,14.016,154.28,82.996,2.3817e-5,NaN,7.0155,874.45,335.55,0.01,0.1085
0.52625,9.5603,37.467,74.856,37.787,75.569,1.2123,7.0951e-6,1.2123,3.3532e-4,4.9015,10.358,28.61,-80.6,9.7884,0.44815,0,0.067115,-1.255e-5,25589,3251.4,37.833,0.10976,263.62,220.21,3.0969,0.11261,7979060,2189.2,7.0584,0.58902,0.58938,0.36792,0.099446,0.12165,0.080136,0.24834,-1.4449e-4,0,0,0,0,8.9244e-6,0.0048501,14.016,154.28,82.995,2.6189e-5,NaN,7.0131,874.41,335.55,0.01,0.11077
0.53625,9.9387,38.216,74.94,38.542,75.654,1.2618,7.7459e-6,1.2618,3.5171e-4,5.0051,10.367,28.61,-80.6,9.7884,0.45576,0,0.073606,-1.3403e-5,25579,3241.2,37.824,0.10975,263.59,220.18,3.0974,0.11486,8138430,2190.8,7.3443,0.58908,0.58946,0.3679,0.099464,0.12172,0.081534,0.25267,-1.5507e-4,0,0,0,0,1.0317e-5,0.0049471,14.016,154.28,82.994,2.8456e-5,NaN,7.0106,874.37,335.55,0.01,0.11155
0.54625,10.325,38.966,75.024,39.299,75.738,1.3124,8.4314e-6,1.3124,3.6809e-4,5.1088,10.376,28.61,-80.6,9.7884,0.46297,0,0.080479,-1.2726e-5,25569,3231,37.814,0.10973,263.56,220.14,3.098,0.11712,8297963,2192.4,7.6362,0.58915,0.58954,0.36788,0.099482,0.12178,0.082858,0.25676,3.2993e-4,0,0,0,0,1.1864e-5,0.0050443,14.016,154.28,82.994,3.0875e-5,NaN,7.0081,874.33,335.55,0.01,0.11233
0.55625,10.718,39.716,75.108,40.057,75.822,1.364,9.1523e-6,1.364,3.8444e-4,5.2126,10.385,28.61,-80.6,9.7884,0.46977,0,0.087736,-1.1713e-5,25558,3220.8,37.805,0.10972,263.53,220.1,3.0987,0.11938,8457660,2194,7.9343,0.58922,0.58962,0.36786,0.099501,0.12185,0.084109,0.26095,-9.512e-5,0,0,0,0,1.3571e-5,0.0051416,14.016,154.28,82.993,3.3402e-5,NaN,7.0055,874.29,335.54,0.01,0.11295
0.56625,11.119,40.468,75.191,40.815,75.906,1.4167,9.9092e-6,1.4167,4.0077e-4,5.3164,10.394,28.61,-80.6,9.7884,0.47619,0,0.09539,-1.5037e-5,25548,3210.5,37.795,0.10971,263.51,220.06,3.0996,0.12164,8617520,2195.5,8.2384,0.58929,0.5897,0.36784,0.09952,0.12192,0.085291,0.26411,-4.8542e-4,0,0,0,0,1.5452e-5,0.0052389,14.016,154.28,82.992,3.6163e-5,NaN,7.0029,874.25,335.54,0.01,0.11353
0.57625,11.527,41.22,75.275,41.575,75.99,1.4704,1.0703e-5,1.4704,4.1706e-4,5.4204,10.404,28.61,-80.6,9.7884,0.48224,0,0.10344,-1.2521e-5,25538,3200.3,37.786,0.1097,263.48,220.02,3.1006,0.1239,8777541,2197.1,8.5486,0.58936,0.58978,0.36782,0.099539,0.122,0.086406,0.26746,-2.7569e-4,0,0,0,0,1.7513e-5,0.0053364,14.016,154.28,82.991,3.8929e-5,NaN,7.0003,874.2,335.54,0.01,0.11407
0.58625,11.943,41.973,75.358,42.335,76.074,1.5251,1.1534e-5,1.5251,4.3332e-4,5.5245,10.413,28.61,-80.6,9.7884,0.48793,0,0.11191,-9.3307e-6,25528,3190.1,37.777,0.10969,263.46,219.99,3.1017,0.12617,8937724,2198.7,8.8649,0.58943,0.58986,0.3678,0.099559,0.12207,0.087456,0.27094,-2.1517e-4,0,0,0,0,1.9768e-5,0.005434,14.016,154.28,82.99,4.1807e-5,NaN,6.9976,874.16,335.54,0.01,0.11461
0.59625,12.367,42.726,75.441,43.096,76.157,1.5808,1.2403e-5,1.5808,4.4954e-4,5.6286,10.422,28.61,-80.6,9.7884,0.49327,0,0.12079,-1.0957e-5,25518,3179.9,37.767,0.10967,263.44,219.95,3.1029,0.12844,9098066,2200.3,9.1873,0.58951,0.58994,0.36778,0.099579,0.12214,0.088443,0.27479,4.0256e-4,0,0,0,0,2.2224e-5,0.0055317,14.016,154.28,82.989,4.4843e-5,NaN,6.9948,874.11,335.54,0.01,0.11513
0.60625,12.798,43.481,75.524,43.857,76.241,1.6376,1.3311e-5,1.6376,4.6572e-4,5.7329,10.432,28.61,-80.6,9.7884,0.49828,0,0.13011,-1.7843e-5,25507,3169.7,37.758,0.10966,263.42,219.91,3.1042,0.13071,9258569,2201.8,9.516,0.58958,0.59003,0.36776,0.0996,0.12222,0.089369,0.27785,3.7504e-4,0,0,0,0,2.4896e-5,0.0056295,14.016,154.28,82.987,4.8387e-5,NaN,6.992,874.07,335.54,0.01,0.11566
0.61625,13.236,44.237,75.606,44.62,76.324,1.6955,1.4259e-5,1.6955,4.8186e-4,5.8372,10.441,28.61,-80.6,9.7884,0.50296,0,0.13985,-2.1448e-5,25497,3159.5,37.748,0.10965,263.4,219.87,3.1057,0.13298,9419231,2203.4,9.8508,0.58966,0.59011,0.36774,0.099621,0.1223,0.090235,0.27977,-4.9816e-4,0,0,0,0,2.7788e-5,0.0057274,14.016,154.28,82.986,5.2719e-5,NaN,6.9892,874.02,335.53,0.01,0.11633
0.62625,13.683,44.993,75.689,45.383,76.407,1.7544,1.5247e-5,1.7544,4.9796e-4,5.9416,10.451,28.61,-80.6,9.7884,0.50732,0,0.15002,-1.7519e-5,25487,3149.2,37.739,0.10964,263.39,219.84,3.1072,0.13526,9580051,2205,10.192,0.58974,0.5902,0.36772,0.099642,0.12238,0.091043,0.28236,4.3111e-4,0,0,0,0,3.091e-5,0.0058254,14.016,154.28,82.985,5.6948e-5,NaN,6.9863,873.97,335.53,0.01,0.11694
0.63625,14.136,45.75,75.771,46.148,76.49,1.8143,1.6277e-5,1.8143,5.1401e-4,6.0462,10.461,28.61,-80.6,9.7884,0.51137,0,0.16064,-2.9621e-5,25477,3139,37.73,0.10962,263.37,219.8,3.1089,0.13754,9741029,2206.6,10.539,0.58982,0.59029,0.36769,0.099664,0.12246,0.091794,0.28548,3.5179e-4,0,0,0,0,3.4278e-5,0.0059236,14.016,154.28,82.983,6.1921e-5,NaN,6.9833,873.93,335.53,0.01,0.11751
0.64625,14.598,46.508,75.853,46.913,76.572,1.8753,1.7348e-5,1.8753,5.3002e-4,6.1508,10.47,28.61,-80.6,9.7884,0.51512,0,0.17172,-2.4818e-5,25467,3128.8,37.72,0.10961,263.36,219.76,3.1106,0.13982,9902163,2208.2,10.893,0.5899,0.59038,0.36767,0.099686,0.12254,0.092489,0.2873,-3.0809e-4,0,0,0,0,3.7901e-5,0.0060218,14.016,154.28,82.981,6.7641e-5,NaN,6.9803,873.88,335.53,0.01,0.11813
0.65625,15.066,47.267,75.935,47.679,76.655,1.9373,1.8461e-5,1.9373,5.4598e-4,6.2555,10.48,28.61,-80.6,9.7884,0.51857,0,0.18324,-1.7427e-5,25456,3118.6,37.711,0.1096,263.35,219.72,3.1125,0.1421,10063454,2209.7,11.252,0.58998,0.59046,0.36765,0.099709,0.12263,0.093129,0.29003,2.3279e-4,0,0,0,0,4.1782e-5,0.0061201,14.016,154.28,82.98,7.2819e-5,NaN,6.9773,873.83,335.53,0.01,0.1187
