# Time (s),Altitude (m),Vertical velocity (m/s),Vertical acceleration (m/s²),Total velocity (m/s),Total acceleration (m/s²),Position East of launch (m),Position North of launch (m),Lateral distance (m),Lateral direction (°),Lateral velocity (m/s),Lateral acceleration (m/s²),Latitude (°),Longitude (°),Gravitational acceleration (m/s²),Angle of attack (°),Roll rate (°/s),Pitch rate (°/s),Yaw rate (°/s),Mass (g),Propellant mass (g),Longitudinal moment of inertia (kg·m²),Rotational moment of inertia (kg·m²),CP location (cm),CG location (cm),Stability margin calibers (?),Mach number (?),Reynolds number (?),Thrust (N),Drag force (N),Drag coefficient (?),Axial drag coefficient (?),Friction drag coefficient (?),Pressure drag coefficient (?),Base drag coefficient (?),Normal force coefficient (?),Pitch moment coefficient (?),Yaw moment coefficient (?),Side force coefficient (?),Roll moment coefficient (?),Roll forcing coefficient (?),Roll damping coefficient (?),Pitch damping coefficient (?),Coriolis acceleration (m/s²),Reference length (cm),Reference area (cm²),Vertical orientation (zenith) (°),Lateral orientation (azimuth) (°),Wind velocity (m/s),Air temperature (°C),Air pressure (mbar),Speed of sound (m/s),Simulation time step (s),Computation time (s)
0,0,0,-6.3489,0,6.428,0,0,0,0,0,1.0056,28.61,-80.6,9.7884,81,0,0,0,28270,5317.7,39.092,0.11298,NaN,226.73,NaN,0.0065497,464483,91.592,2.678e-4,0.7466,0.0066026,0.52759,0.099003,0.12001,NaN,NaN,NaN,NaN,NaN,NaN,NaN,NaN,0,14.016,154.28,81,0,NaN,7.0752,875.43,335.59,0.01,0.0016097
0.01,0,0,-0.041806,0,0.042327,0,0,0,0,0,0.0066214,28.61,-80.6,9.7884,81,0,0,0,28270,5317.7,39.092,0.11298,NaN,226.73,NaN,0.0066551,471958,272.11,2.7582e-4,0.7448,0.0065866,0.52579,0.099003,0.12001,NaN,NaN,NaN,NaN,NaN,NaN,NaN,NaN,0,14.016,154.28,81,0,NaN,7.0752,875.43,335.59,0.01,0.0019968
0.02,0,0,6.2679,0,6.346,0,0,0,0,0,0.99273,28.61,-80.6,9.7884,81,0,0,0,28265,5313,39.089,0.11297,NaN,226.72,NaN,0.0067605,479433,452.64,2.8395e-4,0.74303,0.006571,0.52402,0.099003,0.12001,NaN,NaN,NaN,NaN,NaN,NaN,NaN,NaN,0,14.016,154.28,81,0,NaN,7.0752,875.43,335.59,0.01,0.0023548
0.03,3.1348e-4,0.0627,12.58,0.063482,12.736,4.965e-5,0,4.965e-5,0,0.0099308,1.9924,28.61,-80.6,9.7884,79.448,0,0,0,28261,5308.4,39.086,0.11297,NaN,226.7,NaN,0.006898,489187,633.16,4.6666e-4,0.74078,0.010373,0.52177,0.099004,0.12001,NaN,NaN,NaN,NaN,NaN,NaN,NaN,NaN,8.1574e-6,14.016,154.28,81,0,NaN,7.0752,875.43,335.59,0.01,0.0027625
0.04,0.0015696,0.18853,18.893,0.19088,19.129,2.486e-4,0,2.486e-4,0,0.02986,2.9924,28.61,-80.6,9.7884,76.451,0,0,0,28256,5303.7,39.083,0.11296,NaN,226.69,NaN,0.0070826,502276,813.68,0.0010016,0.73785,0.021119,0.51884,0.099004,0.12001,NaN,NaN,NaN,NaN,NaN,NaN,NaN,NaN,2.4528e-5,14.016,154.28,81,0,NaN,7.0752,875.43,335.59,0.01,0.0031352
0.05,0.0043997,0.3775,25.209,0.38221,25.524,6.9684e-4,0,6.9684e-4,0,0.05979,3.9928,28.61,-80.6,9.7884,72.186,0,0,0,28251,5299.1,39.079,0.11295,NaN,226.68,NaN,0.0073416,520642,994.21,0.0023088,0.73391,0.045306,0.5149,0.099004,0.12001,NaN,NaN,NaN,NaN,NaN,NaN,NaN,NaN,4.9114e-5,14.016,154.28,81,0,NaN,7.0752,875.43,335.59,0.01,0.0034977
0.06,0.0094353,0.62964,31.527,0.63749,31.92,0.0014944,0,0.0014944,0,0.099725,4.9934,28.61,-80.6,9.7884,66.729,0,0,0,28247,5294.4,39.076,0.11295,NaN,226.66,NaN,0.0076113,539772,1174.7,0.005125,0.72999,0.093568,0.51098,0.099004,0.12001,NaN,NaN,NaN,NaN,NaN,NaN,NaN,NaN,8.1917e-5,14.016,154.28,81,0,NaN,7.0751,875.43,335.59,0.01,0.0038705
0.07,0.017308,0.94497,37.847,0.95675,38.319,0.0027414,0,0.0027414,0,0.14967,5.9944,28.61,-80.6,9.7884,60.491,0,0,0,28242,5289.8,39.073,0.11294,NaN,226.65,NaN,0.0080373,569978,1355.3,0.010586,0.72416,0.17332,0.50515,0.099004,0.12001,NaN,NaN,NaN,NaN,NaN,NaN,NaN,NaN,1.2294e-4,14.016,154.28,81,0,NaN,7.0751,875.43,335.59,0.01,0.0042268
0.08,0.028651,1.3235,44.169,1.34,44.719,0.0045378,0,0.0045378,0,0.20962,6.9957,28.61,-80.6,9.7884,53.906,0,0,0,28237,5285.1,39.07,0.11294,NaN,226.64,NaN,0.0086593,614092,1535.8,0.020083,0.71635,0.28328,0.49733,0.099004,0.12001,NaN,NaN,NaN,NaN,NaN,NaN,NaN,NaN,1.7219e-4,14.016,154.28,81,0,NaN,7.075,875.43,335.59,0.01,0.0046316
0.09,0.044094,1.7653,50.493,1.7873,51.122,0.0069839,0,0.0069839,0,0.27959,7.9972,28.61,-80.6,9.7884,47.41,0,0,0,28233,5280.5,39.067,0.11293,NaN,226.62,NaN,0.0095078,674265,1716.3,0.035087,0.7068,0.41052,0.48778,0.099005,0.12001,NaN,NaN,NaN,NaN,NaN,NaN,NaN,NaN,2.2966e-4,14.016,154.28,81,0,NaN,7.0749,875.42,335.59,0.01,0.0050019
0.1,0.064272,2.2703,53.686,2.2986,54.355,0.01018,0,0.01018,0,0.35958,8.503,28.61,-80.6,9.7884,41.343,0,0,0,28228,5275.8,39.063,0.11293,NaN,226.61,NaN,0.0106,751748,1807.3,0.056944,0.69603,0.53598,0.47701,0.099006,0.12001,NaN,NaN,NaN,NaN,NaN,NaN,NaN,NaN,2.9537e-4,14.016,154.28,81,0,NaN,7.0748,875.42,335.59,0.01,0.0053825
0.11,0.089659,2.8073,53.753,2.8422,54.423,0.014201,0,0.014201,0,0.44463,8.5137,28.61,-80.6,9.7884,35.87,0,0,0,28221,5268.7,39.059,0.11292,NaN,226.59,NaN,0.011803,837059,1808.8,0.085001,0.68573,0.6453,0.46671,0.099007,0.12002,NaN,NaN,NaN,NaN,NaN,NaN,NaN,NaN,3.6523e-4,14.016,154.28,81,0,NaN,7.0746,875.42,335.59,0.01,0.0059601
0.12,0.12042,3.345,53.826,3.3867,54.497,0.019073,0,0.019073,0,0.52979,8.5252,28.61,-80.6,9.7884,31.436,0,0,0,28211,5259.3,39.052,0.11291,NaN,226.56,NaN,0.013096,928700,1810.3,0.11724,0.6761,0.72304,0.45707,0.099008,0.12002,NaN,NaN,NaN,NaN,NaN,NaN,NaN,NaN,4.3519e-4,14.016,154.28,81,0,NaN,7.0744,875.42,335.59,0.01,0.0063324
0.13,0.15656,3.8834,53.898,3.9318,54.57,0.024797,0,0.024797,0,0.61507,8.5367,28.61,-80.6,9.7884,27.812,0,0,0,28202,5249.8,39.046,0.1129,NaN,226.54,NaN,0.014454,1025027,1811.8,0.15299,0.66722,0.77451,0.44818,0.099009,0.12003,NaN,NaN,NaN,NaN,NaN,NaN,NaN,NaN,5.0524e-4,14.016,154.28,81,0,NaN,7.0742,875.41,335.59,0.01,0.0066974
0.14,0.19809,4.4225,53.971,4.4777,54.644,0.031375,0,0.031375,0,0.70046,8.5481,28.61,-80.6,9.7884,24.817,0,0,0,28192,5240.3,39.039,0.11288,NaN,226.51,NaN,0.015862,1124883,1813.3,0.19172,0.65909,0.80594,0.44005,0.099011,0.12003,NaN,NaN,NaN,NaN,NaN,NaN,NaN,NaN,5.7538e-4,14.016,154.28,81,0,NaN,7.0739,875.41,335.59,0.01,0.0070862
0.15,0.24502,4.9624,54.043,5.0243,54.717,0.038807,0,0.038807,0,0.78597,8.5596,28.61,-80.6,9.7884,22.314,0,0,0,28183,5230.8,39.032,0.11287,NaN,226.48,NaN,0.017309,1227451,1814.8,0.23305,0.65166,0.82277,0.43261,0.099012,0.12004,NaN,NaN,NaN,NaN,NaN,NaN,NaN,NaN,6.4562e-4,14.016,154.28,81,0,NaN,7.0736,875.4,335.59,0.01,0.0074868
0.16,0.29734,5.503,54.116,5.5716,54.79,0.047095,0,0.047095,0,0.87159,8.5711,28.61,-80.6,9.7884,20.588,0,0,0,28174,5221.3,39.026,0.11286,NaN,226.46,NaN,0.018857,1337269,1816.3,0.27789,0.64455,0.82656,0.42549,0.099014,0.12005,NaN,NaN,NaN,NaN,NaN,NaN,NaN,NaN,7.1595e-4,14.016,154.28,81,0,NaN,7.0733,875.4,335.59,0.01,0.0078695
0.17,0.35508,6.0444,54.188,6.1197,54.863,0.056239,0,0.056239,0,0.95733,8.5825,28.61,-80.6,9.7884,19.123,0,0,0,28164,5211.8,39.019,0.11285,NaN,226.43,NaN,0.020423,1448260,1817.8,0.3255,0.63809,0.82547,0.41902,0.099016,0.12005,NaN,NaN,NaN,NaN,NaN,NaN,NaN,NaN,7.8638e-4,14.016,154.28,81,0,NaN,7.0729,875.39,335.59,0.01,0.0082369
0.18,0.41823,6.5864,54.26,6.6685,54.936,0.066242,0,0.066242,0,1.0432,8.5939,28.61,-80.6,9.7884,17.866,0,0,0,28155,5202.3,39.013,0.11284,NaN,226.4,NaN,0.022001,1560208,1819.3,0.3758,0.6322,0.82117,0.41311,0.099019,0.12006,NaN,NaN,NaN,NaN,NaN,NaN,NaN,NaN,8.569e-4,14.016,154.28,81,0,NaN,7.0725,875.38,335.58,0.01,0.0093026
0.19,0.48681,7.1292,54.332,7.218,55.009,0.077103,0,0.077103,0,1.1292,8.6054,28.61,-80.6,9.7884,16.776,0,0,0,28145,5192.8,39.006,0.11283,NaN,226.37,NaN,0.023591,1672952,1820.8,0.42868,0.62678,0.81472,0.40769,0.099021,0.12007,NaN,NaN,NaN,NaN,NaN,NaN,NaN,NaN,9.2752e-4,14.016,154.28,81,0,NaN,7.072,875.38,335.58,0.01,0.0095645
0.2,0.56082,7.6727,54.404,7.7683,55.082,0.088825,0,0.088825,0,1.2152,8.6168,28.61,-80.6,9.7884,15.822,0,0,0,28136,5183.4,39,0.11282,NaN,226.35,NaN,0.025191,1786372,1822.3,0.48341,0.62179,0.80577,0.40268,0.099024,0.12008,NaN,NaN,NaN,NaN,NaN,NaN,NaN,NaN,9.9823e-4,14.016,154.28,81,0,NaN,7.0716,875.37,335.58,0.01,0.0098252
0.21,0.64027,8.2169,54.477,8.3193,55.156,0.10141,0,0.10141,0,1.3014,8.6282,28.61,-80.6,9.7884,14.833,0,0,0,28126,5173.9,38.993,0.1128,NaN,226.32,NaN,0.026768,1898195,1823.8,0.53798,0.61725,0.79417,0.39813,0.099027,0.12009,NaN,NaN,NaN,NaN,NaN,NaN,NaN,NaN,0.001069,14.016,154.28,81,0,NaN,7.071,875.36,335.58,0.01,0.010162
0.22,0.72516,8.7618,54.549,8.871,55.229,0.11485,0,0.11485,0,1.3877,8.6397,28.61,-80.6,9.7884,13.954,0,0,0,28117,5164.4,38.987,0.11279,NaN,226.29,NaN,0.028354,2010668,1825.3,0.59386,0.61302,0.78133,0.39389,0.09903,0.1201,NaN,NaN,NaN,NaN,NaN,NaN,NaN,NaN,0.0011399,14.016,154.28,81,0,NaN,7.0705,875.35,335.58,0.01,0.010661
0.23,0.81551,9.3075,54.621,9.4235,55.302,0.12916,0,0.12916,0,1.4742,8.6511,28.61,-80.6,9.7884,13.166,0,0,0,28107,5154.9,38.98,0.11278,NaN,226.27,NaN,0.029949,2123712,1826.8,0.6513,0.60907,0.7681,0.38992,0.099033,0.12012,NaN,NaN,NaN,NaN,NaN,NaN,NaN,NaN,0.0012109,14.016,154.28,81,0,NaN,7.0699,875.34,335.58,0.01,0.011042
0.24,0.91131,9.8539,54.693,9.9767,55.375,0.14434,0,0.14434,0,1.5607,8.6625,28.61,-80.6,9.7884,12.458,0,0,0,28098,5145.4,38.973,0.11277,NaN,226.24,NaN,0.03155,2237265,1828.3,0.71049,0.60536,0.755,0.38619,0.099037,0.12013,NaN,NaN,NaN,NaN,NaN,NaN,NaN,NaN,0.001282,14.016,154.28,81,0,NaN,7.0693,875.33,335.58,0.01,0.011403
0.25,1.0126,10.401,54.765,10.531,55.448,0.16038,0,0.16038,0,1.6473,8.674,28.61,-80.6,9.7884,11.817,0,0,0,28088,5135.9,38.967,0.11276,NaN,226.21,NaN,0.033158,2351276,1829.8,0.77157,0.60187,0.74232,0.38269,0.09904,0.12014,NaN,NaN,NaN,NaN,NaN,NaN,NaN,NaN,0.0013532,14.016,154.28,81,0,NaN,7.0686,875.32,335.58,0.01,0.011766
0.26,1.1193,10.949,54.837,11.085,55.521,0.17729,0,0.17729,0,1.7341,8.6854,28.61,-80.6,9.7884,11.259,0,0,0,28079,5126.4,38.96,0.11275,NaN,226.18,NaN,0.034778,2466082,1831.3,0.83529,0.59857,0.73054,0.37937,0.099044,0.12016,NaN,NaN,NaN,NaN,NaN,NaN,NaN,NaN,0.0014245,14.016,154.28,81,0,NaN,7.0679,875.31,335.58,0.01,0.012123
0.27,1.2316,11.497,54.91,11.641,55.594,0.19506,0,0.19506,0,1.821,8.6968,28.61,-80.6,9.7884,10.75,0,0,0,28069,5116.9,38.954,0.11274,NaN,226.16,NaN,0.036402,2581249,1832.8,0.90119,0.59545,0.71941,0.37623,0.099048,0.12017,NaN,NaN,NaN,NaN,NaN,NaN,NaN,NaN,0.0014958,14.016,154.28,81,0,NaN,7.0672,875.3,335.58,0.01,0.012479
0.28,1.3493,12.047,54.982,12.197,55.667,0.21371,0,0.21371,0,1.908,8.7082,28.61,-80.6,9.7884,10.284,0,0,0,28060,5107.5,38.947,0.11272,NaN,226.13,NaN,0.038032,2696752,1834.3,0.96935,0.5925,0.70894,0.37326,0.099052,0.12019,NaN,NaN,NaN,NaN,NaN,NaN,NaN,NaN,0.0015673,14.016,154.28,81,0,NaN,7.0664,875.29,335.58,0.01,0.012829
0.29,1.4725,12.597,55.054,12.754,55.74,0.23322,0,0.23322,0,1.9951,8.7196,28.61,-80.6,9.7884,9.8557,0,0,0,28050,5098,38.94,0.11271,NaN,226.1,NaN,0.039665,2812566,1835.8,1.0398,0.5897,0.69913,0.37044,0.099057,0.1202,NaN,NaN,NaN,NaN,NaN,NaN,NaN,NaN,0.0016388,14.016,154.28,81,0,NaN,7.0656,875.27,335.58,0.01,0.013186
0.3,1.6012,13.147,55.126,13.311,55.813,0.25361,0,0.25361,0,2.0823,8.731,28.61,-80.6,9.7884,9.4608,0,0,0,28041,5088.5,38.934,0.1127,NaN,226.08,NaN,0.041303,2928674,1837.3,1.1137,0.58761,0.69063,0.36833,0.099062,0.12022,NaN,NaN,NaN,NaN,NaN,NaN,NaN,NaN,0.0017105,14.016,154.28,81,0,NaN,7.0648,875.26,335.58,0.01,0.01354
0.31,1.7355,13.699,55.197,13.869,55.885,0.27487,0,0.27487,0,2.1697,8.7424,28.61,-80.6,9.7884,9.101,0,0,0,28031,5079,38.927,0.11269,NaN,226.05,NaN,0.042946,3045152,1838.7,1.1945,0.58763,0.68511,0.36832,0.099066,0.12024,NaN,NaN,NaN,NaN,NaN,NaN,NaN,NaN,0.0017822,14.016,154.28,81,0,NaN,7.0639,875.24,335.58,0.01,0.013892
0.32,1.8752,14.251,55.269,14.428,55.958,0.297,0,0.297,0,2.2571,8.7538,28.61,-80.6,9.7884,8.7673,0,0,0,28022,5069.5,38.921,0.11268,NaN,226.02,NaN,0.044593,3161890,1840.2,1.2781,0.58765,0.67995,0.36832,0.099071,0.12026,NaN,NaN,NaN,NaN,NaN,NaN,NaN,NaN,0.0018541,14.016,154.28,81,0,NaN,7.063,875.23,335.58,0.01,0.014243
0.33,2.0205,14.804,55.341,14.988,56.031,0.32001,0,0.32001,0,2.3447,8.7651,28.61,-80.6,9.7884,8.457,0,0,0,28012,5060,38.914,0.11267,NaN,225.99,NaN,0.046244,3278874,1841.7,1.3647,0.58767,0.67515,0.36831,0.099077,0.12028,NaN,NaN,NaN,NaN,NaN,NaN,NaN,NaN,0.001926,14.016,154.28,81,0,NaN,7.0621,875.21,335.58,0.01,0.014626
0.34,2.1713,15.357,55.412,15.549,56.103,0.3439,0,0.3439,0,2.4324,8.7765,28.61,-80.6,9.7884,8.1677,0,0,0,28003,5050.5,38.907,0.11266,NaN,225.97,NaN,0.047898,3396096,1843.2,1.4544,0.58769,0.67067,0.36831,0.099082,0.1203,NaN,NaN,NaN,NaN,NaN,NaN,NaN,NaN,0.001998,14.016,154.28,81,0,NaN,7.0611,875.2,335.58,0.01,0.014975
0.35,2.3276,15.912,55.484,16.11,56.176,0.36866,0,0.36866,0,2.5201,8.7878,28.61,-80.6,9.7884,7.8974,0,0,0,27993,5041,38.901,0.11264,NaN,225.94,NaN,0.049555,3513545,1844.7,1.5471,0.58771,0.6665,0.3683,0.099088,0.12032,NaN,NaN,NaN,NaN,NaN,NaN,NaN,NaN,0.0020701,14.016,154.28,81,0,NaN,7.0601,875.18,335.58,0.01,0.015324
0.36,2.4895,16.467,55.342,16.672,56.265,0.3943,0,0.3943,0,2.608,10.146,28.61,-80.6,9.7884,7.6003,0,0,0,27984,5031.6,38.894,0.11263,241.22,225.91,1.0925,0.051204,3630384,1846.6,1.6404,0.58773,0.66194,0.36829,0.099094,0.12034,1.8753,2.0493,2.3253e-4,0,0,0,0,0,0.0021423,14.016,154.28,81,0,NaN,7.059,875.16,335.58,0.015,0.01575
0.375,2.7427,17.297,55.458,17.516,56.381,0.43456,2.0881e-8,0.43456,2.7532e-6,2.7603,10.158,28.61,-80.6,9.7884,7.2526,0,0.016454,-8.5428e-7,27972,5019.7,38.886,0.11262,242.01,225.88,1.1511,0.05369,3806617,1849.4,1.7891,0.58776,0.65666,0.36828,0.099103,0.12037,1.7659,2.0323,-2.6575e-4,0,0,0,0,2.3592e-6,0.0022509,14.016,154.28,81,2.904e-8,NaN,7.0574,875.14,335.58,0.0225,0.016121
0.3975,3.146,18.546,55.631,18.785,56.555,0.49924,1.3417e-7,0.49924,1.5398e-5,2.9889,10.177,28.61,-80.6,9.7884,6.7855,0,0.04384,0,27954,5001.9,38.873,0.1126,243.1,225.83,1.2328,0.057433,4071800,1853.6,2.0254,0.58781,0.64967,0.36827,0.099117,0.12043,1.6223,1.9999,3.8761e-4,0,0,0,0,1.4637e-5,0.0024142,14.016,154.28,80.999,1.2281e-7,NaN,7.0548,875.09,335.57,0.03375,0.01653
0.43125,3.8036,20.426,55.892,20.696,56.813,0.60591,5.0418e-7,0.60591,4.7676e-5,3.3323,10.19,28.61,-80.6,9.7884,6.5944,0,0.091738,3.7763e-6,27927,4975.2,38.855,0.11257,243.57,225.75,1.2713,0.063197,4480164,1859.9,2.4417,0.5879,0.64693,0.36824,0.099142,0.12052,1.5648,1.9892,2.8706e-4,0,0,0,0,5.2937e-5,0.00266,14.016,154.28,80.997,3.6867e-8,NaN,7.0505,875.02,335.57,0.05,0.016895
0.48125,4.8949,23.226,56.275,23.541,57.195,0.78526,1.5447e-6,0.78526,1.127e-4,3.8416,10.216,28.61,-80.6,9.7884,6.203,0,0.17994,-1.2905e-5,27888,4935.5,38.827,0.11252,244.54,225.63,1.3486,0.071727,5084410,1867.4,3.118,0.58805,0.64137,0.3682,0.099182,0.12067,1.4491,1.9538,1.3708e-4,0,0,0,0,1.5811e-4,0.003026,14.016,154.28,80.99,1.8686e-6,NaN,7.0434,874.91,335.57,0.05,0.017248
0.53125,6.1266,26.044,56.63,26.405,57.55,0.99012,3.2502e-6,0.99012,1.8808e-4,4.3525,10.249,28.61,-80.6,9.7884,5.7679,0,0.28919,2.1587e-6,27840,4888.1,38.793,0.11246,245.65,225.5,1.4381,0.080272,5689432,1874.9,3.868,0.58822,0.63537,0.36815,0.099227,0.12084,1.3238,1.9033,4.9727e-4,0,0,0,0,3.2607e-4,0.0033944,14.016,154.28,80.979,4.5791e-6,NaN,7.0354,874.78,335.56,0.05,0.017607
0.58125,7.4997,28.879,56.979,29.286,57.903,1.2206,5.7069e-6,1.2206,2.679e-4,4.8653,10.303,28.61,-80.6,9.7884,5.1895,0,0.41997,-8.7836e-6,27793,4840.6,38.76,0.1124,247.2,225.36,1.5585,0.088788,6292226,1882.3,4.6743,0.5884,0.62771,0.3681,0.099278,0.12102,1.1627,1.8112,4.3467e-4,0,0,0,0,5.621e-4,0.003765,14.016,154.28,80.961,8.28e-6,NaN,7.0265,874.63,335.56,0.05,0.017964
0.63125,9.0149,31.732,57.321,32.185,58.25,1.4767,9.0009e-6,1.4767,3.4923e-4,5.3813,10.363,28.61,-80.6,9.7884,4.7148,0,0.56957,-7.2789e-6,27745,4792.5,38.726,0.11235,248.54,225.22,1.6638,0.09737,6899461,1889.6,5.5678,0.58861,0.62182,0.36804,0.099334,0.12123,1.0351,1.7212,1.8109e-4,0,0,0,0,8.597e-4,0.0041379,14.016,154.28,80.936,1.4692e-5,NaN,7.0166,874.47,335.55,0.05,0.018323
0.68125,10.673,34.602,57.66,35.102,58.598,1.7588,1.3219e-5,1.7588,4.3064e-4,5.9005,10.445,28.61,-80.6,9.7884,4.206,0,0.7393,2.0699e-5,27695,4743.2,38.691,0.11229,250.03,225.07,1.7808,0.10597,7507456,1896.8,6.5305,0.58883,0.61592,0.36798,0.099395,0.12146,0.90317,1.6071,-3.5704e-4,0,0,0,0,0.001223,0.0045131,14.016,154.28,80.904,2.0685e-5,NaN,7.0058,874.29,335.54,0.05,0.018741
0.73125,12.476,37.489,57.995,38.036,58.946,2.0669,1.8446e-5,2.0669,5.1133e-4,6.4246,10.548,28.61,-80.6,9.7884,3.6831,0,0.92294,3.6373e-5,27646,4693.5,38.655,0.11223,251.64,224.92,1.9063,0.11459,8116802,1904,7.5656,0.58907,0.61037,0.36791,0.099461,0.12171,0.77261,1.4713,-1.3847e-4,0,0,0,0,0.0016301,0.0048905,14.016,154.28,80.862,2.1428e-5,NaN,6.9941,874.1,335.54,0.05,0.01918
0.78125,14.423,40.393,58.327,40.987,59.292,2.4013,2.4765e-5,2.4013,5.9089e-4,6.9539,10.651,28.61,-80.6,9.7884,3.3309,0,1.1196,2.7586e-5,27596,4643.8,38.619,0.11217,252.78,224.78,1.9977,0.12332,8733771,1911.3,8.7128,0.58934,0.60704,0.36783,0.099534,0.12198,0.68764,1.3718,-2.2909e-4,0,0,0,0,0.0020712,0.0052702,14.016,154.28,80.811,2.7284e-5,NaN,6.9815,873.89,335.53,0.05,0.019551
0.83125,16.515,43.313,58.656,43.956,59.635,2.7624,3.2261e-5,2.7624,6.6914e-4,7.4884,10.761,28.61,-80.6,9.7884,3.0764,0,1.3335,6.2788e-5,27546,4594.1,38.584,0.11211,253.62,224.63,2.0687,0.13214,9356640,1918.5,9.9661,0.58963,0.60491,0.36775,0.099613,0.12227,0.6277,1.2959,-1.483e-4,0,0,0,0,0.0025591,0.0056521,14.016,154.28,80.75,3.6414e-5,NaN,6.9679,873.67,335.52,0.05,0.019932
0.88125,18.754,46.25,58.981,46.941,59.975,3.1503,4.102e-5,3.1503,7.4605e-4,8.0286,10.874,28.61,-80.6,9.7884,2.9184,0,1.5661,2.8713e-5,27497,4544.4,38.548,0.11205,254.17,224.48,2.1179,0.14105,9985946,1925.8,11.332,0.58994,0.6038,0.36766,0.099699,0.12259,0.59114,1.2493,-4.7211e-4,0,0,0,0,0.0030978,0.0060362,14.016,154.28,80.677,5.0885e-5,NaN,6.9533,873.43,335.51,0.05,0.020289
0.93125,21.141,49.202,59.3,49.944,60.314,3.5653,5.113e-5,3.5653,8.2167e-4,8.5749,11.015,28.61,-80.6,9.7884,2.7057,0,1.8208,5.7389e-5,27447,4494.7,38.512,0.11199,254.9,224.33,2.1812,0.14999,10616307,1933,12.779,0.59028,0.6023,0.36756,0.09979,0.12292,0.54266,1.1796,4.0452e-4,0,0,0,0,0.0037034,0.0064225,14.016,154.28,80.593,7.9275e-5,NaN,6.9378,873.18,335.5,0.05,0.020608
0.98125,23.675,52.171,59.613,52.963,60.652,4.0079,6.2687e-5,4.0079,8.9615e-4,9.1289,11.177,28.61,-80.6,9.7884,2.4921,0,2.0887,5.5188e-5,27397,4445,38.476,0.11193,255.66,224.18,2.2459,0.15898,1.125e7,1940.3,14.318,0.59063,0.60094,0.36746,0.099887,0.12329,0.49483,1.1065,-3.0595e-4,0,0,0,0,0.0043386,0.006811,14.016,154.28,80.495,1.1845e-4,NaN,6.9213,872.91,335.49,0.05,0.020851
1.0313,26.358,55.155,59.922,56,60.987,4.4784,7.5792e-5,4.4784,9.6967e-4,9.6912,11.343,28.61,-80.6,9.7883,2.3656,0,2.3738,2.7178e-5,27347,4395.3,38.44,0.11187,256.12,224.03,2.2895,0.16807,1.189e7,1947.5,15.982,0.59101,0.60036,0.36735,0.099992,0.12367,0.46694,1.0644,4.2877e-4,0,0,0,0,0.0050143,0.0072017,14.016,154.28,80.384,1.687e-4,NaN,6.9039,872.63,335.48,0.05,0.021091
1.0813,29.191,58.154,60.224,59.052,61.32,4.9772,9.0556e-5,4.9772,0.0010424,10.262,11.538,28.61,-80.6,9.7883,2.2087,0,2.6797,5.4132e-5,27298,4345.6,38.403,0.11181,256.7,223.88,2.3415,0.17719,12532158,1954.7,17.736,0.59142,0.59962,0.36723,0.1001,0.12408,0.43273,1.0072,3.0714e-4,0,0,0,0,0.0057489,0.0075946,14.016,154.28,80.257,2.406e-4,NaN,6.8855,872.32,335.47,0.05,0.021336
1.1313,32.174,61.168,60.519,62.122,61.651,5.5048,1.071e-4,5.5048,0.0011147,10.844,11.761,28.61,-80.6,9.7883,2.0366,0,2.997,2.5948e-5,27248,4295.8,38.367,0.11175,257.35,223.73,2.3983,0.18636,13177089,1962,19.588,0.59184,0.59888,0.36711,0.10022,0.12451,0.39577,0.94261,2.7162e-4,0,0,0,0,0.0065015,0.0079897,14.016,154.28,80.116,3.3096e-4,NaN,6.8661,872.01,335.46,0.05,0.02156
1.1813,35.308,64.197,60.808,65.208,61.98,6.0618,1.2556e-4,6.0618,0.0011868,11.437,11.997,28.61,-80.6,9.7883,1.9111,0,3.3269,8.1861e-5,27198,4246.1,38.33,0.11169,257.83,223.58,2.4434,0.19562,13827733,1969.2,21.562,0.5923,0.59853,0.36698,0.10034,0.12497,0.36917,0.89449,1.6567e-4,0,0,0,0,0.0072714,0.0083869,14.016,154.28,79.958,4.3452e-4,NaN,6.8457,871.67,335.45,0.05,0.021781
1.2313,38.594,67.24,61.087,68.31,62.307,6.6487,1.4609e-4,6.6487,0.0012589,12.043,12.27,28.61,-80.6,9.7883,1.751,0,3.6703,7.3425e-5,27149,4196.4,38.294,0.11163,258.45,223.43,2.4985,0.20491,1.448e7,1976.5,23.63,0.59278,0.59805,0.36684,0.10047,0.12546,0.33563,0.83059,6.7545e-5,0,0,0,0,0.0080666,0.0087863,14.016,154.28,79.783,5.4791e-4,NaN,6.8243,871.32,335.43,0.05,0.022032
1.2813,42.032,70.297,61.349,71.428,62.63,7.2663,1.6884e-4,7.2663,0.0013313,12.663,12.598,28.61,-80.6,9.7883,1.5049,0,4.01,1.9669e-4,27099,4146.7,38.257,0.11157,259.41,223.28,2.5781,0.21419,15131193,1983.6,25.772,0.59327,0.59721,0.3667,0.10061,0.12596,0.285,0.7261,1.4858e-4,0,0,0,0,0.0088131,0.0091879,14.016,154.28,79.591,6.7735e-4,NaN,6.802,870.96,335.42,0.05,0.022295
1.3313,45.624,73.366,61.591,74.562,62.933,7.9154,1.9399e-4,7.9154,0.0014042,13.301,12.928,28.61,-80.6,9.7883,1.3386,0,4.3322,9.4593e-5,27048,4096.3,38.219,0.11151,260.08,223.12,2.6371,0.22359,1.579e7,1990.2,28.059,0.5938,0.59694,0.36655,0.10076,0.1265,0.25145,0.65371,1.5361e-4,0,0,0,0,0.0094403,0.0095916,14.016,154.28,79.382,8.2889e-4,NaN,6.7786,870.58,335.41,0.05,0.02254
1.3813,49.369,76.448,61.824,77.711,63.236,8.5967,2.2174e-4,8.5967,0.0014779,13.955,13.285,28.61,-80.6,9.7883,1.1752,0,4.6531,8.9117e-5,26997,4044.7,38.181,0.11145,260.75,222.96,2.6965,0.23304,16451835,1996.8,30.46,0.59436,0.5968,0.36639,0.10091,0.12706,0.21899,0.58089,-1.488e-4,0,0,0,0,0.010026,0.0099973,14.016,154.28,79.157,0.0010155,NaN,6.7543,870.18,335.39,0.05,0.022784
1.4313,53.269,79.541,62.041,80.875,63.541,9.3112,2.5233e-4,9.3112,0.0015527,14.629,13.725,28.61,-80.6,9.7883,0.87376,0,4.9435,4.0383e-4,26945,3992.7,38.142,0.11139,262.01,222.8,2.7975,0.24243,17108188,2003.4,32.92,0.59493,0.5963,0.36622,0.10106,0.12764,0.16034,0.43781,5.1229e-5,0,0,0,0,0.010458,0.010405,14.016,154.28,78.917,0.0012164,NaN,6.729,869.76,335.38,0.05,0.023027
1.4813,57.323,82.644,62.249,84.054,63.842,10.06,2.8601e-4,10.06,0.0016289,15.326,14.172,28.61,-80.6,9.7883,0.63294,0,5.1656,7.9712e-4,26893,3940.6,38.103,0.11132,263.04,222.64,2.8829,0.25191,17770689,2010,35.525,0.59553,0.59626,0.36605,0.10123,0.12825,0.11472,0.31967,3.7708e-5,0,0,0,0,0.010577,0.010815,14.016,154.28,78.664,0.0014052,NaN,6.7026,869.33,335.36,0.05,0.02325
1.5313,61.534,85.758,62.446,87.246,64.141,10.844,3.2305e-4,10.844,0.0017068,16.046,14.648,28.61,-80.6,9.7882,0.38359,0,5.3382,0.0017484,26841,3888.6,38.063,0.11126,264.14,222.47,2.973,0.26143,18434883,2016.7,38.251,0.59616,0.59643,0.36587,0.1014,0.12888,0.068635,0.19335,-4.8576e-4,0,0,0,0,0.010489,0.011227,14.016,154.28,78.401,0.0015936,NaN,6.6752,868.88,335.34,0.05,0.023517
1.5813,65.9,88.882,62.632,90.453,64.438,11.665,3.6371e-4,11.665,0.0017865,16.79,15.151,28.61,-80.6,9.7882,0.12436,0,5.4236,0.0063876,26789,3836.6,38.024,0.1112,265.32,222.31,3.0685,0.27097,1.91e7,2023.3,41.102,0.59681,0.59684,0.36568,0.10158,0.12955,0.021951,0.057251,4.0994e-4,0,0,0,0,0.010079,0.01164,14.016,154.28,78.132,0.0017792,NaN,6.6469,868.42,335.33,0.05,0.023788
1.6313,70.422,92.014,62.807,93.674,64.732,12.524,4.083e-4,12.524,0.001868,17.559,15.67,28.61,-80.6,9.7882,0.13178,0,-5.4183,0.0071374,26737,3784.6,37.985,0.11114,265.31,222.15,3.0794,0.28055,19767262,2029.9,44.086,0.59749,0.59752,0.36549,0.10177,0.13023,0.023279,0.081022,1.4347e-4,0,0,0,0,-0.0093846,0.012056,14.016,154.28,77.86,0.0019927,NaN,6.6175,867.94,335.31,0.05,0.024052
1.6813,75.101,95.155,62.985,96.909,65.02,13.421,4.5713e-4,13.421,0.0019515,18.354,16.142,28.61,-80.6,9.7882,0.26414,0,-5.3128,0.0037045,26685,3732.5,37.945,0.11107,264.74,221.98,3.0507,0.29029,20444686,2036.5,47.237,0.59821,0.59833,0.36529,0.10196,0.13096,0.047016,0.15229,1.9269e-4,0,0,0,0,-0.0084285,0.012474,14.016,154.28,77.592,0.0022062,NaN,6.587,867.44,335.29,0.05,0.024457
1.7313,79.938,98.305,63.151,100.16,65.306,14.359,5.1053e-4,14.359,0.0020371,19.172,16.637,28.61,-80.6,9.7882,0.43183,0,-5.1524,0.0024744,26633,3680.5,37.905,0.11101,264.03,221.82,3.0117,0.30003,21120682,2043.1,50.508,0.59894,0.59929,0.36507,0.10217,0.1317,0.077593,0.24067,6.7729e-5,0,0,0,0,-0.007422,0.012893,14.016,154.28,77.33,0.0024368,NaN,6.5556,866.93,335.27,0.05,0.024894
1.7813,84.932,101.46,63.311,103.42,65.588,15.339,5.6888e-4,15.339,0.0021249,20.016,17.132,28.61,-80.6,9.7882,0.5952,0,-4.883,0.0019953,26581,3628.5,37.865,0.11095,263.35,221.65,2.975,0.30979,21797580,2049.7,53.91,0.59971,0.60035,0.36485,0.10238,0.13248,0.10793,0.32781,3.521e-5,0,0,0,0,-0.0062536,0.013315,14.016,154.28,77.079,0.002685,NaN,6.5231,866.39,335.25,0.05,0.025304
1.8313,90.084,104.63,63.469,106.69,65.866,16.362,6.3258e-4,16.362,0.0022152,20.884,17.605,28.61,-80.6,9.7882,0.73027,0,-4.5269,0.0016177,26529,3576.4,37.825,0.11089,262.8,221.48,2.9479,0.3196,22476963,2056.3,57.448,0.6005,0.60147,0.36463,0.1026,0.13328,0.13343,0.39854,1.91e-4,0,0,0,0,-0.0050504,0.013738,14.016,154.28,76.843,0.0029343,NaN,6.4897,865.85,335.23,0.05,0.025828
1.8813,95.395,107.8,63.61,109.98,66.123,17.428,7.0204e-4,17.428,0.002308,21.775,18.054,28.61,-80.6,9.7881,0.85435,0,-4.0736,0.0013944,26477,3524.4,37.785,0.11082,262.31,221.32,2.9248,0.32943,23156926,2062.5,61.116,0.60132,0.60264,0.36439,0.10282,0.13411,0.15719,0.4635,-2.706e-4,0,0,0,0,-0.0038496,0.014163,14.016,154.28,76.628,0.0031791,NaN,6.4551,865.28,335.21,0.05,0.026189
1.9313,100.86,110.98,63.698,113.28,66.315,18.539,7.777e-4,18.539,0.0024035,22.687,18.447,28.61,-80.6,9.7881,0.94664,0,-3.5286,0.0012804,26424,3472,37.744,0.11076,261.96,221.15,2.9117,0.3393,23838706,2067,64.913,0.60217,0.60379,0.36415,0.10306,0.13497,0.17509,0.51289,-4.9365e-4,0,0,0,0,-0.0027233,0.01459,14.016,154.28,76.437,0.0034261,NaN,6.4196,864.7,335.19,0.05,0.026503
1.9813,106.49,114.17,63.79,116.59,66.497,19.697,8.6e-4,19.697,0.0025016,23.618,18.782,28.61,-80.6,9.7881,1.003,0,-2.9035,0.0012462,26371,3419,37.703,0.1107,261.76,220.98,2.9096,0.3492,24521783,2071.5,68.833,0.60305,0.60486,0.3639,0.1033,0.13585,0.18615,0.54291,2.4421e-4,0,0,0,0,-0.001741,0.015018,14.016,154.28,76.276,0.0036823,NaN,6.383,864.1,335.17,0.05,0.026786
2.0313,112.28,117.36,63.895,119.9,66.674,20.901,9.4938e-4,20.901,0.0026025,24.563,19.048,28.61,-80.6,9.7881,1.021,0,-2.2154,0.0010945,26318,3365.7,37.661,0.11063,261.71,220.8,2.919,0.35914,25206150,2075.9,72.872,0.60395,0.60584,0.36364,0.10355,0.13677,0.18976,0.55466,-2.4005e-5,0,0,0,0,-9.5833e-4,0.015447,14.016,154.28,76.148,0.0039192,NaN,6.3454,863.49,335.14,0.05,0.027035
2.0813,118.23,120.56,63.99,123.23,66.813,22.153,0.0010463,22.153,0.002706,25.52,19.215,28.61,-80.6,9.7881,0.98456,0,-1.4891,0.001165,26265,3312.4,37.619,0.11057,261.9,220.63,2.9444,0.36914,25893407,2079.5,77.032,0.60489,0.60665,0.36337,0.10381,0.13771,0.18274,0.53869,-4.2353e-4,0,0,0,0,-4.0989e-4,0.015878,14.016,154.28,76.055,0.0041504,NaN,6.3067,862.85,335.12,0.05,0.027293
2.1313,124.34,123.76,63.993,126.56,66.835,23.454,0.0011511,23.454,0.0028121,26.483,19.284,28.61,-80.6,9.788,0.92515,0,-0.75873,0.0012044,26211,3259,37.577,0.11051,262.17,220.45,2.9767,0.37915,2.658e7,2080.2,81.306,0.60586,0.60741,0.36309,0.10407,0.13869,0.17128,0.5102,4.7792e-4,0,0,0,0,-1.0089e-4,0.016309,14.016,154.28,75.999,0.0044064,NaN,6.267,862.2,335.1,0.05,0.027581
2.1813,130.61,126.96,63.994,129.89,66.841,24.802,0.0012643,24.802,0.0029207,27.449,19.302,28.61,-80.6,9.788,0.87063,0,-0.029498,9.6202e-4,26158,3205.5,37.535,0.11044,262.43,220.28,3.0079,0.3891,27262060,2080.7,85.68,0.60684,0.60822,0.36281,0.10435,0.13968,0.16083,0.48409,-8.179e-5,0,0,0,0,-1.4481e-7,0.016741,14.016,154.28,75.979,0.0046195,NaN,6.2263,861.54,335.07,0.05,0.027797
2.2313,137.03,130.16,64.019,133.23,66.838,26.198,0.0013862,26.198,0.0030317,28.413,19.208,28.61,-80.6,9.788,0.75963,0,0.68405,0.0012785,26104,3152,37.492,0.11038,262.93,220.1,3.0561,0.3991,27945775,2081.1,90.171,0.60786,0.60892,0.36252,0.10463,0.14071,0.13959,0.42642,3.1879e-4,0,0,0,0,7.4031e-5,0.017172,14.016,154.28,75.996,0.0048534,NaN,6.1845,860.85,335.05,0.05,0.028025
2.2813,143.62,133.36,64.064,136.56,66.826,27.643,0.0015172,27.643,0.0031448,29.369,19.013,28.61,-80.6,9.788,0.60488,0,1.312,9.9644e-4,26051,3098.4,37.449,0.11031,263.63,219.92,3.1182,0.40913,28630577,2081.5,94.787,0.6089,0.60958,0.36222,0.10492,0.14176,0.11033,0.34361,-3.597e-4,0,0,0,0,2.592e-4,0.017604,14.016,154.28,76.046,0.0050634,NaN,6.1417,860.15,335.02,0.05,0.028267
2.3313,150.37,136.57,64.118,139.9,66.808,29.135,0.0016577,29.135,0.0032599,30.314,18.765,28.61,-80.6,9.788,0.44963,0,1.8252,0.001518,25997,3044.9,37.407,0.11025,264.33,219.74,3.1813,0.41914,29312039,2082,99.52,0.60997,0.61035,0.36192,0.10521,0.14284,0.081392,0.2583,-1.8661e-4,0,0,0,0,4.7801e-4,0.018036,14.016,154.28,76.125,0.0052996,NaN,6.0978,859.43,334.99,0.05,0.028514
2.3812,157.28,139.78,64.186,143.23,66.781,30.674,0.0018079,30.674,0.003377,31.245,18.435,28.61,-80.6,9.7879,0.26186,0,2.2,0.0025364,25943,2991.3,37.363,0.11018,265.19,219.56,3.2556,0.42918,29994721,2082.4,104.4,0.61107,0.6112,0.3616,0.10552,0.14395,0.046961,0.15179,-4.0747e-4,0,0,0,0,6.6251e-4,0.018468,14.016,154.28,76.226,0.0056305,NaN,6.0529,858.7,334.97,0.05,0.028757
2.4312,164.35,142.99,64.261,146.57,66.746,32.259,0.0019684,32.259,0.003496,32.158,18.044,28.61,-80.6,9.7879,0.052857,0,2.3713,0.007497,25890,2937.7,37.32,0.11012,266.17,219.38,3.3381,0.43925,30678514,2082.9,109.44,0.61219,0.6122,0.36128,0.10583,0.14508,0.0093799,0.030276,4.3034e-4,0,0,0,0,7.349e-4,0.018899,14.016,154.28,76.342,0.0060314,NaN,6.0069,857.95,334.94,0.05,0.029001
2.4812,171.58,146.21,64.32,149.9,66.71,33.89,0.0021395,33.89,0.0036172,33.051,17.698,28.61,-80.6,9.7879,0.098495,0,-2.3293,0.002198,25836,2884.2,37.277,0.11006,266,219.2,3.3391,0.44924,31354373,2083.3,114.59,0.61334,0.61336,0.36096,0.10615,0.14624,0.017534,0.059131,2.2013e-4,0,0,0,0,-6.7805e-4,0.019331,14.016,154.28,76.46,0.0063928,NaN,5.9599,857.18,334.91,0.05,0.02924
2.5312,178.97,149.43,64.36,153.23,66.673,35.564,0.002322,35.564,0.0037408,33.929,17.412,28.61,-80.6,9.7879,0.19555,0,-2.1432,3.6882e-4,25783,2830.6,37.233,0.10999,265.61,219.02,3.3239,0.45914,32023116,2083.8,119.82,0.6145,0.61457,0.36062,0.10647,0.1474,0.035018,0.11731,4.3512e-6,0,0,0,0,-5.4964e-4,0.019762,14.016,154.28,76.572,0.0067485,NaN,5.9119,856.39,334.88,0.05,0.02947
2.5812,186.52,152.65,64.334,156.57,66.574,37.282,0.0025161,37.282,0.0038667,34.794,17.124,28.61,-80.6,9.7879,0.28527,0,-1.8351,-2.6159e-4,25729,2777.1,37.19,0.10993,265.25,218.84,3.3115,0.46905,32691545,2082.7,125.2,0.61569,0.61584,0.36028,0.1068,0.1486,0.051367,0.17058,-3.402e-6,0,0,0,0,-3.8619e-4,0.020192,14.016,154.28,76.672,0.0070941,NaN,5.8628,855.59,334.85,0.05,0.029701
2.6312,194.23,155.87,64.08,159.89,66.248,39.043,0.0027223,39.043,0.0039949,35.644,16.812,28.61,-80.6,9.7878,0.3641,0,-1.3968,-3.058e-4,25676,2723.9,37.146,0.10986,264.95,218.66,3.3028,0.47898,33359349,2076,130.71,0.6169,0.61715,0.35994,0.10714,0.14983,0.065885,0.21769,-4.8524e-4,0,0,0,0,-2.1461e-4,0.020623,14.016,154.28,76.754,0.0073809,NaN,5.8127,854.77,334.82,0.05,0.029943
2.6812,202.11,159.08,63.785,163.21,65.897,40.846,0.0029409,40.846,0.0041253,36.48,16.549,28.61,-80.6,9.7878,0.42061,0,-0.84463,-7.5497e-4,25624,2671.3,37.103,0.1098,264.75,218.48,3.3012,0.48888,34023329,2068.8,136.32,0.61814,0.61847,0.35959,0.10748,0.15107,0.076395,0.25193,-3.2694e-4,0,0,0,0,-7.5335e-5,0.02105,14.016,154.28,76.81,0.007619,NaN,5.7615,853.93,334.79,0.05,0.030185
2.7312,210.14,162.27,63.466,166.5,65.542,42.691,0.0031723,42.691,0.0042576,37.305,16.366,28.61,-80.6,9.7878,0.44558,0,-0.20523,-0.0011593,25571,2619,37.06,0.10974,264.68,218.3,3.3095,0.49873,34682429,2061.5,142.02,0.6194,0.61977,0.35923,0.10783,0.15234,0.081099,0.26804,-6.9421e-5,0,0,0,0,-4.2747e-6,0.021476,14.016,154.28,76.837,0.0078632,NaN,5.7093,853.08,334.76,0.05,0.030447
2.7812,218.33,165.44,63.127,169.78,65.183,44.577,0.0034168,44.577,0.0043917,38.122,16.244,28.61,-80.6,9.7878,0.45718,0,0.48427,-0.0011224,25519,2566.7,37.016,0.10967,264.68,218.12,3.3221,0.50858,3.534e7,2054.3,147.85,0.62068,0.62107,0.35886,0.10819,0.15362,0.083327,0.27633,-1.5605e-4,0,0,0,0,2.2893e-5,0.021899,14.016,154.28,76.83,0.0080827,NaN,5.656,852.2,334.73,0.05,0.030706
2.8312,226.69,168.6,62.757,173.04,64.823,46.503,0.0036746,46.503,0.0045274,38.935,16.238,28.61,-80.6,9.7877,0.42627,0,1.2018,-8.488e-4,25467,2514.4,36.973,0.10961,264.86,217.93,3.3481,0.51836,35990583,2047.1,153.73,0.62198,0.62232,0.35849,0.10855,0.15493,0.077627,0.25933,-3.7813e-4,0,0,0,0,1.3576e-4,0.02232,14.016,154.28,76.788,0.0081983,NaN,5.6017,851.32,334.69,0.05,0.030949
2.8812,235.19,171.74,62.363,176.28,64.46,48.47,0.0039458,48.47,0.0046642,39.751,16.306,28.61,-80.6,9.7877,0.3795,0,1.8699,-7.7382e-4,25414,2462.1,36.929,0.10955,265.12,217.75,3.3794,0.52812,36639047,2039.8,159.73,0.6233,0.62357,0.35811,0.10892,0.15626,0.068995,0.23317,3.291e-4,0,0,0,0,3.1666e-4,0.022739,14.016,154.28,76.711,0.008211,NaN,5.5464,850.41,334.66,0.05,0.031181
2.9312,243.86,174.85,61.95,179.5,64.092,50.478,0.0042305,50.478,0.0048018,40.572,16.434,28.61,-80.599,9.7877,0.32452,0,2.4878,-6.4782e-4,25362,2409.8,36.885,0.10949,265.41,217.57,3.4135,0.53789,37285764,2032.6,165.85,0.62464,0.62485,0.35773,0.1093,0.15761,0.058877,0.19999,-1.6242e-4,0,0,0,0,5.4044e-4,0.023156,14.016,154.28,76.601,0.0082458,NaN,5.4901,849.49,334.63,0.05,0.031536
2.9812,252.68,177.95,61.499,182.7,63.726,52.528,0.0045286,52.528,0.0049397,41.401,16.702,28.61,-80.599,9.7877,0.21778,0,2.9964,-6.2402e-4,25310,2357.5,36.841,0.10942,265.94,217.38,3.4643,0.54754,37922996,2025.3,172.01,0.626,0.62609,0.35735,0.10968,0.15897,0.039321,0.13572,-1.2769e-4,0,0,0,0,7.5676e-4,0.02357,14.016,154.28,76.463,0.0082129,NaN,5.4328,848.55,334.59,0.05,0.031904
3.0312,261.65,181.02,61.021,185.89,63.359,54.619,0.0048403,54.619,0.0050775,42.248,17.053,28.61,-80.599,9.7876,0.08648,0,3.2837,2.3015e-4,25257,2305.2,36.797,0.10936,266.58,217.2,3.5235,0.55712,38553212,2018.1,178.25,0.62737,0.62738,0.35696,0.11006,0.16035,0.015519,0.053803,-2.5026e-4,0,0,0,0,8.7806e-4,0.023982,14.016,154.28,76.305,0.0081853,NaN,5.3745,847.6,334.56,0.05,0.032272
3.0812,270.78,184.07,60.525,189.05,62.991,56.753,0.0051655,56.753,0.0052149,43.112,17.451,28.61,-80.599,9.7876,0.057571,0,-3.314,0.0029801,25205,2252.8,36.752,0.1093,266.78,217.01,3.5504,0.56661,39176126,2010.8,184.57,0.62875,0.62876,0.35656,0.11045,0.16174,0.010324,0.037717,-3.438e-4,0,0,0,0,-8.6479e-4,0.024391,14.016,154.28,76.139,0.0081679,NaN,5.3151,846.63,334.52,0.05,0.032648
3.1312,280.06,187.09,60.024,192.2,62.618,58.93,0.0055041,58.93,0.0053514,43.997,17.837,28.61,-80.599,9.7876,0.19004,0,-3.0462,0.0016977,25153,2200.5,36.708,0.10923,266.24,216.83,3.5258,0.57605,39793266,2003.6,190.98,0.63015,0.63022,0.35617,0.11084,0.16314,0.034351,0.12143,-4.3589e-4,0,0,0,0,-7.0706e-4,0.024798,14.016,154.28,75.979,0.0081366,NaN,5.2548,845.64,334.48,0.05,0.03308
3.1812,289.49,190.09,59.536,195.32,62.238,61.153,0.0058562,61.153,0.0054868,44.899,18.139,28.61,-80.599,9.7875,0.2871,0,-2.5226,0.0014417,25100,2148.2,36.663,0.10917,265.88,216.64,3.5132,0.58546,40408574,1996.4,197.52,0.63156,0.63172,0.35576,0.11124,0.16456,0.05221,0.18339,1.3361e-4,0,0,0,0,-4.6953e-4,0.025203,14.016,154.28,75.839,0.0081552,NaN,5.1935,844.68,334.45,0.05,0.033528
3.2312,299.07,193.07,59.062,198.43,61.851,63.42,0.0062218,63.42,0.0056209,45.814,18.366,28.61,-80.599,9.7875,0.36189,-3.1623e-7,-1.7975,0.0015382,25048,2095.9,36.618,0.10911,265.62,216.45,3.5079,0.59477,41016159,1989.1,204.11,0.63299,0.63324,0.35536,0.11164,0.16599,0.066129,0.2324,1.9722e-4,0,0,0,0,-2.3104e-4,0.025606,14.016,154.28,75.73,0.0082069,NaN,5.1313,843.71,334.41,0.05,0.033939
3.2812,308.79,196.02,58.531,201.51,61.374,65.734,0.0066009,65.734,0.0057536,46.739,18.464,28.61,-80.599,9.7875,0.40817,0,-0.9001,0.0011331,24996,2043.6,36.573,0.10905,265.49,216.26,3.5119,0.60399,41615337,1979.8,210.74,0.63442,0.63475,0.35495,0.11205,0.16742,0.074834,0.26272,-3.2471e-4,0,0,0,0,-5.6193e-5,0.026006,14.016,154.28,75.662,0.0083667,NaN,5.068,842.73,334.37,0.05,0.034333
3.3312,318.67,198.94,57.749,204.57,60.561,68.094,0.006994,68.094,0.0058849,47.663,18.241,28.61,-80.599,9.7875,0.37675,0,0.064127,0.002417,24945,1992.8,36.529,0.10899,265.69,216.08,3.5398,0.61321,42213320,1962.7,217.45,0.63588,0.63615,0.35454,0.11246,0.16888,0.069022,0.24416,1.9764e-5,0,0,0,0,2.7678e-7,0.026402,14.016,154.28,75.642,0.0087115,NaN,5.0039,841.73,334.33,0.05,0.034722
3.3812,328.69,201.83,56.97,207.59,59.699,70.5,0.0074016,70.5,0.0060153,48.57,17.841,28.61,-80.599,9.7874,0.30317,-3.393e-7,0.9065,0.0020239,24897,1944.6,36.487,0.10893,266.09,215.9,3.5804,0.62232,42801413,1944.8,224.16,0.63734,0.63752,0.35412,0.11287,0.17035,0.05538,0.19811,-4.6595e-4,0,0,0,0,5.3713e-5,0.026794,14.016,154.28,75.666,0.0091969,NaN,4.9387,840.71,334.29,0.05,0.03509
3.4312,338.85,204.68,56.215,210.57,58.826,72.951,0.0078244,72.951,0.0061453,49.455,17.332,28.61,-80.599,9.7874,0.20845,0,1.5718,0.0018491,24849,1897.3,36.446,0.10887,266.58,215.73,3.6277,0.63127,43376960,1926.9,230.86,0.63879,0.63888,0.35371,0.11328,0.1718,0.037923,0.1374,1.6649e-4,0,0,0,0,1.5698e-4,0.02718,14.016,154.28,75.729,0.0096301,NaN,4.8727,839.68,334.25,0.05,0.035471
3.4812,349.16,207.49,55.48,213.5,57.945,75.445,0.0082633,75.445,0.0062754,50.311,16.721,28.61,-80.599,9.7874,0.091007,-3.1546e-7,1.9752,0.0023573,24802,1849.9,36.404,0.10881,267.17,215.56,3.6828,0.64009,43942480,1908.9,237.59,0.64025,0.64027,0.3533,0.11369,0.17326,0.01647,0.060247,-3.7468e-4,0,0,0,0,2.4115e-4,0.02756,14.016,154.28,75.819,0.0099526,NaN,4.8057,838.64,334.21,0.05,0.035831
3.5312,359.6,210.27,54.75,216.39,57.06,77.981,0.0087184,77.981,0.0064057,51.136,16.071,28.61,-80.599,9.7873,0.03108,-3.1102e-7,-2.0541,0.0029944,24755,1802.6,36.363,0.10876,267.52,215.38,3.7197,0.64879,44497452,1891,244.33,0.64171,0.64171,0.35288,0.1141,0.17472,0.005612,0.02107,-8.7554e-5,0,0,0,0,-2.5392e-4,0.027935,14.016,154.28,75.921,0.010347,NaN,4.7378,837.58,334.17,0.05,0.036183
3.5812,370.18,213,54.021,219.24,56.17,80.558,0.0091903,80.558,0.0065364,51.928,15.387,28.61,-80.599,9.7873,0.16012,-3.0472e-7,-1.7842,-3.851e-4,24707,1755.3,36.321,0.1087,267.01,215.21,3.6962,0.65742,45045596,1873.1,251.14,0.64317,0.64322,0.35247,0.11452,0.17619,0.029139,0.10792,-3.7591e-4,0,0,0,0,-1.8664e-4,0.028303,14.016,154.28,76.019,0.010732,NaN,4.669,836.51,334.13,0.05,0.036561
3.6312,380.9,215.71,53.261,222.05,55.282,83.173,0.0096792,83.173,0.0066677,52.687,14.809,28.61,-80.599,9.7873,0.2536,-4.2556e-7,-1.1542,-3.0717e-4,24660,1708,36.279,0.10864,266.67,215.03,3.6844,0.6659,45582054,1855.2,257.94,0.64463,0.64476,0.35205,0.11493,0.17764,0.046421,0.17138,-3.844e-4,0,0,0,0,-7.6152e-5,0.028666,14.016,154.28,76.093,0.011001,NaN,4.5994,835.43,334.09,0.05,0.036917
3.6812,391.75,218.37,52.462,224.81,54.397,85.826,0.010185,85.826,0.0067996,53.421,14.378,28.61,-80.599,9.7872,0.3066,-3.728e-7,-0.30067,-3.8671e-4,24613,1660.6,36.237,0.10859,266.52,214.86,3.6857,0.67425,46108252,1837.3,264.72,0.64609,0.64627,0.35164,0.11534,0.1791,0.056331,0.20799,-1.217e-4,0,0,0,0,-5.0413e-6,0.029023,14.016,154.28,76.131,0.011079,NaN,4.5288,834.33,334.04,0.05,0.037273
3.7312,402.73,220.99,51.621,227.53,53.514,88.515,0.010709,88.515,0.0069318,54.137,14.11,28.61,-80.599,9.7872,0.32037,-3.5607e-7,0.6902,-4.7116e-4,24565,1613.3,36.195,0.10853,266.53,214.68,3.6995,0.6825,46625905,1819.4,271.5,0.64754,0.64775,0.35123,0.11576,0.18056,0.05896,0.21773,-2.7404e-4,0,0,0,0,2.5934e-5,0.029375,14.016,154.28,76.121,0.011137,NaN,4.4574,833.22,334,0.05,0.037648
3.7812,413.85,223.57,50.714,230.2,52.641,91.24,0.011249,91.24,0.007064,54.846,14.11,28.61,-80.599,9.7872,0.26553,-4.0577e-7,1.6568,-2.7058e-4,24518,1566,36.153,0.10847,266.85,214.5,3.7348,0.69057,47129078,1801.5,278.17,0.64899,0.64913,0.35082,0.11617,0.182,0.048772,0.18156,-3.6144e-4,0,0,0,0,1.4601e-4,0.029721,14.016,154.28,76.062,0.011186,NaN,4.3852,832.09,333.96,0.05,0.038003
3.8312,425.09,226.1,49.756,232.83,51.775,94,0.011806,94,0.0071959,55.561,14.317,28.61,-80.599,9.7871,0.16198,-3.7379e-7,2.373,0.0024722,24471,1518.7,36.11,0.10842,267.38,214.33,3.7857,0.69848,4.762e7,1783.6,284.77,0.65042,0.65047,0.35042,0.11657,0.18342,0.02962,0.11234,3.6099e-4,0,0,0,0,2.9285e-4,0.030061,14.016,154.28,75.96,0.011033,NaN,4.3121,830.96,333.91,0.05,0.038375
3.8812,436.46,228.58,48.77,235.41,50.912,96.796,0.012379,96.796,0.0073272,56.289,14.611,28.61,-80.599,9.7871,0.042242,-3.6934e-7,2.7209,0.014398,24424,1471.3,36.067,0.10836,268,214.15,3.8422,0.70627,48100807,1765.7,291.38,0.65184,0.65185,0.35001,0.11698,0.18485,0.0076831,0.029627,1.0434e-4,0,0,0,0,3.7667e-4,0.030396,14.016,154.28,75.831,0.010707,NaN,4.2382,829.8,333.87,0.05,0.03874
3.9312,447.95,231.02,47.774,237.95,50.052,99.629,0.012967,99.629,0.0074569,57.032,14.93,28.61,-80.599,9.7871,0.079419,-3.5783e-7,-2.6537,0.0090294,24376,1424,36.025,0.1083,267.91,213.97,3.8484,0.71393,48571202,1747.8,297.96,0.65326,0.65327,0.34961,0.11739,0.18626,0.014487,0.056391,-5.2477e-5,0,0,0,0,-3.5074e-4,0.030725,14.016,154.28,75.695,0.010399,NaN,4.1635,828.64,333.82,0.05,0.039115
3.9812,459.56,233.4,46.798,240.45,49.187,102.5,0.013569,102.5,0.0075847,57.79,15.143,28.61,-80.599,9.787,0.16948,-3.8495e-7,-2.1818,0.0053453,24329,1376.7,35.982,0.10825,267.58,213.79,3.8379,0.7215,49033635,1729.9,304.56,0.65468,0.65473,0.34921,0.11779,0.18767,0.031091,0.1198,-2.1338e-4,0,0,0,0,-2.322e-4,0.031049,14.016,154.28,75.572,0.010371,NaN,4.0881,827.47,333.78,0.05,0.039586
4.0312,471.29,235.74,45.879,242.9,48.304,105.41,0.014185,105.41,0.0077104,58.553,15.111,28.61,-80.599,9.787,0.19494,-2.9807e-7,-1.4762,0.0040017,24282,1329.4,35.939,0.10819,267.54,213.61,3.8482,0.72904,49492333,1712,311.2,0.6561,0.65618,0.34881,0.1182,0.18909,0.035842,0.13846,4.3004e-4,0,0,0,0,-1.0414e-4,0.031367,14.016,154.28,75.48,0.010679,NaN,4.0118,826.28,333.73,0.05,0.039955
4.0812,483.13,238.03,44.947,245.31,47.352,108.35,0.014816,108.35,0.0078344,59.309,14.899,28.61,-80.599,9.7869,0.18362,-3.0494e-7,-0.75501,0.0037,24234,1282,35.895,0.10813,267.67,213.42,3.8703,0.73645,49940691,1692.7,317.78,0.65752,0.65759,0.34841,0.1186,0.19051,0.033772,0.13105,-3.1327e-4,0,0,0,0,-2.6703e-5,0.031679,14.016,154.28,75.425,0.01115,NaN,3.9348,825.08,333.68,0.05,0.040322
4.1312,495.09,240.28,43.835,247.67,46.167,111.34,0.015463,111.34,0.0079573,60.051,14.488,28.61,-80.599,9.7869,0.14318,-5.3075e-7,-0.10502,0.0034158,24190,1238.1,35.855,0.10808,267.93,213.25,3.9006,0.74371,50377004,1668.2,324.27,0.65892,0.65896,0.34801,0.119,0.1919,0.026304,0.10241,-4.5467e-4,0,0,0,0,-5.0681e-7,0.031985,14.016,154.28,75.404,0.011826,NaN,3.8571,823.87,333.64,0.05,0.040669
4.1812,507.16,242.47,42.696,249.97,44.953,114.36,0.016127,114.36,0.0080798,60.771,14.065,28.61,-80.599,9.7869,0.11036,-6.4163e-7,0.38087,0.0035875,24152,1199.5,35.819,0.10803,268.15,213.11,3.927,0.75068,50792312,1643.2,330.56,0.66028,0.6603,0.34763,0.11939,0.19326,0.020259,0.079997,-2.0813e-4,0,0,0,0,6.5438e-6,0.032284,14.016,154.28,75.411,0.012583,NaN,3.7787,822.65,333.59,0.05,0.040993
4.2312,519.33,244.6,41.577,252.2,43.731,117.42,0.01681,117.42,0.0082028,61.47,13.555,28.61,-80.599,9.7868,0.060904,-5.6814e-7,0.75186,0.0052859,24115,1162.9,35.786,0.10799,268.44,212.96,3.9582,0.75746,51193230,1618.1,336.73,0.66161,0.66162,0.34725,0.11977,0.19459,0.011161,0.044294,-3.3638e-4,0,0,0,0,2.5054e-5,0.032574,14.016,154.28,75.44,0.013272,NaN,3.6995,821.42,333.54,0.05,0.041239
4.2812,531.62,246.68,40.469,254.38,42.508,120.51,0.017513,120.51,0.0083269,62.14,13.007,28.61,-80.599,9.7868,0.0055587,-5.7334e-7,0.87996,0.049312,24079,1126.4,35.752,0.10795,268.76,212.82,3.9913,0.76405,5.158e7,1593.1,342.77,0.66292,0.66292,0.34688,0.12015,0.19589,0.0010166,0.0036651,3.8675e-4,0,0,0,0,3.3738e-5,0.032857,14.016,154.28,75.482,0.013958,NaN,3.6197,820.17,333.49,0.05,0.041528
4.3312,544,248.7,39.375,256.5,41.281,123.63,0.018238,123.63,0.0084526,62.783,12.398,28.61,-80.599,9.7868,0.063579,-5.6417e-7,-0.77426,0.0027391,24042,1089.8,35.718,0.1079,268.57,212.68,3.9878,0.77052,51956347,1568.1,348.75,0.66422,0.66423,0.34652,0.12052,0.19718,0.011674,0.04633,-3.0395e-4,0,0,0,0,-2.5691e-5,0.033131,14.016,154.28,75.525,0.014471,NaN,3.5392,818.92,333.44,0.05,0.041771
4.3812,556.48,250.67,38.28,258.56,40.054,126.78,0.018986,126.78,0.00858,63.394,11.785,28.61,-80.599,9.7867,0.13422,-5.9929e-7,-0.33765,0.0018667,24005,1053.3,35.684,0.10786,268.32,212.54,3.9804,0.77688,52323953,1543,354.68,0.66551,0.66554,0.34616,0.12089,0.19846,0.024756,0.098384,-3.1767e-4,0,0,0,0,-4.8075e-6,0.033398,14.016,154.28,75.554,0.014508,NaN,3.4581,817.66,333.39,0.05,0.042012
4.4312,569.07,252.58,37.125,260.56,38.846,129.97,0.019754,129.97,0.0087087,63.979,11.435,28.61,-80.599,9.7867,0.14406,-7.6675e-7,0.32419,0.0017016,23969,1016.7,35.65,0.10781,268.35,212.39,3.9924,0.78296,52671028,1518,360.36,0.66675,0.66679,0.34581,0.12125,0.19969,0.026607,0.10649,-4.3139e-4,0,0,0,0,4.3646e-6,0.033657,14.016,154.28,75.554,0.014131,NaN,3.3763,816.38,333.34,0.05,0.042261
4.4812,581.74,254.43,35.93,262.49,37.651,133.18,0.020543,133.18,0.0088379,64.553,11.252,28.61,-80.599,9.7866,0.11945,-6.9072e-7,0.91778,0.002753,23932,980.16,35.615,0.10777,268.53,212.25,4.0152,0.78884,53003917,1493,365.88,0.66796,0.66799,0.34547,0.12159,0.2009,0.022053,0.088252,2.5937e-4,0,0,0,0,3.4471e-5,0.033908,14.016,154.28,75.523,0.013593,NaN,3.2939,815.1,333.29,0.05,0.042496
4.5312,594.51,256.22,34.717,264.37,36.461,136.42,0.021349,136.42,0.0089665,65.12,11.139,28.61,-80.599,9.7866,0.083391,-6.6564e-7,1.3903,0.0024769,23896,943.61,35.581,0.10773,268.75,212.1,4.0418,0.7946,53326787,1467.9,371.31,0.66915,0.66916,0.34513,0.12194,0.20208,0.015379,0.061788,-2.3758e-4,0,0,0,0,7.799e-5,0.034152,14.016,154.28,75.465,0.013384,NaN,3.2109,813.81,333.24,0.05,0.042722
4.5812,607.36,257.96,33.478,266.19,35.283,139.69,0.022172,139.69,0.009094,65.683,11.141,28.61,-80.599,9.7866,0.024146,-6.2391e-7,1.6553,0.011599,23859,907.05,35.547,0.10768,269.08,211.96,4.0757,0.80016,53634715,1442.9,376.56,0.67031,0.67031,0.3448,0.12227,0.20323,0.004443,0.018305,-1.6949e-4,0,0,0,0,1.0905e-4,0.034387,14.016,154.28,75.387,0.013439,NaN,3.1273,812.51,333.19,0.05,0.042957
4.6312,620.3,259.63,32.245,267.94,34.108,142.99,0.023011,142.99,0.0092203,66.247,11.12,28.61,-80.599,9.7865,0.027991,-6.2935e-7,-1.629,0.011894,23823,870.49,35.512,0.10764,269.13,211.81,4.0893,0.80557,53931779,1417.9,381.7,0.67145,0.67145,0.34448,0.1226,0.20436,0.0051555,0.020692,4.2045e-4,0,0,0,0,-1.0423e-4,0.034616,14.016,154.28,75.304,0.013562,NaN,3.0432,811.2,333.14,0.05,0.043213
4.6812,633.32,261.23,31.019,269.64,32.939,146.32,0.023866,146.32,0.0093455,66.809,11.084,28.61,-80.599,9.7865,0.076891,-7.0188e-7,-1.3825,0.0042951,23786,833.94,35.477,0.10759,268.97,211.67,4.0883,0.81079,54214151,1392.8,386.68,0.67255,0.67256,0.34417,0.12292,0.20546,0.014209,0.058577,-1.8281e-4,0,0,0,0,-7.4127e-5,0.034836,14.016,154.28,75.228,0.013827,NaN,2.9586,809.88,333.09,0.05,0.043474
4.7312,646.42,262.78,29.818,271.28,31.769,149.67,0.024737,149.67,0.0094697,67.368,10.962,28.61,-80.598,9.7864,0.10811,-5.6447e-7,-0.90773,0.0037477,23750,797.38,35.443,0.10755,268.89,211.52,4.0929,0.81582,54482644,1367.8,391.47,0.67362,0.67365,0.34387,0.12323,0.20652,0.020025,0.081914,-4.7928e-4,0,0,0,0,-3.1575e-5,0.035049,14.016,154.28,75.17,0.014259,NaN,2.8734,808.55,333.04,0.05,0.043715
4.7812,659.6,264.27,28.669,272.86,30.585,153.05,0.025627,153.05,0.0095935,67.916,10.655,28.61,-80.598,9.7864,0.10157,-6.0741e-7,-0.35996,0.0044076,23713,760.83,35.408,0.10751,268.98,211.38,4.1096,0.82071,54740805,1342.7,396.14,0.67467,0.67469,0.34358,0.12353,0.20756,0.018822,0.077509,2.4349e-4,0,0,0,0,-4.9078e-6,0.035254,14.016,154.28,75.138,0.015107,NaN,2.7878,807.22,332.99,0.05,0.043967
4.8312,672.85,265.7,27.542,274.38,29.401,156.46,0.026536,156.46,0.0097174,68.446,10.289,28.61,-80.598,9.7864,0.085611,-7.0089e-7,0.10893,0.0040266,23676,724.27,35.373,0.10746,269.1,211.23,4.1292,0.82537,54982178,1317.7,400.58,0.67568,0.67569,0.34329,0.12382,0.20856,0.015862,0.065871,-3.8429e-4,0,0,0,0,4.4455e-7,0.035452,14.016,154.28,75.132,0.015874,NaN,2.7017,805.88,332.94,0.05,0.044197
4.8812,686.17,267.08,26.459,275.84,28.203,159.9,0.027467,159.9,0.0098423,68.956,9.7633,28.61,-80.598,9.7863,0.037871,-6.5203e-7,0.46012,0.0065668,23640,687.71,35.338,0.10742,269.37,211.08,4.1589,0.8299,55213743,1292.7,404.89,0.67666,0.67666,0.34302,0.12411,0.20954,0.0070043,0.029445,4.4649e-4,0,0,0,0,7.8474e-6,0.035642,14.016,154.28,75.148,0.016507,NaN,2.6151,804.53,332.88,0.05,0.044433
4.9312,699.56,268.4,25.393,277.24,27.003,163.36,0.028421,163.36,0.0099683,69.437,9.1856,28.61,-80.598,9.7863,0.019394,-6.5505e-7,-0.49555,0.0082718,23603,651.16,35.303,0.10737,269.51,210.93,4.1792,0.83427,55433272,1267.6,409.05,0.67761,0.67761,0.34275,0.12438,0.21048,0.003586,0.015171,-3.6162e-4,0,0,0,0,-9.0102e-6,0.035824,14.016,154.28,75.173,0.016687,NaN,2.5281,803.18,332.83,0.05,0.044703
4.9812,713.01,269.67,24.324,278.58,25.808,166.84,0.029397,166.84,0.010095,69.889,8.6256,28.61,-80.598,9.7862,0.072468,-6.1431e-7,-0.25422,0.0025217,23567,614.6,35.267,0.10733,269.32,210.78,4.1764,0.83848,55641114,1242.6,413.05,0.67853,0.67855,0.34249,0.12465,0.2114,0.013445,0.055692,1.0285e-4,0,0,0,0,-2.3482e-6,0.035999,14.016,154.28,75.193,0.016333,NaN,2.4407,801.81,332.78,0.05,0.044945
5.0312,726.52,270.89,23.211,279.86,24.639,170.35,0.030393,170.35,0.010223,70.317,8.2664,28.61,-80.598,9.7862,0.084471,-5.9295e-7,0.20715,-4.0503e-5,23530,578.05,35.232,0.10729,269.31,210.64,4.1866,0.84243,55831067,1217.6,416.79,0.67941,0.67942,0.34225,0.1249,0.21226,0.015691,0.065887,2.7453e-4,0,0,0,0,1.545e-6,0.036166,14.016,154.28,75.194,0.016091,NaN,2.3528,800.45,332.72,0.05,0.045185
5.0812,740.09,272.04,22.083,281.09,23.478,173.87,0.031408,173.87,0.01035,70.73,7.972,28.61,-80.598,9.7862,0.08541,-5.6115e-7,0.65413,7.6222e-4,23494,541.49,35.197,0.10724,269.36,210.49,4.2003,0.84626,56011543,1192.5,420.38,0.68025,0.68027,0.34201,0.12515,0.2131,0.015876,0.066215,7.1828e-5,0,0,0,0,1.5273e-5,0.036325,14.016,154.28,75.173,0.016059,NaN,2.2646,799.07,332.67,0.05,0.045433
5.1312,753.72,273.15,20.937,282.26,22.328,177.42,0.03244,177.42,0.010476,71.13,7.7578,28.61,-80.598,9.7861,0.072164,-6.6172e-7,1.1081,0.0014875,23457,504.94,35.161,0.1072,269.46,210.34,4.2185,0.84995,56181820,1167.5,423.83,0.68108,0.68109,0.34178,0.12539,0.21391,0.013413,0.056446,4.0148e-4,0,0,0,0,4.3463e-5,0.036477,14.016,154.28,75.128,0.016002,NaN,2.176,797.69,332.62,0.05,0.04569
5.1812,767.41,274.19,19.805,283.37,21.249,180.98,0.033489,180.98,0.010602,71.523,7.6997,28.61,-80.598,9.7861,0.031315,-6.9839e-7,1.4071,0.0052654,23421,468.38,35.125,0.10716,269.69,210.19,4.2454,0.85343,56337204,1143.6,427.05,0.68185,0.68186,0.34156,0.12561,0.21468,0.0058112,0.024763,-4.452e-4,0,0,0,0,6.9528e-5,0.036621,14.016,154.28,75.065,0.016064,NaN,2.0871,796.31,332.56,0.05,0.045907
5.2312,781.14,275.18,18.83,284.42,20.367,184.57,0.034555,184.57,0.010727,71.914,7.7621,28.61,-80.598,9.786,0.023771,-6.8304e-7,-1.4337,0.010016,23387,434.66,35.092,0.10711,269.76,210.05,4.2606,0.85671,56478672,1123.9,430.05,0.68259,0.68259,0.34135,0.12582,0.21541,0.0044118,0.01924,9.3278e-5,0,0,0,0,-7.1655e-5,0.036759,14.016,154.28,74.992,0.016119,NaN,1.9978,794.92,332.51,0.05,0.046153
5.2812,794.92,276.12,17.908,285.43,19.477,188.18,0.035637,188.18,0.010851,72.307,7.6599,28.61,-80.598,9.786,0.044766,-6.8213e-7,-1.1951,0.0053395,23358,405.47,35.064,0.10708,269.71,209.93,4.2654,0.85995,56621627,1104.6,433.05,0.68332,0.68333,0.34115,0.12604,0.21614,0.0083219,0.035937,7.1087e-5,0,0,0,0,-4.9436e-5,0.03689,14.016,154.28,74.926,0.016497,NaN,1.9082,793.59,332.46,0.05,0.046413
5.3312,808.75,277.01,16.992,286.39,18.595,191.8,0.036736,191.8,0.010974,72.692,7.5519,28.61,-80.598,9.7859,0.065702,-5.5678e-7,-0.90278,0.0027789,23330,377.98,35.037,0.10705,269.65,209.81,4.2695,0.863,56751173,1085.3,435.85,0.68401,0.68402,0.34095,0.12624,0.21682,0.012233,0.051855,-3.0773e-4,0,0,0,0,-2.8018e-5,0.037016,14.016,154.28,74.873,0.0171,NaN,1.8183,792.26,332.4,0.05,0.04668
5.3812,822.62,277.86,16.105,287.3,17.706,195.45,0.037854,195.45,0.011097,73.071,7.3569,28.61,-80.598,9.7859,0.070524,-7.2878e-7,-0.47844,0.0029515,23303,350.49,35.01,0.10701,269.67,209.7,4.2787,0.86591,5.687e7,1066.1,438.47,0.68467,0.68468,0.34077,0.12643,0.21747,0.01314,0.056436,-2.4979e-4,0,0,0,0,-7.819e-6,0.037136,14.016,154.28,74.839,0.017747,NaN,1.7281,790.93,332.35,0.05,0.046938
5.4312,836.54,278.66,15.256,288.18,16.801,199.11,0.038992,199.11,0.011221,73.437,7.0384,28.61,-80.598,9.7859,0.052337,-6.2711e-7,-0.11596,0.0026116,23275,323.01,34.982,0.10698,269.79,209.58,4.2952,0.86869,5.698e7,1046.8,440.95,0.68531,0.68531,0.34059,0.12661,0.2181,0.009747,0.041726,4.4703e-4,0,0,0,0,-4.5651e-7,0.03725,14.016,154.28,74.824,0.018472,NaN,1.6377,789.59,332.29,0.05,0.047181
5.4812,850.49,279.42,14.411,289,15.907,202.79,0.040152,202.79,0.011345,73.786,6.735,28.61,-80.598,9.7858,0.03831,-5.9076e-7,0.14,0.0010427,23248,295.52,34.955,0.10695,269.88,209.47,4.3103,0.87127,57076346,1027.5,443.19,0.68589,0.6859,0.34043,0.12679,0.21868,0.0071325,0.031205,4.4059e-4,0,0,0,0,6.6177e-7,0.037358,14.016,154.28,74.825,0.018742,NaN,1.547,788.24,332.24,0.05,0.047434
5.5312,864.48,280.14,13.603,289.78,14.991,206.49,0.041334,206.49,0.011469,74.119,6.2989,28.61,-80.598,9.7858,0.0012086,-6.2943e-7,-0.28244,0.031922,23220,268.03,34.928,0.10691,270.08,209.35,4.3327,0.87377,57167114,1008.2,445.35,0.68647,0.68647,0.34026,0.12695,0.21925,2.2468e-4,0.0013554,2.1673e-4,0,0,0,0,-2.6787e-6,0.03746,14.016,154.28,74.837,0.018478,NaN,1.4561,786.9,332.18,0.05,0.047646
5.5812,878.5,280.82,12.41,290.52,13.669,210.2,0.042535,210.2,0.011594,74.428,5.7321,28.61,-80.598,9.7857,0.045178,-5.7495e-7,-0.12888,0.001985,23193,240.55,34.901,0.10688,269.91,209.24,4.3289,0.87618,57250521,979.46,447.4,0.68702,0.68703,0.34011,0.12711,0.2198,0.0084211,0.035974,1.3461e-4,0,0,0,0,-5.5492e-7,0.037557,14.016,154.28,74.848,0.018126,NaN,1.3649,785.55,332.13,0.05,0.047933
5.6312,892.56,281.45,9.6993,291.19,10.86,213.93,0.043754,213.93,0.011719,74.711,4.8843,28.61,-80.598,9.7857,0.065898,-5.9396e-7,0.22129,0.0030395,23169,216.95,34.877,0.10685,269.85,209.14,4.3313,0.87835,57318372,914.95,449.18,0.68752,0.68753,0.33997,0.12726,0.2203,0.012301,0.053221,-2.579e-4,0,0,0,0,1.6283e-6,0.037644,14.016,154.28,74.846,0.017745,NaN,1.2736,784.19,332.07,0.05,0.048185
5.6812,906.64,281.93,6.8178,291.72,7.9839,217.67,0.044988,217.67,0.011842,74.955,4.1547,28.61,-80.598,9.7856,0.057619,-5.8262e-7,0.61762,0.0018219,23152,199.6,34.86,0.10683,269.91,209.07,4.3408,0.88007,57355397,847.02,450.41,0.68792,0.68793,0.33986,0.12737,0.22069,0.010754,0.046636,2.101e-4,0,0,0,0,1.2639e-5,0.037714,14.016,154.28,74.825,0.017554,NaN,1.182,782.84,332.02,0.05,0.048454
5.7312,920.75,282.27,3.9324,292.11,5.2657,221.42,0.046235,221.42,0.011964,75.166,3.5021,28.61,-80.598,9.7856,0.035607,-4.9127e-7,0.90064,8.6174e-4,23137,184.58,34.845,0.10681,270.02,209,4.3535,0.88134,57363658,779.09,451.13,0.68821,0.68822,0.33977,0.12746,0.22098,0.0066395,0.028805,-1.7761e-5,0,0,0,0,2.6808e-5,0.037765,14.016,154.28,74.787,0.01801,NaN,1.0903,781.48,331.96,0.05,0.048704
5.7812,934.87,282.47,1.0785,292.34,2.9876,225.19,0.047496,225.19,0.012085,75.343,2.7861,28.61,-80.598,9.7856,0.026434,-5.0948e-7,1.0706,-0.0064449,23122,169.56,34.83,0.1068,270.08,208.94,4.3619,0.88227,57348967,711.17,451.44,0.68843,0.68843,0.33971,0.12752,0.22119,0.0049274,0.021519,-1.1747e-5,0,0,0,0,3.7812e-5,0.037796,14.016,154.28,74.737,0.018933,NaN,0.99857,780.12,331.9,0.05,0.04895
5.8312,948.99,282.52,-1.765,292.43,2.7445,228.96,0.048773,228.96,0.012205,75.484,2.1016,28.61,-80.598,9.7855,0.011331,-5.2587e-7,1.2017,-0.024767,23107,154.54,34.815,0.10678,270.15,208.88,4.3717,0.88277,57305752,643.24,451.23,0.68855,0.68855,0.33968,0.12756,0.22131,0.0021106,0.0094012,1.8619e-5,0,0,0,0,4.7602e-5,0.037809,14.016,154.28,74.68,0.019794,NaN,0.90676,778.76,331.85,0.05,0.049232
5.8812,963.12,282.43,-4.6172,292.37,4.8657,232.73,0.050069,232.73,0.012326,75.594,1.5349,28.61,-80.598,9.7855,0.026793,-5.4215e-7,-1.1728,-0.0098979,23092,139.52,34.8,0.10676,270.08,208.81,4.3712,0.88273,57228129,575.31,450.4,0.68854,0.68854,0.33968,0.12755,0.2213,0.0049949,0.022168,1.0788e-4,0,0,0,0,-4.5358e-5,0.037803,14.016,154.28,74.619,0.020316,NaN,0.81495,777.4,331.79,0.05,0.049608
5.9312,977.23,282.2,-7.4382,292.17,7.4953,236.52,0.051382,236.52,0.012447,75.676,0.92326,28.61,-80.598,9.7854,0.056391,-5.0546e-7,-0.89931,-0.002522,23077,124.5,34.784,0.10674,269.94,208.75,4.3658,0.88226,57121904,507.38,449.06,0.68843,0.68843,0.33972,0.12752,0.22119,0.010528,0.045569,2.4778e-5,0,0,0,0,-2.6709e-5,0.037778,14.016,154.28,74.567,0.020681,NaN,0.7232,776.04,331.74,0.05,0.049978
5.9812,991.33,281.83,-10.21,291.83,10.212,240.3,0.052714,240.3,0.012569,75.724,0.19838,28.61,-80.598,9.7854,0.063964,-3.7101e-7,-0.52119,-0.0021976,23062,109.49,34.769,0.10672,269.89,208.69,4.3671,0.88137,56988920,439.45,447.24,0.68822,0.68823,0.33977,0.12746,0.22098,0.011945,0.051767,2.1616e-4,0,0,0,0,-8.9918e-6,0.037734,14.016,154.28,74.531,0.02088,NaN,0.63154,774.69,331.68,0.05,0.050218
6.0312,1005.4,281.32,-12.938,291.34,12.953,244.09,0.054064,244.09,0.012691,75.733,0.61922,28.61,-80.597,9.7853,0.052923,-4.9724e-7,-0.1542,-0.0018583,23047,94.467,34.754,0.10671,269.93,208.62,4.374,0.88004,56828206,371.52,444.92,0.68791,0.68792,0.33986,0.12737,0.22068,0.0098749,0.043058,-1.9702e-4,0,0,0,0,-7.8977e-7,0.037673,14.016,154.28,74.515,0.020683,NaN,0.54003,773.33,331.63,0.05,0.050457
6.0812,1019.5,280.68,-15.629,290.71,15.701,247.87,0.055428,247.87,0.012812,75.7,1.5041,28.61,-80.597,9.7853,0.027452,-4.6337e-7,0.095254,-0.0011904,23032,79.448,34.739,0.10669,270.02,208.56,4.3852,0.87829,5.664e7,303.6,442.11,0.68751,0.68751,0.33997,0.12725,0.22028,0.0051141,0.022217,4.7571e-4,0,0,0,0,3.0266e-7,0.037593,14.016,154.28,74.514,0.020443,NaN,0.44871,771.98,331.57,0.05,0.050696
6.1312,1033.5,279.9,-18.303,289.94,18.457,251.66,0.056806,251.66,0.012933,75.622,2.3779,28.61,-80.597,9.7853,0.0026376,-4.628e-7,0.1795,-0.01022,23017,64.429,34.724,0.10667,270.1,208.49,4.3957,0.87607,56422784,235.67,438.78,0.687,0.687,0.34012,0.12711,0.21978,4.9056e-4,0.001869,3.8683e-4,0,0,0,0,1.0805e-6,0.037494,14.016,154.28,74.521,0.020002,NaN,0.35761,770.63,331.52,0.05,0.050937
6.1812,1047.4,278.99,-20.498,289.03,20.733,255.43,0.058194,255.43,0.013053,75.502,3.1134,28.61,-80.597,9.7852,0.021709,-4.5922e-7,-0.12452,-2.2925e-4,23002,49.411,34.709,0.10665,269.98,208.43,4.3917,0.87344,56178758,178.85,435,0.68639,0.68639,0.34029,0.12693,0.21918,0.0040398,0.017346,3.8814e-4,0,0,0,0,-5.2334e-7,0.037377,14.016,154.28,74.53,0.019607,NaN,0.26679,769.29,331.46,0.05,0.051166
6.2312,1061.4,277.97,-20.929,288,21.196,259.2,0.059589,259.2,0.013172,75.344,3.3514,28.61,-80.597,9.7852,0.044427,-4.8169e-7,0.075196,-9.6288e-4,22991,38.377,34.698,0.10664,269.84,208.38,4.3851,0.87048,55914556,163.84,430.88,0.68571,0.68572,0.34048,0.12673,0.2185,0.0082729,0.03639,2.1056e-4,0,0,0,0,1.9221e-7,0.037246,14.016,154.28,74.531,0.019665,NaN,0.17629,767.95,331.41,0.05,0.051392
6.2812,1075.2,276.93,-21.204,286.95,21.488,262.97,0.060991,262.97,0.013289,75.176,3.4813,28.61,-80.597,9.7851,0.054623,-4.948e-7,0.37588,-0.0041359,22986,33.719,34.693,0.10663,269.76,208.36,4.3805,0.86745,55646655,152.82,426.71,0.68502,0.68503,0.34067,0.12653,0.21782,0.010172,0.044441,4.3394e-4,0,0,0,0,4.8379e-6,0.037111,14.016,154.28,74.52,0.020342,NaN,0.086115,766.61,331.35,0.05,0.05163
6.3312,1089.1,275.87,-21.463,285.89,21.778,266.72,0.062401,266.72,0.013405,75.002,3.6884,28.61,-80.597,9.7851,0.079961,-3.5291e-7,0.73969,-0.0069753,22984,31.452,34.691,0.10663,269.61,208.35,4.3704,0.8645,55385047,141.81,422.68,0.68435,0.68437,0.34086,0.12634,0.21716,0.014902,0.065484,3.4471e-4,0,0,0,0,1.8869e-5,0.036975,14.016,154.28,74.493,0.021472,NaN,-0.0037152,765.28,331.3,0.05,0.051871
6.3812,1102.8,274.81,-21.774,284.81,22.084,270.47,0.063822,270.47,0.01352,74.818,3.688,28.61,-80.597,9.785,0.061805,-3.9305e-7,1.2098,-0.014546,22981,29.185,34.688,0.10663,269.65,208.34,4.3742,0.86143,55115512,130.8,418.52,0.68365,0.68366,0.34105,0.12613,0.21647,0.011502,0.049766,2.8857e-5,0,0,0,0,5.0853e-5,0.036836,14.016,154.28,74.444,0.022707,NaN,-0.0932,763.96,331.24,0.05,0.052113
