# Time (s),Altitude (m),Vertical velocity (m/s),Vertical acceleration (m/s²),Total velocity (m/s),Total acceleration (m/s²),Position East of launch (m),Position North of launch (m),Lateral distance (m),Lateral direction (°),Lateral velocity (m/s),Lateral acceleration (m/s²),Latitude (°),Longitude (°),Gravitational acceleration (m/s²),Angle of attack (°),Roll rate (°/s),Pitch rate (°/s),Yaw rate (°/s),Mass (g),Propellant mass (g),Longitudinal moment of inertia (kg·m²),Rotational moment of inertia (kg·m²),CP location (cm),CG location (cm),Stability margin calibers (?),Mach number (?),Reynolds number (?),Thrust (N),Drag force (N),Drag coefficient (?),Axial drag coefficient (?),Friction drag coefficient (?),Pressure drag coefficient (?),Base drag coefficient (?),Normal force coefficient (?),Pitch moment coefficient (?),Yaw moment coefficient (?),Side force coefficient (?),Roll moment coefficient (?),Roll forcing coefficient (?),Roll damping coefficient (?),Pitch damping coefficient (?),Coriolis acceleration (m/s²),Reference length (cm),Reference area (cm²),Vertical orientation (zenith) (°),Lateral orientation (azimuth) (°),Wind velocity (m/s),Air temperature (°C),Air pressure (mbar),Speed of sound (m/s),Simulation time step (s),Computation time (s)
0,0,0,-8.3871,0,8.4917,0,0,0,0,0,1.3284,28.61,-80.6,9.7884,81,0,0,0,27491,4658.6,38.544,0.11204,NaN,224.47,NaN,0.028008,1986213,32.34,0.0040266,0.61392,0.0054292,0.39479,0.099029,0.1201,NaN,NaN,NaN,NaN,NaN,NaN,NaN,NaN,0,14.016,154.28,81,0,NaN,7.0752,875.43,335.59,2e-3,0.0031705
2e-3,0,0,-6.0634,0,6.139,0,0,0,0,0,0.96034,28.61,-80.6,9.7884,81,0,0,0,27491,4658.6,38.544,0.11204,NaN,224.47,NaN,0.028041,1988582,97.019,0.0040356,0.61383,0.0054284,0.3947,0.099029,0.1201,NaN,NaN,NaN,NaN,NaN,NaN,NaN,NaN,0,14.016,154.28,81,0,NaN,7.0752,875.43,335.59,2e-3,0.0046591
4e-3,0,0,-3.7393,0,3.7859,0,0,0,0,0,0.59225,28.61,-80.6,9.7884,81,0,0,0,27490,4657.3,38.543,0.11204,NaN,224.46,NaN,0.028074,1990951,161.7,0.0040447,0.61374,0.0054277,0.39461,0.099029,0.1201,NaN,NaN,NaN,NaN,NaN,NaN,NaN,NaN,0,14.016,154.28,81,0,NaN,7.0752,875.43,335.59,2e-3,0.0060217
6e-3,0,0,-1.4151,0,1.4327,0,0,0,0,0,0.22412,28.61,-80.6,9.7884,81,0,0,0,27488,4656,38.542,0.11204,NaN,224.46,NaN,0.028108,1993319,226.38,0.0040537,0.61366,0.0054269,0.39452,0.09903,0.1201,NaN,NaN,NaN,NaN,NaN,NaN,NaN,NaN,0,14.016,154.28,81,0,NaN,7.0752,875.43,335.59,2e-3,0.0073362
8e-3,0,0,0.90943,0,0.92077,0,0,0,0,0,0.14404,28.61,-80.6,9.7884,81,0,0,0,27487,4654.7,38.541,0.11204,NaN,224.45,NaN,0.028141,1995688,291.06,0.0040628,0.61357,0.0054261,0.39444,0.09903,0.1201,NaN,NaN,NaN,NaN,NaN,NaN,NaN,NaN,0,14.016,154.28,81,0,NaN,7.0752,875.43,335.59,2e-3,0.0087665
0.01,1.8195e-6,0.0018197,3.2341,0.0018424,3.2745,2.8818e-7,0,2.8818e-7,0,2.8821e-4,0.51224,28.61,-80.6,9.7884,80.989,0,0,0,27486,4653.4,38.54,0.11204,NaN,224.45,NaN,0.028175,1998118,355.74,0.0040866,0.61348,0.0054446,0.39435,0.09903,0.1201,NaN,NaN,NaN,NaN,NaN,NaN,NaN,NaN,2.3674e-7,14.016,154.28,81,0,NaN,7.0752,875.43,335.59,2e-3,0.010164
0.012,1.1928e-5,0.008289,5.5591,0.0083923,5.6284,1.8892e-6,0,1.8892e-6,0,0.0013128,0.88047,28.61,-80.6,9.7884,80.95,0,0,0,27485,4652.1,38.539,0.11203,NaN,224.45,NaN,0.028212,2000704,420.42,0.0041483,0.61339,0.0055126,0.39425,0.09903,0.1201,NaN,NaN,NaN,NaN,NaN,NaN,NaN,NaN,1.0784e-6,14.016,154.28,81,0,NaN,7.0752,875.43,335.59,2e-3,0.011663
0.014,3.9625e-5,0.019408,7.8842,0.01965,7.9825,6.276e-6,0,6.276e-6,0,0.003074,1.2487,28.61,-80.6,9.7884,80.883,0,0,0,27483,4650.8,38.538,0.11203,NaN,224.44,NaN,0.028251,2003448,485.1,0.004249,0.61329,0.005631,0.39415,0.09903,0.1201,NaN,NaN,NaN,NaN,NaN,NaN,NaN,NaN,2.5251e-6,14.016,154.28,81,0,NaN,7.0752,875.43,335.59,2e-3,0.013179
0.016,9.4211e-5,0.035178,10.21,0.035617,10.337,1.4922e-5,0,1.4922e-5,0,0.0055716,1.617,28.61,-80.6,9.7884,80.788,0,0,0,27482,4649.5,38.537,0.11203,NaN,224.44,NaN,0.028292,2006354,549.77,0.0043905,0.61318,0.0058016,0.39405,0.09903,0.1201,NaN,NaN,NaN,NaN,NaN,NaN,NaN,NaN,4.5767e-6,14.016,154.28,81,0,NaN,7.0752,875.43,335.59,2e-3,0.014489
0.018,1.8499e-4,0.055599,12.535,0.056292,12.691,2.9299e-5,0,2.9299e-5,0,0.008806,1.9854,28.61,-80.6,9.7884,80.665,0,0,0,27481,4648.2,38.536,0.11203,NaN,224.43,NaN,0.028335,2009427,614.45,0.0045751,0.61307,0.006027,0.39394,0.09903,0.1201,NaN,NaN,NaN,NaN,NaN,NaN,NaN,NaN,7.2335e-6,14.016,154.28,81,0,NaN,7.0752,875.43,335.59,2e-3,0.015842
0.02,3.2126e-4,0.080671,14.861,0.081676,15.046,5.0882e-5,0,5.0882e-5,0,0.012777,2.3537,28.61,-80.6,9.7884,80.515,0,0,0,27479,4646.9,38.536,0.11203,NaN,224.43,NaN,0.028381,2012673,679.13,0.004806,0.61295,0.0063108,0.39382,0.09903,0.1201,NaN,NaN,NaN,NaN,NaN,NaN,NaN,NaN,1.0495e-5,14.016,154.28,81,0,NaN,7.0752,875.43,335.59,2e-3,0.017131
0.022,5.1232e-4,0.11039,17.187,0.11177,17.401,8.1144e-5,0,8.1144e-5,0,0.017485,2.7221,28.61,-80.6,9.7884,80.337,0,0,0,27478,4645.6,38.535,0.11203,NaN,224.43,NaN,0.028429,2016099,743.81,0.0050871,0.61283,0.0066573,0.39369,0.09903,0.12011,NaN,NaN,NaN,NaN,NaN,NaN,NaN,NaN,1.4363e-5,14.016,154.28,81,0,NaN,7.0752,875.43,335.59,2e-3,0.018415
0.024,7.6749e-4,0.14477,19.513,0.14657,19.756,1.2156e-4,0,1.2156e-4,0,0.022929,3.0906,28.61,-80.6,9.7884,80.132,0,0,0,27477,4644.4,38.534,0.11203,NaN,224.42,NaN,0.02848,2019715,808.49,0.0054233,0.6127,0.0070718,0.39356,0.09903,0.12011,NaN,NaN,NaN,NaN,NaN,NaN,NaN,NaN,1.8835e-5,14.016,154.28,81,0,NaN,7.0752,875.43,335.59,2e-3,0.019698
0.026,0.0010961,0.1838,21.84,0.18609,22.112,1.736e-4,0,1.736e-4,0,0.029111,3.459,28.61,-80.6,9.7884,79.9,0,0,0,27476,4643.1,38.533,0.11202,NaN,224.42,NaN,0.028534,2023531,873.17,0.0058199,0.61256,0.0075605,0.39342,0.09903,0.12011,NaN,NaN,NaN,NaN,NaN,NaN,NaN,NaN,2.3913e-5,14.016,154.28,81,0,NaN,7.0752,875.43,335.59,2e-3,0.021057
0.028,0.0015073,0.22748,24.166,0.23032,24.467,2.3874e-4,0,2.3874e-4,0,0.036029,3.8276,28.61,-80.6,9.7884,79.641,0,0,0,27474,4641.8,38.532,0.11202,NaN,224.41,NaN,0.028591,2027559,937.85,0.0062836,0.61242,0.0081304,0.39328,0.09903,0.12011,NaN,NaN,NaN,NaN,NaN,NaN,NaN,NaN,2.9596e-5,14.016,154.28,81,0,NaN,7.0752,875.43,335.59,2e-3,0.022376
0.03,0.0020106,0.27582,26.493,0.27925,26.823,3.1845e-4,0,3.1845e-4,0,0.043685,4.1961,28.61,-80.6,9.7884,79.356,0,0,0,27473,4640.5,38.531,0.11202,NaN,224.41,NaN,0.028651,2031812,1002.5,0.0068217,0.61226,0.0087897,0.39313,0.099031,0.12011,NaN,NaN,NaN,NaN,NaN,NaN,NaN,NaN,3.5884e-5,14.016,154.28,81,0,NaN,7.0752,875.43,335.59,2e-3,0.023753
0.032,0.0026152,0.3288,28.82,0.3329,29.179,4.1421e-4,0,4.1421e-4,0,0.052078,4.5647,28.61,-80.6,9.7884,79.045,0,0,0,27472,4639.2,38.53,0.11202,NaN,224.41,NaN,0.028714,2036304,1067.2,0.0074426,0.6121,0.0095475,0.39297,0.099031,0.12011,NaN,NaN,NaN,NaN,NaN,NaN,NaN,NaN,4.2778e-5,14.016,154.28,81,0,NaN,7.0752,875.43,335.59,2e-3,0.025188
0.034,0.0033305,0.38645,31.147,0.39126,31.536,5.275e-4,0,5.275e-4,0,0.061207,4.9333,28.61,-80.6,9.7884,78.707,0,0,0,27470,4637.9,38.529,0.11202,NaN,224.4,NaN,0.028781,2041050,1131.9,0.008156,0.61193,0.010414,0.3928,0.099031,0.12011,NaN,NaN,NaN,NaN,NaN,NaN,NaN,NaN,5.0278e-5,14.016,154.28,81,0,NaN,7.0752,875.43,335.59,2e-3,0.026468
0.036,0.0041657,0.44875,33.475,0.45434,33.892,6.5978e-4,0,6.5978e-4,0,0.071074,5.3019,28.61,-80.6,9.7884,78.344,0,0,0,27469,4636.6,38.528,0.11202,NaN,224.4,NaN,0.028852,2046068,1196.6,0.0089723,0.61176,0.0114,0.39262,0.099031,0.12011,NaN,NaN,NaN,NaN,NaN,NaN,NaN,NaN,5.8383e-5,14.016,154.28,81,0,NaN,7.0752,875.43,335.59,2e-3,0.027764
0.038,0.0051301,0.5157,35.803,0.52213,36.249,8.1253e-4,0,8.1253e-4,0,0.081679,5.6706,28.61,-80.6,9.7884,77.955,0,0,0,27468,4635.3,38.527,0.11201,NaN,224.4,NaN,0.028926,2051376,1261.2,0.0099036,0.61157,0.012519,0.39243,0.099031,0.12011,NaN,NaN,NaN,NaN,NaN,NaN,NaN,NaN,6.7093e-5,14.016,154.28,81,0,NaN,7.0752,875.43,335.59,2e-3,0.029205
0.04,0.0062331,0.58731,38.131,0.59463,38.606,9.8723e-4,0,9.8723e-4,0,0.09302,6.0393,28.61,-80.6,9.7884,77.541,0,0,0,27467,4634,38.526,0.11201,NaN,224.39,NaN,0.029006,2056992,1325.9,0.010963,0.61137,0.013782,0.39223,0.099031,0.12011,NaN,NaN,NaN,NaN,NaN,NaN,NaN,NaN,7.641e-5,14.016,154.28,81,0,NaN,7.0752,875.43,335.59,2e-3,0.030541
0.042,0.007484,0.66357,40.459,0.67184,40.963,0.0011854,0,0.0011854,0,0.1051,6.408,28.61,-80.6,9.7884,77.102,0,0,0,27465,4632.7,38.525,0.11201,NaN,224.39,NaN,0.029089,2062937,1390.6,0.012165,0.61116,0.015205,0.39202,0.099031,0.12011,NaN,NaN,NaN,NaN,NaN,NaN,NaN,NaN,8.6332e-5,14.016,154.28,81,0,NaN,7.0752,875.43,335.59,2e-3,0.031942
0.044,0.0088921,0.74449,42.787,0.75377,43.321,0.0014084,0,0.0014084,0,0.11792,6.7768,28.61,-80.6,9.7884,76.639,0,0,0,27464,4631.5,38.524,0.11201,NaN,224.38,NaN,0.029178,2069232,1455.3,0.013525,0.61094,0.016803,0.3918,0.099032,0.12011,NaN,NaN,NaN,NaN,NaN,NaN,NaN,NaN,9.686e-5,14.016,154.28,81,0,NaN,7.0751,875.43,335.59,2e-3,0.033321
0.046,0.010467,0.83007,45.116,0.84042,45.678,0.0016578,0,0.0016578,0,0.13147,7.1456,28.61,-80.6,9.7884,76.153,0,0,0,27463,4630.2,38.523,0.11201,NaN,224.38,NaN,0.029272,2075900,1520,0.015062,0.61071,0.018591,0.39157,0.099032,0.12011,NaN,NaN,NaN,NaN,NaN,NaN,NaN,NaN,1.0799e-4,14.016,154.28,81,0,NaN,7.0751,875.43,335.59,2e-3,0.034569
0.048,0.012217,0.92031,47.445,0.93178,48.036,0.001935,0,0.001935,0,0.14576,7.5145,28.61,-80.6,9.7884,75.643,0,0,0,27461,4628.9,38.522,0.11201,NaN,224.38,NaN,0.029372,2082963,1584.6,0.016793,0.61046,0.020588,0.39132,0.099032,0.12011,NaN,NaN,NaN,NaN,NaN,NaN,NaN,NaN,1.1973e-4,14.016,154.28,81,0,NaN,7.0751,875.43,335.59,2e-3,0.035909
0.05,0.014153,1.0152,49.774,1.0279,50.394,0.0022415,0,0.0022415,0,0.16079,7.8834,28.61,-80.6,9.7884,75.11,0,0,0,27460,4627.6,38.522,0.112,NaN,224.37,NaN,0.029477,2090446,1649.3,0.018739,0.6102,0.02281,0.39106,0.099032,0.12011,NaN,NaN,NaN,NaN,NaN,NaN,NaN,NaN,1.3208e-4,14.016,154.28,81,0,NaN,7.0751,875.43,335.59,2e-3,0.037238
0.052,0.016283,1.1148,52.103,1.1286,52.752,0.0025789,0,0.0025789,0,0.17656,8.2523,28.61,-80.6,9.7884,74.543,0,0,0,27459,4626.3,38.521,0.112,NaN,224.37,NaN,0.029537,2094690,1714,0.020897,0.61006,0.025334,0.39091,0.099032,0.12011,NaN,NaN,NaN,NaN,NaN,NaN,NaN,NaN,1.4503e-4,14.016,154.28,81,0,NaN,7.0751,875.43,335.59,2e-3,0.038559
0.054,0.018616,1.219,54.432,1.2342,55.111,0.0029485,0,0.0029485,0,0.19306,8.6212,28.61,-80.6,9.7884,73.952,0,0,0,27457,4625,38.52,0.112,NaN,224.36,NaN,0.029604,2099413,1778.7,0.023315,0.6099,0.028138,0.39075,0.099033,0.12011,NaN,NaN,NaN,NaN,NaN,NaN,NaN,NaN,1.5859e-4,14.016,154.28,81,0,NaN,7.0751,875.43,335.59,2e-3,0.039848
0.056,0.021163,1.3278,56.762,1.3444,57.469,0.0033519,0,0.0033519,0,0.21031,8.9902,28.61,-80.6,9.7884,73.338,0,0,0,27456,4623.7,38.519,0.112,NaN,224.36,NaN,0.029678,2104643,1843.4,0.026019,0.60972,0.031245,0.39057,0.099033,0.12011,NaN,NaN,NaN,NaN,NaN,NaN,NaN,NaN,1.7275e-4,14.016,154.28,81,0,NaN,7.0751,875.43,335.59,2e-3,0.041187
0.058,0.023932,1.4414,59.092,1.4593,59.828,0.0037905,0,0.0037905,0,0.22829,9.3592,28.61,-80.6,9.7884,72.702,0,0,0,27455,4622.4,38.518,0.112,NaN,224.36,NaN,0.029759,2110411,1908,0.029036,0.60952,0.034678,0.39037,0.099033,0.12012,NaN,NaN,NaN,NaN,NaN,NaN,NaN,NaN,1.8752e-4,14.016,154.28,81,0,NaN,7.075,875.43,335.59,2e-3,0.042425
0.06,0.026933,1.5596,61.422,1.579,62.187,0.0042658,0,0.0042658,0,0.24701,9.7282,28.61,-80.6,9.7884,72.043,0,0,0,27454,4621.1,38.517,0.112,NaN,224.35,NaN,0.029848,2116744,1972.7,0.032396,0.60931,0.03846,0.39016,0.099033,0.12012,NaN,NaN,NaN,NaN,NaN,NaN,NaN,NaN,2.029e-4,14.016,154.28,81,0,NaN,7.075,875.43,335.59,2e-3,0.04374
0.062,0.030175,1.6824,63.752,1.7034,64.547,0.0047793,0,0.0047793,0,0.26647,10.097,28.61,-80.6,9.7884,71.363,0,0,0,27452,4619.8,38.516,0.112,NaN,224.35,NaN,0.029946,2123674,2037.4,0.036131,0.60907,0.042614,0.38992,0.099033,0.12012,NaN,NaN,NaN,NaN,NaN,NaN,NaN,NaN,2.1888e-4,14.016,154.28,81,0,NaN,7.075,875.43,335.59,2e-3,0.045246
0.064,0.033667,1.8099,66.082,1.8325,66.906,0.0053324,0,0.0053324,0,0.28666,10.466,28.61,-80.6,9.7884,70.662,0,0,0,27451,4618.5,38.515,0.11199,NaN,224.35,NaN,0.030053,2131232,2102.1,0.040272,0.60882,0.047161,0.38967,0.099033,0.12012,NaN,NaN,NaN,NaN,NaN,NaN,NaN,NaN,2.3547e-4,14.016,154.28,81,0,NaN,7.075,875.43,335.59,2e-3,0.04666
0.066,0.037419,1.9421,68.413,1.9663,69.266,0.0059266,0,0.0059266,0,0.3076,10.836,28.61,-80.6,9.7884,69.941,0,0,0,27450,4617.3,38.514,0.11199,NaN,224.34,NaN,0.030168,2139448,2166.8,0.044854,0.60854,0.052126,0.38939,0.099034,0.12012,NaN,NaN,NaN,NaN,NaN,NaN,NaN,NaN,2.5267e-4,14.016,154.28,81,0,NaN,7.075,875.43,335.59,2e-3,0.047917
0.068,0.04144,2.0789,70.744,2.1048,71.626,0.0065635,0,0.0065635,0,0.32927,11.205,28.61,-80.6,9.7884,69.2,0,0,0,27448,4616,38.513,0.11199,NaN,224.34,NaN,0.030294,2148354,2231.4,0.049916,0.60824,0.057528,0.38909,0.099034,0.12012,NaN,NaN,NaN,NaN,NaN,NaN,NaN,NaN,2.7047e-4,14.016,154.28,81,0,NaN,7.0749,875.42,335.59,2e-3,0.049331
0.07,0.04574,2.2204,73.075,2.2481,73.986,0.0072445,0,0.0072445,0,0.35168,11.574,28.61,-80.6,9.7884,68.442,0,0,0,27447,4614.7,38.512,0.11199,NaN,224.33,NaN,0.03043,2157981,2296.1,0.055494,0.60792,0.063387,0.38877,0.099034,0.12012,NaN,NaN,NaN,NaN,NaN,NaN,NaN,NaN,2.8888e-4,14.016,154.28,81,0,NaN,7.0749,875.42,335.59,2e-3,0.050584
0.072,0.050327,2.3666,75.406,2.3961,76.346,0.007971,0,0.007971,0,0.37483,11.943,28.61,-80.6,9.7884,67.665,0,0,0,27446,4613.4,38.511,0.11199,NaN,224.33,NaN,0.030576,2168363,2360.8,0.061629,0.60758,0.069722,0.38843,0.099035,0.12012,NaN,NaN,NaN,NaN,NaN,NaN,NaN,NaN,3.0789e-4,14.016,154.28,81,0,NaN,7.0749,875.42,335.59,2e-3,0.051829
0.074,0.055211,2.5174,77.738,2.5488,78.707,0.0087445,0,0.0087445,0,0.39871,12.312,28.61,-80.6,9.7884,66.873,0,0,0,27445,4612.1,38.51,0.11199,NaN,224.33,NaN,0.030734,2179531,2425.5,0.068362,0.60722,0.076548,0.38806,0.099035,0.12012,NaN,NaN,NaN,NaN,NaN,NaN,NaN,NaN,3.2752e-4,14.016,154.28,81,0,NaN,7.0748,875.42,335.59,2e-3,0.053076
0.076,0.060401,2.6729,80.069,2.7062,81.067,0.0095666,0,0.0095666,0,0.42334,12.682,28.61,-80.6,9.7884,66.064,0,0,0,27443,4610.8,38.509,0.11198,NaN,224.32,NaN,0.030903,2191516,2490.2,0.075736,0.60682,0.083881,0.38767,0.099035,0.12012,NaN,NaN,NaN,NaN,NaN,NaN,NaN,NaN,3.4774e-4,14.016,154.28,81,0,NaN,7.0748,875.42,335.59,2e-3,0.054316
0.078,0.065907,2.833,82.401,2.8683,83.428,0.010439,0,0.010439,0,0.4487,13.051,28.61,-80.6,9.7884,65.241,0,0,0,27442,4609.5,38.508,0.11198,NaN,224.32,NaN,0.031084,2204350,2554.8,0.083796,0.60641,0.091731,0.38725,0.099036,0.12013,NaN,NaN,NaN,NaN,NaN,NaN,NaN,NaN,3.6858e-4,14.016,154.28,81,0,NaN,7.0748,875.42,335.59,2e-3,0.055595
0.08,0.071738,2.9978,84.733,3.0352,85.789,0.011362,0,0.011362,0,0.47481,13.42,28.61,-80.6,9.7884,64.405,0,0,0,27441,4608.2,38.508,0.11198,NaN,224.31,NaN,0.031277,2218064,2619.5,0.092589,0.60597,0.10011,0.38681,0.099036,0.12013,NaN,NaN,NaN,NaN,NaN,NaN,NaN,NaN,3.9002e-4,14.016,154.28,81,0,NaN,7.0747,875.42,335.59,2e-3,0.05683
0.082,0.077903,3.1673,85.929,3.2068,87,0.012339,0,0.012339,0,0.50165,13.61,28.61,-80.6,9.7884,63.556,0,0,0,27439,4606.9,38.507,0.11198,NaN,224.31,NaN,0.031483,2232690,2652.6,0.10216,0.6055,0.10901,0.38634,0.099037,0.12013,NaN,NaN,NaN,NaN,NaN,NaN,NaN,NaN,4.1207e-4,14.016,154.28,81,0,NaN,7.0747,875.42,335.59,2e-3,0.058036
0.084,0.084409,3.3392,85.991,3.3808,87.063,0.013369,0,0.013369,0,0.52887,13.62,28.61,-80.6,9.7884,62.706,0,0,0,27437,4605,38.505,0.11198,NaN,224.3,NaN,0.0317,2248034,2654.2,0.11242,0.60502,0.11833,0.38585,0.099037,0.12013,NaN,NaN,NaN,NaN,NaN,NaN,NaN,NaN,4.3443e-4,14.016,154.28,81,0,NaN,7.0747,875.42,335.59,2e-3,0.059266
0.086,0.091259,3.5112,86.055,3.5549,87.128,0.014454,0,0.014454,0,0.55611,13.63,28.61,-80.6,9.7884,61.868,0,0,0,27435,4602.3,38.503,0.11197,NaN,224.3,NaN,0.031923,2263878,2655.7,0.12324,0.60453,0.12791,0.38536,0.099038,0.12013,NaN,NaN,NaN,NaN,NaN,NaN,NaN,NaN,4.5681e-4,14.016,154.28,81,0,NaN,7.0746,875.42,335.59,2e-3,0.060474
0.088,0.098454,3.6833,86.119,3.7292,87.193,0.015594,0,0.015594,0,0.58337,13.64,28.61,-80.6,9.7884,61.041,0,0,0,27432,4599.7,38.501,0.11197,NaN,224.29,NaN,0.032154,2280214,2657.2,0.13464,0.60402,0.13775,0.38485,0.099038,0.12013,NaN,NaN,NaN,NaN,NaN,NaN,NaN,NaN,4.792e-4,14.016,154.28,81,0,NaN,7.0746,875.42,335.59,2e-3,0.066286
0.09,0.10599,3.8555,86.183,3.9036,87.258,0.016788,0,0.016788,0,0.61066,13.65,28.61,-80.6,9.7884,60.225,0,0,0,27430,4597,38.499,0.11197,NaN,224.28,NaN,0.032391,2297031,2658.8,0.14661,0.6035,0.1478,0.38433,0.099039,0.12014,NaN,NaN,NaN,NaN,NaN,NaN,NaN,NaN,5.0161e-4,14.016,154.28,81,0,NaN,7.0745,875.42,335.59,2e-3,0.067615
0.092,0.11388,4.0279,86.248,4.0781,87.323,0.018036,0,0.018036,0,0.63796,13.66,28.61,-80.6,9.7884,59.421,0,0,0,27427,4594.4,38.497,0.11197,NaN,224.27,NaN,0.032635,2314321,2660.3,0.15916,0.60298,0.15807,0.3838,0.099039,0.12014,NaN,NaN,NaN,NaN,NaN,NaN,NaN,NaN,5.2404e-4,14.016,154.28,81,0,NaN,7.0745,875.42,335.59,2e-3,0.068922
0.094,0.1221,4.2004,86.312,4.2528,87.388,0.019339,0,0.019339,0,0.66528,13.67,28.61,-80.6,9.7884,58.628,0,0,0,27424,4591.7,38.496,0.11196,NaN,224.26,NaN,0.032885,2332075,2661.9,0.17229,0.60244,0.1685,0.38326,0.09904,0.12014,NaN,NaN,NaN,NaN,NaN,NaN,NaN,NaN,5.4648e-4,14.016,154.28,81,0,NaN,7.0744,875.42,335.59,2e-3,0.070248
0.096,0.13068,4.3731,86.376,4.4276,87.453,0.020697,0,0.020697,0,0.69263,13.681,28.61,-80.6,9.7884,57.847,0,0,0,27422,4589.1,38.494,0.11196,NaN,224.26,NaN,0.033142,2350283,2663.4,0.18599,0.6019,0.1791,0.38272,0.09904,0.12014,NaN,NaN,NaN,NaN,NaN,NaN,NaN,NaN,5.6894e-4,14.016,154.28,81,0,NaN,7.0744,875.42,335.59,2e-3,0.071523
0.098,0.1396,4.5458,86.44,4.6025,87.518,0.02211,0,0.02211,0,0.71999,13.691,28.61,-80.6,9.7884,57.077,0,0,0,27419,4586.5,38.492,0.11196,NaN,224.25,NaN,0.033405,2368935,2664.9,0.20027,0.60135,0.18983,0.38216,0.099041,0.12015,NaN,NaN,NaN,NaN,NaN,NaN,NaN,NaN,5.9142e-4,14.016,154.28,81,0,NaN,7.0743,875.41,335.59,2e-3,0.0728
0.1,0.14886,4.7187,86.504,4.7775,87.582,0.023577,0,0.023577,0,0.74737,13.701,28.61,-80.6,9.7884,56.319,0,0,0,27416,4583.8,38.49,0.11195,NaN,224.24,NaN,0.033674,2388024,2666.5,0.21513,0.60079,0.20067,0.3816,0.099042,0.12015,NaN,NaN,NaN,NaN,NaN,NaN,NaN,NaN,6.1392e-4,14.016,154.28,81,0,NaN,7.0742,875.41,335.59,2e-3,0.074012
0.102,0.15847,4.8918,86.568,4.9527,87.647,0.025099,0,0.025099,0,0.77478,13.711,28.61,-80.6,9.7884,55.587,0,0,0,27414,4581.2,38.488,0.11195,NaN,224.23,NaN,0.033967,2408797,2668,0.23056,0.60019,0.21137,0.381,0.099042,0.12015,NaN,NaN,NaN,NaN,NaN,NaN,NaN,NaN,6.3643e-4,14.016,154.28,81,0,NaN,7.0742,875.41,335.59,2e-3,0.07529
0.104,0.16843,5.0649,86.632,5.128,87.712,0.026676,0,0.026676,0,0.8022,13.721,28.61,-80.6,9.7884,54.866,0,0,0,27411,4578.5,38.486,0.11195,NaN,224.23,NaN,0.034265,2.43e6,2669.5,0.24657,0.59959,0.22212,0.38039,0.099043,0.12015,NaN,NaN,NaN,NaN,NaN,NaN,NaN,NaN,6.5895e-4,14.016,154.28,81,0,NaN,7.0741,875.41,335.59,2e-3,0.076702
0.106,0.17873,5.2382,86.697,5.3035,87.777,0.028308,0,0.028308,0,0.82965,13.731,28.61,-80.6,9.7884,54.158,0,0,0,27408,4575.9,38.484,0.11194,NaN,224.22,NaN,0.03457,2451539,2671.1,0.26314,0.59898,0.2329,0.37978,0.099044,0.12016,NaN,NaN,NaN,NaN,NaN,NaN,NaN,NaN,6.815e-4,14.016,154.28,81,0,NaN,7.074,875.41,335.59,2e-3,0.078141
0.108,0.18938,5.4116,86.761,5.479,87.842,0.029995,0,0.029995,0,0.85711,13.742,28.61,-80.6,9.7884,53.462,0,0,0,27406,4573.2,38.482,0.11194,NaN,224.21,NaN,0.034879,2473491,2672.6,0.28029,0.59836,0.24369,0.37916,0.099044,0.12016,NaN,NaN,NaN,NaN,NaN,NaN,NaN,NaN,7.0406e-4,14.016,154.28,81,0,NaN,7.074,875.41,335.59,2e-3,0.079776
0.11,0.20038,5.5851,86.825,5.6547,87.907,0.031737,0,0.031737,0,0.8846,13.752,28.61,-80.6,9.7884,52.778,0,0,0,27403,4570.6,38.48,0.11194,NaN,224.2,NaN,0.035194,2495818,2674.2,0.29801,0.59775,0.25448,0.37854,0.099045,0.12016,NaN,NaN,NaN,NaN,NaN,NaN,NaN,NaN,7.2664e-4,14.016,154.28,81,0,NaN,7.0739,875.41,335.59,2e-3,0.081255
0.112,0.21172,5.7588,86.889,5.8306,87.972,0.033533,0,0.033533,0,0.9121,13.762,28.61,-80.6,9.7884,52.105,0,0,0,27400,4567.9,38.478,0.11193,NaN,224.19,NaN,0.035514,2518512,2675.7,0.31629,0.59713,0.26524,0.37792,0.099046,0.12016,NaN,NaN,NaN,NaN,NaN,NaN,NaN,NaN,7.4923e-4,14.016,154.28,81,0,NaN,7.0738,875.41,335.59,2e-3,0.08284
0.114,0.22341,5.9326,86.953,6.0065,88.037,0.035385,0,0.035385,0,0.93963,13.772,28.61,-80.6,9.7884,51.444,0,0,0,27398,4565.3,38.476,0.11193,NaN,224.19,NaN,0.035839,2541563,2677.2,0.33513,0.59651,0.27597,0.37729,0.099047,0.12017,NaN,NaN,NaN,NaN,NaN,NaN,NaN,NaN,7.7184e-4,14.016,154.28,81,0,NaN,7.0737,875.41,335.59,2e-3,0.084225
0.116,0.23545,6.1065,87.017,6.1826,88.102,0.037292,0,0.037292,0,0.96718,13.782,28.61,-80.6,9.7884,50.795,0,0,0,27395,4562.7,38.474,0.11193,NaN,224.18,NaN,0.036169,2564964,2678.8,0.35454,0.59588,0.28665,0.37666,0.099048,0.12017,NaN,NaN,NaN,NaN,NaN,NaN,NaN,NaN,7.9447e-4,14.016,154.28,81,0,NaN,7.0737,875.4,335.59,2e-3,0.085631
0.118,0.24784,6.2806,87.081,6.3588,88.166,0.039254,0,0.039254,0,0.99474,13.792,28.61,-80.6,9.7884,50.157,0,0,0,27393,4560,38.473,0.11192,NaN,224.17,NaN,0.036504,2588705,2680.3,0.3745,0.59526,0.29726,0.37603,0.099048,0.12017,NaN,NaN,NaN,NaN,NaN,NaN,NaN,NaN,8.1711e-4,14.016,154.28,81,0,NaN,7.0736,875.4,335.59,2e-3,0.087024
0.12,0.26057,6.4547,87.145,6.5352,88.231,0.041271,0,0.041271,0,1.0223,13.802,28.61,-80.6,9.7884,49.53,0,0,0,27390,4557.4,38.471,0.11192,NaN,224.16,NaN,0.036844,2612780,2681.8,0.39501,0.59463,0.30779,0.3754,0.099049,0.12018,NaN,NaN,NaN,NaN,NaN,NaN,NaN,NaN,8.3977e-4,14.016,154.28,81,0,NaN,7.0735,875.4,335.59,2e-3,0.088341
0.122,0.27366,6.629,87.209,6.7117,88.296,0.043343,0,0.043343,0,1.0499,13.813,28.61,-80.6,9.7884,48.914,0,0,0,27387,4554.7,38.469,0.11192,NaN,224.15,NaN,0.037188,2637179,2683.4,0.41608,0.594,0.31823,0.37477,0.09905,0.12018,NaN,NaN,NaN,NaN,NaN,NaN,NaN,NaN,8.6245e-4,14.016,154.28,81,0,NaN,7.0734,875.4,335.59,2e-3,0.089686
0.124,0.28709,6.8035,87.273,6.8883,88.361,0.045471,0,0.045471,0,1.0776,13.823,28.61,-80.6,9.7884,48.309,0,0,0,27385,4552.1,38.467,0.11191,NaN,224.15,NaN,0.037536,2661896,2684.9,0.43769,0.59337,0.32857,0.37414,0.099051,0.12018,NaN,NaN,NaN,NaN,NaN,NaN,NaN,NaN,8.8514e-4,14.016,154.28,81,0,NaN,7.0733,875.4,335.59,2e-3,0.091308
0.126,0.30087,6.978,87.337,7.065,88.426,0.047654,0,0.047654,0,1.1052,13.833,28.61,-80.6,9.7884,47.715,0,0,0,27382,4549.4,38.465,0.11191,NaN,224.14,NaN,0.037889,2686922,2686.5,0.45984,0.59274,0.33879,0.37351,0.099052,0.12019,NaN,NaN,NaN,NaN,NaN,NaN,NaN,NaN,9.0785e-4,14.016,154.28,81,0,NaN,7.0732,875.4,335.59,2e-3,0.092616
0.128,0.315,7.1527,87.401,7.2419,88.491,0.049892,0,0.049892,0,1.1329,13.843,28.61,-80.6,9.7884,47.132,0,0,0,27379,4546.8,38.463,0.11191,NaN,224.13,NaN,0.038246,2712250,2688,0.48253,0.59212,0.3489,0.37287,0.099053,0.12019,NaN,NaN,NaN,NaN,NaN,NaN,NaN,NaN,9.3058e-4,14.016,154.28,81,0,NaN,7.0732,875.4,335.59,2e-3,0.093874
0.13,0.32948,7.3275,87.465,7.4189,88.555,0.052185,0,0.052185,0,1.1606,13.853,28.61,-80.6,9.7884,46.559,0,0,0,27377,4544.2,38.461,0.1119,NaN,224.12,NaN,0.038608,2737873,2689.5,0.50575,0.59149,0.35888,0.37224,0.099054,0.12019,NaN,NaN,NaN,NaN,NaN,NaN,NaN,NaN,9.5333e-4,14.016,154.28,81,0,NaN,7.0731,875.39,335.59,2e-3,0.095318
0.132,0.34431,7.5025,87.529,7.596,88.62,0.054534,0,0.054534,0,1.1883,13.863,28.61,-80.6,9.7884,45.996,0,0,0,27374,4541.5,38.459,0.1119,NaN,224.11,NaN,0.038973,2763783,2691.1,0.5295,0.59086,0.36872,0.37161,0.099055,0.1202,NaN,NaN,NaN,NaN,NaN,NaN,NaN,NaN,9.7609e-4,14.016,154.28,81,0,NaN,7.073,875.39,335.59,2e-3,0.096745
0.134,0.35949,7.6776,87.593,7.7733,88.685,0.056938,0,0.056938,0,1.216,13.873,28.61,-80.6,9.7884,45.443,0,0,0,27371,4538.9,38.457,0.1119,NaN,224.11,NaN,0.039343,2.79e6,2692.6,0.55378,0.59023,0.37842,0.37097,0.099056,0.1202,NaN,NaN,NaN,NaN,NaN,NaN,NaN,NaN,9.9886e-4,14.016,154.28,81,0,NaN,7.0729,875.39,335.59,2e-3,0.09807
0.136,0.37502,7.8528,87.657,7.9506,88.75,0.059398,0,0.059398,0,1.2438,13.884,28.61,-80.6,9.7884,44.9,0,0,0,27369,4536.2,38.455,0.1119,NaN,224.1,NaN,0.039716,2816440,2694.2,0.57858,0.58961,0.38797,0.37034,0.099057,0.12021,NaN,NaN,NaN,NaN,NaN,NaN,NaN,NaN,0.0010217,14.016,154.28,81,0,NaN,7.0728,875.39,335.58,2e-3,0.099371
0.138,0.3909,8.0281,87.721,8.1282,88.815,0.061913,0,0.061913,0,1.2715,13.894,28.61,-80.6,9.7884,44.367,0,0,0,27366,4533.6,38.453,0.11189,NaN,224.09,NaN,0.040093,2843173,2695.7,0.60389,0.58898,0.39737,0.36971,0.099058,0.12021,NaN,NaN,NaN,NaN,NaN,NaN,NaN,NaN,0.0010445,14.016,154.28,81,0,NaN,7.0727,875.39,335.58,2e-3,0.10067
0.14,0.40714,8.2035,87.785,8.3058,88.879,0.064484,0,0.064484,0,1.2993,13.904,28.61,-80.6,9.7884,43.844,0,0,0,27363,4530.9,38.451,0.11189,NaN,224.08,NaN,0.040474,2870166,2697.2,0.62972,0.58836,0.40661,0.36909,0.099059,0.12021,NaN,NaN,NaN,NaN,NaN,NaN,NaN,NaN,0.0010673,14.016,154.28,81,0,NaN,7.0726,875.39,335.58,2e-3,0.10196
0.142,0.42372,8.3791,87.849,8.4836,88.944,0.06711,0,0.06711,0,1.3271,13.914,28.61,-80.6,9.7884,43.33,0,0,0,27361,4528.3,38.449,0.11189,NaN,224.07,NaN,0.040858,2897415,2698.8,0.65606,0.58774,0.41568,0.36846,0.09906,0.12022,NaN,NaN,NaN,NaN,NaN,NaN,NaN,NaN,0.0010901,14.016,154.28,81,0,NaN,7.0724,875.38,335.58,2e-3,0.10321
0.144,0.44065,8.5548,87.913,8.6615,89.009,0.069793,0,0.069793,0,1.355,13.924,28.61,-80.6,9.7884,42.825,0,0,0,27358,4525.6,38.447,0.11188,NaN,224.07,NaN,0.041246,2924912,2700.3,0.68347,0.58761,0.42494,0.36833,0.099061,0.12022,NaN,NaN,NaN,NaN,NaN,NaN,NaN,NaN,0.001113,14.016,154.28,81,0,NaN,7.0723,875.38,335.58,2e-3,0.10446
0.146,0.45794,8.7307,87.977,8.8395,89.074,0.07253,0,0.07253,0,1.3828,13.934,28.61,-80.6,9.7884,42.33,0,0,0,27355,4523,38.446,0.11188,NaN,224.06,NaN,0.041637,2952652,2701.8,0.71158,0.58761,0.43415,0.36833,0.099063,0.12023,NaN,NaN,NaN,NaN,NaN,NaN,NaN,NaN,0.0011359,14.016,154.28,81,0,NaN,7.0722,875.38,335.58,2e-3,0.1057
0.148,0.47558,8.9066,88.041,9.0177,89.138,0.075324,0,0.075324,0,1.4107,13.944,28.61,-80.6,9.7884,41.843,0,0,0,27353,4520.4,38.444,0.11188,NaN,224.05,NaN,0.042032,2980629,2703.4,0.74025,0.58762,0.4432,0.36832,0.099064,0.12023,NaN,NaN,NaN,NaN,NaN,NaN,NaN,NaN,0.0011588,14.016,154.28,81,0,NaN,7.0721,875.38,335.58,2e-3,0.10694
0.15,0.49357,9.0827,88.105,9.196,89.203,0.078173,0,0.078173,0,1.4386,13.954,28.61,-80.6,9.7884,41.365,0,0,0,27350,4517.7,38.442,0.11187,NaN,224.04,NaN,0.042429,3008838,2704.9,0.76947,0.58762,0.4521,0.36832,0.099065,0.12023,NaN,NaN,NaN,NaN,NaN,NaN,NaN,NaN,0.0011817,14.016,154.28,81,0,NaN,7.072,875.38,335.58,2e-3,0.10825
0.152,0.51191,9.259,88.169,9.3744,89.268,0.081078,0,0.081078,0,1.4665,13.965,28.61,-80.6,9.7884,40.864,0,0,0,27348,4515.1,38.44,0.11187,NaN,224.03,NaN,0.042802,3035254,2706.5,0.7992,0.58763,0.46143,0.36832,0.099066,0.12024,NaN,NaN,NaN,NaN,NaN,NaN,NaN,NaN,0.0012046,14.016,154.28,81,0,NaN,7.0719,875.37,335.58,2e-3,0.10965
0.154,0.5306,9.4353,88.233,9.5529,89.332,0.084039,0,0.084039,0,1.4944,13.975,28.61,-80.6,9.7884,40.371,0,0,0,27345,4512.4,38.438,0.11187,NaN,224.03,NaN,0.043178,3061920,2708,0.82947,0.58763,0.4706,0.36832,0.099067,0.12024,NaN,NaN,NaN,NaN,NaN,NaN,NaN,NaN,0.0012276,14.016,154.28,81,0,NaN,7.0718,875.37,335.58,2e-3,0.11159
0.156,0.54965,9.6118,88.296,9.7316,89.397,0.087056,0,0.087056,0,1.5224,13.985,28.61,-80.6,9.7884,39.886,0,0,0,27342,4509.8,38.436,0.11186,NaN,224.02,NaN,0.043558,3088829,2709.5,0.86027,0.58763,0.47961,0.36832,0.099068,0.12025,NaN,NaN,NaN,NaN,NaN,NaN,NaN,NaN,0.0012505,14.016,154.28,81,0,NaN,7.0716,875.37,335.58,2e-3,0.11323
0.158,0.56905,9.7884,88.36,9.9104,89.462,0.090128,0,0.090128,0,1.5503,13.995,28.61,-80.6,9.7884,39.409,0,0,0,27340,4507.1,38.434,0.11186,NaN,224.01,NaN,0.043941,3115977,2711.1,0.8916,0.58764,0.48845,0.36832,0.099069,0.12025,NaN,NaN,NaN,NaN,NaN,NaN,NaN,NaN,0.0012735,14.016,154.28,81,0,NaN,7.0715,875.37,335.58,2e-3,0.11448
0.16,0.5888,9.9651,88.424,10.089,89.526,0.093257,0,0.093257,0,1.5783,14.005,28.61,-80.6,9.7884,38.94,0,0,0,27337,4504.5,38.432,0.11186,NaN,224,NaN,0.044327,3143358,2712.6,0.92345,0.58764,0.49712,0.36832,0.099071,0.12026,NaN,NaN,NaN,NaN,NaN,NaN,NaN,NaN,0.0012965,14.016,154.28,81,0,NaN,7.0714,875.37,335.58,2e-3,0.1158
0.162,0.60891,10.142,88.488,10.268,89.591,0.096442,0,0.096442,0,1.6063,14.015,28.61,-80.6,9.7884,38.479,0,0,0,27334,4501.9,38.43,0.11185,NaN,223.99,NaN,0.044716,3170967,2714.1,0.95582,0.58765,0.50562,0.36832,0.099072,0.12026,NaN,NaN,NaN,NaN,NaN,NaN,NaN,NaN,0.0013195,14.016,154.28,81,0,NaN,7.0712,875.36,335.58,2e-3,0.11709
0.164,0.62937,10.319,88.552,10.448,89.656,0.099682,0,0.099682,0,1.6344,14.025,28.61,-80.6,9.7884,38.026,0,0,0,27332,4499.2,38.428,0.11185,NaN,223.99,NaN,0.045109,3198799,2715.7,0.9887,0.58765,0.51396,0.36831,0.099073,0.12026,NaN,NaN,NaN,NaN,NaN,NaN,NaN,NaN,0.0013425,14.016,154.28,81,0,NaN,7.0711,875.36,335.58,2e-3,0.11839
0.166,0.65019,10.496,88.616,10.627,89.72,0.10298,0,0.10298,0,1.6624,14.035,28.61,-80.6,9.7884,37.58,0,0,0,27329,4496.6,38.426,0.11185,NaN,223.98,NaN,0.045504,3226849,2717.2,1.0221,0.58766,0.52212,0.36831,0.099074,0.12027,NaN,NaN,NaN,NaN,NaN,NaN,NaN,NaN,0.0013656,14.016,154.28,81,0,NaN,7.071,875.36,335.58,2e-3,0.11968
0.168,0.67135,10.673,88.68,10.806,89.785,0.10633,0,0.10633,0,1.6905,14.045,28.61,-80.6,9.7884,37.141,0,0,0,27326,4493.9,38.424,0.11184,NaN,223.97,NaN,0.045903,3255113,2718.8,1.056,0.58766,0.5301,0.36831,0.099076,0.12027,NaN,NaN,NaN,NaN,NaN,NaN,NaN,NaN,0.0013886,14.016,154.28,81,0,NaN,7.0708,875.36,335.58,2e-3,0.12095
0.17,0.69288,10.851,88.744,10.986,89.85,0.10974,0,0.10974,0,1.7186,14.056,28.61,-80.6,9.7884,36.71,0,0,0,27324,4491.3,38.422,0.11184,NaN,223.96,NaN,0.046305,3283585,2720.3,1.0904,0.58767,0.53792,0.36831,0.099077,0.12028,NaN,NaN,NaN,NaN,NaN,NaN,NaN,NaN,0.0014117,14.016,154.28,81,0,NaN,7.0707,875.36,335.58,2e-3,0.12223
0.172,0.71476,11.028,88.807,11.166,89.914,0.11321,0,0.11321,0,1.7467,14.066,28.61,-80.6,9.7884,36.286,0,0,0,27321,4488.6,38.42,0.11184,NaN,223.95,NaN,0.046709,3312263,2721.8,1.1253,0.58767,0.54556,0.36831,0.099078,0.12028,NaN,NaN,NaN,NaN,NaN,NaN,NaN,NaN,0.0014348,14.016,154.28,81,0,NaN,7.0706,875.35,335.58,2e-3,0.12348
0.174,0.73699,11.206,88.871,11.346,89.979,0.11673,0,0.11673,0,1.7748,14.076,28.61,-80.6,9.7884,35.87,0,0,0,27318,4486,38.419,0.11183,NaN,223.95,NaN,0.047116,3341140,2723.4,1.1607,0.58768,0.55303,0.36831,0.09908,0.12029,NaN,NaN,NaN,NaN,NaN,NaN,NaN,NaN,0.0014579,14.016,154.28,81,0,NaN,7.0704,875.35,335.58,2e-3,0.12473
0.176,0.75958,11.384,88.935,11.526,90.044,0.12031,0,0.12031,0,1.803,14.086,28.61,-80.6,9.7884,35.46,0,0,0,27316,4483.3,38.417,0.11183,NaN,223.94,NaN,0.047527,3370213,2724.9,1.1965,0.58768,0.56033,0.36831,0.099081,0.12029,NaN,NaN,NaN,NaN,NaN,NaN,NaN,NaN,0.001481,14.016,154.28,81,0,NaN,7.0703,875.35,335.58,2e-3,0.12606
0.178,0.78253,11.562,88.999,11.706,90.108,0.12394,0,0.12394,0,1.8312,14.096,28.61,-80.6,9.7884,35.056,0,0,0,27313,4480.7,38.415,0.11183,NaN,223.93,NaN,0.047939,3399478,2726.5,1.2329,0.58769,0.56746,0.36831,0.099082,0.1203,NaN,NaN,NaN,NaN,NaN,NaN,NaN,NaN,0.0015042,14.016,154.28,81,0,NaN,7.0701,875.35,335.58,2e-3,0.12725
0.18,0.80583,11.74,89.063,11.886,90.173,0.12763,0,0.12763,0,1.8594,14.106,28.61,-80.6,9.7884,34.66,0,0,0,27311,4478.1,38.413,0.11183,NaN,223.92,NaN,0.048355,3428931,2728,1.2697,0.58769,0.57441,0.3683,0.099084,0.1203,NaN,NaN,NaN,NaN,NaN,NaN,NaN,NaN,0.0015273,14.016,154.28,81,0,NaN,7.07,875.34,335.58,2e-3,0.12868
0.182,0.82948,11.918,89.127,12.066,90.238,0.13138,0,0.13138,0,1.8876,14.116,28.61,-80.6,9.7884,34.27,0,0,0,27308,4475.4,38.411,0.11182,NaN,223.91,NaN,0.048773,3458568,2729.5,1.307,0.5877,0.5812,0.3683,0.099085,0.12031,NaN,NaN,NaN,NaN,NaN,NaN,NaN,NaN,0.0015505,14.016,154.28,81,0,NaN,7.0698,875.34,335.58,2e-3,0.13002
0.184,0.8535,12.096,89.19,12.247,90.302,0.13518,0,0.13518,0,1.9158,14.126,28.61,-80.6,9.7884,33.886,0,0,0,27305,4472.8,38.409,0.11182,NaN,223.91,NaN,0.049193,3488385,2731.1,1.3448,0.5877,0.58782,0.3683,0.099087,0.12031,NaN,NaN,NaN,NaN,NaN,NaN,NaN,NaN,0.0015737,14.016,154.28,81,0,NaN,7.0697,875.34,335.58,2e-3,0.1312
0.186,0.87787,12.274,89.254,12.427,90.367,0.13904,0,0.13904,0,1.9441,14.136,28.61,-80.6,9.7884,33.509,0,0,0,27303,4470.1,38.407,0.11182,NaN,223.9,NaN,0.049617,3518378,2732.6,1.3831,0.58771,0.59427,0.3683,0.099088,0.12032,NaN,NaN,NaN,NaN,NaN,NaN,NaN,NaN,0.0015969,14.016,154.28,81,0,NaN,7.0695,875.34,335.58,2e-3,0.13237
0.188,0.9026,12.453,89.318,12.608,90.431,0.14296,0,0.14296,0,1.9723,14.147,28.61,-80.6,9.7884,33.137,0,0,0,27300,4467.5,38.405,0.11181,NaN,223.89,NaN,0.050042,3548543,2734.1,1.4218,0.58771,0.60056,0.3683,0.099089,0.12033,NaN,NaN,NaN,NaN,NaN,NaN,NaN,NaN,0.0016201,14.016,154.28,81,0,NaN,7.0693,875.33,335.58,2e-3,0.13359
0.19,0.92768,12.631,89.382,12.789,90.496,0.14693,0,0.14693,0,2.0006,14.157,28.61,-80.6,9.7884,32.772,0,0,0,27297,4464.8,38.403,0.11181,NaN,223.88,NaN,0.05047,3578878,2735.7,1.461,0.58772,0.60669,0.3683,0.099091,0.12033,NaN,NaN,NaN,NaN,NaN,NaN,NaN,NaN,0.0016434,14.016,154.28,81,0,NaN,7.0692,875.33,335.58,2e-3,0.13479
0.192,0.95312,12.81,89.446,12.97,90.561,0.15096,0,0.15096,0,2.0289,14.167,28.61,-80.6,9.7884,32.413,0,0,0,27295,4462.2,38.401,0.11181,NaN,223.87,NaN,0.0509,3609379,2737.2,1.5006,0.58772,0.61266,0.36829,0.099093,0.12034,NaN,NaN,NaN,NaN,NaN,NaN,NaN,NaN,0.0016666,14.016,154.28,81,0,NaN,7.069,875.33,335.58,2e-3,0.13614
0.194,0.97892,12.989,89.509,13.151,90.625,0.15505,0,0.15505,0,2.0573,14.177,28.61,-80.6,9.7884,32.059,0,0,0,27292,4459.5,38.399,0.1118,NaN,223.87,NaN,0.051333,3.64e6,2738.8,1.5406,0.58773,0.61847,0.36829,0.099094,0.12034,NaN,NaN,NaN,NaN,NaN,NaN,NaN,NaN,0.0016899,14.016,154.28,81,0,NaN,7.0688,875.32,335.58,2e-3,0.13741
0.196,1.0051,13.168,89.573,13.332,90.69,0.15919,0,0.15919,0,2.0856,14.187,28.61,-80.6,9.7884,31.712,0,0,0,27289,4456.9,38.397,0.1118,NaN,223.86,NaN,0.051768,3670864,2740.3,1.5812,0.58774,0.62412,0.36829,0.099096,0.12035,NaN,NaN,NaN,NaN,NaN,NaN,NaN,NaN,0.0017132,14.016,154.28,81,0,NaN,7.0687,875.32,335.58,2e-3,0.13869
0.198,1.0316,13.347,89.637,13.514,90.754,0.16339,0,0.16339,0,2.114,14.197,28.61,-80.6,9.7884,31.369,0,0,0,27287,4454.3,38.395,0.1118,NaN,223.85,NaN,0.052205,3701843,2741.8,1.6221,0.58774,0.62961,0.36829,0.099097,0.12035,NaN,NaN,NaN,NaN,NaN,NaN,NaN,NaN,0.0017365,14.016,154.28,81,0,NaN,7.0685,875.32,335.58,2e-3,0.13992
0.2,1.0585,13.527,89.701,13.695,90.819,0.16764,0,0.16764,0,2.1424,14.207,28.61,-80.6,9.7884,31.033,0,0,0,27284,4451.6,38.393,0.11179,NaN,223.84,NaN,0.052644,3732974,2743.4,1.6635,0.58775,0.63496,0.36829,0.099099,0.12036,NaN,NaN,NaN,NaN,NaN,NaN,NaN,NaN,0.0017598,14.016,154.28,81,0,NaN,7.0683,875.32,335.58,2e-3,0.14117
0.202,1.0857,13.706,89.765,13.877,90.883,0.17196,0,0.17196,0,2.1708,14.217,28.61,-80.6,9.7884,30.681,0,0,0,27281,4449,38.391,0.11179,NaN,223.83,NaN,0.053069,3763134,2744.9,1.7052,0.58775,0.64047,0.36829,0.0991,0.12037,NaN,NaN,NaN,NaN,NaN,NaN,NaN,NaN,0.0017832,14.016,154.28,81,0,NaN,7.0681,875.31,335.58,2e-3,0.14242
0.204,1.1133,13.886,89.828,14.059,90.948,0.17633,0,0.17633,0,2.1993,14.227,28.61,-80.6,9.7884,30.334,0,0,0,27279,4446.3,38.389,0.11179,NaN,223.83,NaN,0.053497,3793458,2746.4,1.7473,0.58776,0.64582,0.36828,0.099102,0.12037,NaN,NaN,NaN,NaN,NaN,NaN,NaN,NaN,0.0018065,14.016,154.28,81,0,NaN,7.068,875.31,335.58,2e-3,0.14364
0.206,1.1412,14.065,89.892,14.241,91.013,0.18076,0,0.18076,0,2.2277,14.238,28.61,-80.6,9.7884,29.993,0,0,0,27276,4443.7,38.388,0.11178,NaN,223.82,NaN,0.053927,3823941,2748,1.7898,0.58776,0.65102,0.36828,0.099104,0.12038,NaN,NaN,NaN,NaN,NaN,NaN,NaN,NaN,0.0018299,14.016,154.28,81,0,NaN,7.0678,875.31,335.58,2e-3,0.14486
0.208,1.1696,14.245,89.956,14.423,91.077,0.18524,0,0.18524,0,2.2562,14.248,28.61,-80.6,9.7884,29.657,0,0,0,27274,4441,38.386,0.11178,NaN,223.81,NaN,0.054359,3854581,2749.5,1.8327,0.58777,0.65607,0.36828,0.099105,0.12038,NaN,NaN,NaN,NaN,NaN,NaN,NaN,NaN,0.0018533,14.016,154.28,81,0,NaN,7.0676,875.3,335.58,2e-3,0.14646
0.21,1.1982,14.425,90.02,14.605,91.142,0.18978,0,0.18978,0,2.2847,14.258,28.61,-80.6,9.7884,29.326,0,0,0,27271,4438.4,38.384,0.11178,NaN,223.8,NaN,0.054794,3885375,2751.1,1.876,0.58778,0.66096,0.36828,0.099107,0.12039,NaN,NaN,NaN,NaN,NaN,NaN,NaN,NaN,0.0018767,14.016,154.28,81,0,NaN,7.0674,875.3,335.58,2e-3,0.14762
0.212,1.2273,14.605,90.083,14.787,91.206,0.19438,0,0.19438,0,2.3132,14.268,28.61,-80.6,9.7884,29,0,0,0,27268,4435.8,38.382,0.11177,NaN,223.79,NaN,0.05523,3916320,2752.6,1.9196,0.58778,0.6657,0.36828,0.099109,0.1204,NaN,NaN,NaN,NaN,NaN,NaN,NaN,NaN,0.0019001,14.016,154.28,81,0,NaN,7.0672,875.3,335.58,2e-3,0.14878
0.214,1.2566,14.785,90.147,14.97,91.271,0.19903,0,0.19903,0,2.3418,14.278,28.61,-80.6,9.7884,28.68,0,0,0,27266,4433.1,38.38,0.11177,NaN,223.79,NaN,0.055669,3947413,2754.1,1.9637,0.58779,0.6703,0.36828,0.09911,0.1204,NaN,NaN,NaN,NaN,NaN,NaN,NaN,NaN,0.0019236,14.016,154.28,81,0,NaN,7.067,875.3,335.58,2e-3,0.15
0.216,1.2864,14.966,90.211,15.152,91.335,0.20374,0,0.20374,0,2.3703,14.288,28.61,-80.6,9.7884,28.363,0,0,0,27263,4430.5,38.378,0.11177,NaN,223.78,NaN,0.056109,3978652,2755.7,2.0082,0.5878,0.67475,0.36827,0.099112,0.12041,NaN,NaN,NaN,NaN,NaN,NaN,NaN,NaN,0.001947,14.016,154.28,81,0,NaN,7.0668,875.29,335.58,2e-3,0.1512
0.218,1.3165,15.146,90.275,15.335,91.4,0.20851,0,0.20851,0,2.3989,14.298,28.61,-80.6,9.7884,28.052,0,0,0,27260,4427.8,38.376,0.11177,NaN,223.77,NaN,0.056552,4.01e6,2757.2,2.053,0.5878,0.67906,0.36827,0.099114,0.12042,NaN,NaN,NaN,NaN,NaN,NaN,NaN,NaN,0.0019705,14.016,154.28,81,0,NaN,7.0666,875.29,335.58,2e-3,0.15237
0.22,1.347,15.327,90.339,15.518,91.465,0.21334,0,0.21334,0,2.4275,14.308,28.61,-80.6,9.7884,27.745,0,0,0,27258,4425.2,38.374,0.11176,NaN,223.76,NaN,0.056997,4041557,2758.8,2.0982,0.58781,0.68323,0.36827,0.099116,0.12042,NaN,NaN,NaN,NaN,NaN,NaN,NaN,NaN,0.001994,14.016,154.28,81,0,NaN,7.0664,875.29,335.58,2e-3,0.1536
0.222,1.3778,15.507,90.402,15.701,91.529,0.21822,0,0.21822,0,2.4561,14.318,28.61,-80.6,9.7884,27.443,0,0,0,27255,4422.5,38.372,0.11176,NaN,223.75,NaN,0.057444,4073218,2760.3,2.1438,0.58781,0.68726,0.36827,0.099117,0.12043,NaN,NaN,NaN,NaN,NaN,NaN,NaN,NaN,0.0020175,14.016,154.28,81,0,NaN,7.0662,875.28,335.58,2e-3,0.15481
0.224,1.409,15.688,90.466,15.884,91.594,0.22317,0,0.22317,0,2.4847,14.328,28.61,-80.6,9.7884,27.146,0,0,0,27252,4419.9,38.37,0.11176,NaN,223.75,NaN,0.057892,4105014,2761.8,2.1897,0.58782,0.69116,0.36827,0.099119,0.12044,NaN,NaN,NaN,NaN,NaN,NaN,NaN,NaN,0.002041,14.016,154.28,81,0,NaN,7.066,875.28,335.58,2e-3,0.1561
0.226,1.4406,15.869,90.53,16.067,91.658,0.22816,0,0.22816,0,2.5134,14.339,28.61,-80.6,9.7884,26.853,0,0,0,27250,4417.2,38.368,0.11175,NaN,223.74,NaN,0.058343,4136943,2763.4,2.2361,0.58783,0.69492,0.36826,0.099121,0.12044,NaN,NaN,NaN,NaN,NaN,NaN,NaN,NaN,0.0020646,14.016,154.28,81,0,NaN,7.0658,875.28,335.58,2e-3,0.15735
0.228,1.4725,16.05,90.594,16.25,91.723,0.23322,0,0.23322,0,2.5421,14.349,28.61,-80.6,9.7884,26.564,0,0,0,27247,4414.6,38.366,0.11175,NaN,223.73,NaN,0.058795,4169003,2764.9,2.2827,0.58783,0.69856,0.36826,0.099123,0.12045,NaN,NaN,NaN,NaN,NaN,NaN,NaN,NaN,0.0020881,14.016,154.28,81,0,NaN,7.0656,875.27,335.58,2e-3,0.15862
0.23,1.5048,16.231,90.657,16.434,91.787,0.23833,0,0.23833,0,2.5708,14.359,28.61,-80.6,9.7884,26.279,0,0,0,27244,4412,38.364,0.11175,NaN,223.72,NaN,0.059249,4201191,2766.4,2.3298,0.58784,0.70207,0.36826,0.099125,0.12046,NaN,NaN,NaN,NaN,NaN,NaN,NaN,NaN,0.0021117,14.016,154.28,81,0,NaN,7.0654,875.27,335.58,2e-3,0.15981
0.232,1.5374,16.413,90.721,16.617,91.852,0.2435,0,0.2435,0,2.5995,14.369,28.61,-80.6,9.7884,25.999,0,0,0,27242,4409.3,38.362,0.11174,NaN,223.71,NaN,0.059705,4233506,2768,2.3772,0.58785,0.70545,0.36826,0.099127,0.12046,NaN,NaN,NaN,NaN,NaN,NaN,NaN,NaN,0.0021353,14.016,154.28,81,0,NaN,7.0652,875.27,335.58,2e-3,0.16101
0.234,1.5704,16.594,90.785,16.801,91.917,0.24873,0,0.24873,0,2.6282,14.379,28.61,-80.6,9.7884,25.722,0,0,0,27239,4406.7,38.36,0.11174,NaN,223.71,NaN,0.060163,4265945,2769.5,2.4249,0.58786,0.70871,0.36826,0.099128,0.12047,NaN,NaN,NaN,NaN,NaN,NaN,NaN,NaN,0.0021589,14.016,154.28,81,0,NaN,7.065,875.26,335.58,2e-3,0.16242
0.236,1.6038,16.776,90.849,16.985,91.981,0.25401,0,0.25401,0,2.657,14.389,28.61,-80.6,9.7884,25.45,0,0,0,27237,4404,38.358,0.11174,NaN,223.7,NaN,0.060622,4298506,2771.1,2.473,0.58786,0.71185,0.36825,0.09913,0.12048,NaN,NaN,NaN,NaN,NaN,NaN,NaN,NaN,0.0021825,14.016,154.28,81,0,NaN,7.0648,875.26,335.58,2e-3,0.16363
0.238,1.6375,16.957,90.912,17.169,92.046,0.25936,0,0.25936,0,2.6858,14.399,28.61,-80.6,9.7884,25.182,0,0,0,27234,4401.4,38.356,0.11173,NaN,223.69,NaN,0.061083,4331187,2772.6,2.5214,0.58787,0.71488,0.36825,0.099132,0.12049,NaN,NaN,NaN,NaN,NaN,NaN,NaN,NaN,0.0022062,14.016,154.28,81,0,NaN,7.0646,875.25,335.58,2e-3,0.16482
0.24,1.6716,17.139,90.976,17.353,92.11,0.26476,0,0.26476,0,2.7146,14.409,28.61,-80.6,9.7884,24.917,0,0,0,27231,4398.7,38.355,0.11173,NaN,223.68,NaN,0.061546,4363986,2774.1,2.5701,0.58788,0.71778,0.36825,0.099134,0.12049,NaN,NaN,NaN,NaN,NaN,NaN,NaN,NaN,0.0022298,14.016,154.28,81,0,NaN,7.0643,875.25,335.58,2e-3,0.16611
0.242,1.7061,17.321,91.04,17.537,92.175,0.27022,0,0.27022,0,2.7434,14.419,28.61,-80.6,9.7884,24.657,0,0,0,27229,4396.1,38.353,0.11173,NaN,223.67,NaN,0.06201,4396901,2775.7,2.6192,0.58788,0.72058,0.36825,0.099136,0.1205,NaN,NaN,NaN,NaN,NaN,NaN,NaN,NaN,0.0022535,14.016,154.28,81,0,NaN,7.0641,875.25,335.58,2e-3,0.16737
0.244,1.7409,17.503,91.104,17.721,92.239,0.27573,0,0.27573,0,2.7722,14.429,28.61,-80.6,9.7884,24.4,0,0,0,27226,4393.5,38.351,0.11172,NaN,223.67,NaN,0.062476,4429930,2777.2,2.6686,0.58789,0.72327,0.36825,0.099138,0.12051,NaN,NaN,NaN,NaN,NaN,NaN,NaN,NaN,0.0022772,14.016,154.28,81,0,NaN,7.0639,875.24,335.58,2e-3,0.16857
0.246,1.7761,17.685,91.167,17.906,92.304,0.2813,0,0.2813,0,2.8011,14.44,28.61,-80.6,9.7884,24.146,0,0,0,27223,4390.8,38.349,0.11172,NaN,223.66,NaN,0.062944,4463071,2778.7,2.7184,0.5879,0.72585,0.36824,0.09914,0.12052,NaN,NaN,NaN,NaN,NaN,NaN,NaN,NaN,0.0023009,14.016,154.28,81,0,NaN,7.0637,875.24,335.58,2e-3,0.1696
0.248,1.8116,17.868,91.226,18.091,92.364,0.28694,0,0.28694,0,2.83,14.449,28.61,-80.6,9.7884,23.897,0,0,0,27221,4388.2,38.347,0.11172,NaN,223.65,NaN,0.063413,4496323,2780.2,2.7684,0.58791,0.72832,0.36824,0.099143,0.12052,NaN,NaN,NaN,NaN,NaN,NaN,NaN,NaN,0.0023246,14.016,154.28,81,0,NaN,7.0634,875.24,335.58,2e-3,0.17038
0.25,1.8476,18.05,91.257,18.275,92.394,0.29262,0,0.29262,0,2.8589,14.454,28.61,-80.6,9.7884,23.651,0,0,0,27218,4385.5,38.345,0.11171,NaN,223.64,NaN,0.063884,4529682,2780.8,2.8188,0.58791,0.73069,0.36824,0.099145,0.12053,NaN,NaN,NaN,NaN,NaN,NaN,NaN,NaN,0.0023484,14.016,154.28,81,0,NaN,7.0632,875.23,335.58,2e-3,0.17111
0.252,1.8838,18.233,91.283,18.46,92.42,0.29837,0,0.29837,0,2.8878,14.458,28.61,-80.6,9.7884,23.446,0,0,0,27215,4382.8,38.343,0.11171,NaN,223.63,NaN,0.064383,4565032,2781.3,2.8705,0.58792,0.73262,0.36824,0.099147,0.12054,NaN,NaN,NaN,NaN,NaN,NaN,NaN,NaN,0.0023721,14.016,154.28,81,0,NaN,7.063,875.23,335.58,2e-3,0.17199
0.254,1.9205,18.415,91.308,18.645,92.447,0.30418,0,0.30418,0,2.9167,14.462,28.61,-80.6,9.7884,23.244,0,0,0,27213,4380.1,38.341,0.11171,NaN,223.62,NaN,0.064882,4600449,2781.7,2.9226,0.58793,0.73447,0.36823,0.099149,0.12055,NaN,NaN,NaN,NaN,NaN,NaN,NaN,NaN,0.0023959,14.016,154.28,81,0,NaN,7.0627,875.22,335.58,2e-3,0.17318
0.256,1.9575,18.598,91.334,18.83,92.473,0.31004,0,0.31004,0,2.9456,14.466,28.61,-80.6,9.7884,23.045,0,0,0,27210,4377.3,38.339,0.1117,NaN,223.62,NaN,0.065383,4635932,2782.2,2.9751,0.58794,0.73624,0.36823,0.099151,0.12056,NaN,NaN,NaN,NaN,NaN,NaN,NaN,NaN,0.0024196,14.016,154.28,81,0,NaN,7.0625,875.22,335.58,2e-3,0.17441
0.258,1.9949,18.781,91.36,19.015,92.499,0.31596,0,0.31596,0,2.9746,14.47,28.61,-80.6,9.7884,22.849,0,0,0,27207,4374.6,38.337,0.1117,NaN,223.61,NaN,0.065884,4671480,2782.7,3.0279,0.58795,0.73795,0.36823,0.099154,0.12056,NaN,NaN,NaN,NaN,NaN,NaN,NaN,NaN,0.0024434,14.016,154.28,81,0,NaN,7.0622,875.22,335.58,2e-3,0.17572
0.26,2.0326,18.963,91.386,19.2,92.525,0.32194,0,0.32194,0,3.0035,14.474,28.61,-80.6,9.7884,22.656,0,0,0,27204,4371.9,38.335,0.1117,NaN,223.6,NaN,0.066387,4707092,2783.2,3.081,0.58796,0.73958,0.36823,0.099156,0.12057,NaN,NaN,NaN,NaN,NaN,NaN,NaN,NaN,0.0024672,14.016,154.28,81,0,NaN,7.062,875.21,335.58,2e-3,0.17698
0.262,2.0707,19.146,91.411,19.385,92.551,0.32797,0,0.32797,0,3.0325,14.478,28.61,-80.6,9.7884,22.465,0,0,0,27202,4369.2,38.333,0.11169,NaN,223.59,NaN,0.06689,4742766,2783.7,3.1345,0.58797,0.74114,0.36822,0.099158,0.12058,NaN,NaN,NaN,NaN,NaN,NaN,NaN,NaN,0.002491,14.016,154.28,81,0,NaN,7.0617,875.21,335.58,2e-3,0.17819
0.264,2.1092,19.329,91.437,19.57,92.577,0.33407,0,0.33407,0,3.0614,14.482,28.61,-80.6,9.7884,22.278,0,0,0,27199,4366.4,38.331,0.11169,NaN,223.58,NaN,0.067395,4778502,2784.2,3.1884,0.58797,0.74264,0.36822,0.099161,0.12059,NaN,NaN,NaN,NaN,NaN,NaN,NaN,NaN,0.0025148,14.016,154.28,81,0,NaN,7.0615,875.2,335.58,2e-3,0.17973
0.266,2.1481,19.512,91.463,19.755,92.603,0.34022,0,0.34022,0,3.0904,14.486,28.61,-80.6,9.7884,22.093,0,0,0,27196,4363.7,38.329,0.11169,NaN,223.57,NaN,0.0679,4814297,2784.6,3.2426,0.58798,0.74407,0.36822,0.099163,0.1206,NaN,NaN,NaN,NaN,NaN,NaN,NaN,NaN,0.0025385,14.016,154.28,81,0,NaN,7.0612,875.2,335.58,2e-3,0.18113
0.268,2.1873,19.695,91.489,19.94,92.629,0.34643,0,0.34643,0,3.1194,14.49,28.61,-80.6,9.7884,21.911,0,0,0,27193,4361,38.327,0.11168,NaN,223.57,NaN,0.068406,4850152,2785.1,3.2971,0.58799,0.74545,0.36822,0.099166,0.12061,NaN,NaN,NaN,NaN,NaN,NaN,NaN,NaN,0.0025623,14.016,154.28,81,0,NaN,7.061,875.2,335.58,2e-3,0.18245
0.27,2.2268,19.878,91.514,20.126,92.655,0.3527,0,0.3527,0,3.1484,14.494,28.61,-80.6,9.7884,21.732,0,0,0,27191,4358.3,38.325,0.11168,NaN,223.56,NaN,0.068912,4886065,2785.6,3.352,0.588,0.74676,0.36821,0.099168,0.12062,NaN,NaN,NaN,NaN,NaN,NaN,NaN,NaN,0.0025862,14.016,154.28,81,0,NaN,7.0607,875.19,335.58,2e-3,0.18376
0.272,2.2668,20.061,91.54,20.311,92.681,0.35902,0,0.35902,0,3.1773,14.499,28.61,-80.6,9.7884,21.555,0,0,0,27188,4355.5,38.323,0.11168,NaN,223.55,NaN,0.06942,4922035,2786.1,3.4073,0.58801,0.74801,0.36821,0.09917,0.12063,NaN,NaN,NaN,NaN,NaN,NaN,NaN,NaN,0.00261,14.016,154.28,81,0,NaN,7.0605,875.19,335.58,2e-3,0.1851
0.274,2.3071,20.244,91.566,20.496,92.707,0.36541,0,0.36541,0,3.2063,14.503,28.61,-80.6,9.7884,21.381,0,0,0,27185,4352.8,38.321,0.11168,NaN,223.54,NaN,0.069928,4958061,2786.6,3.4628,0.58802,0.7492,0.36821,0.099173,0.12064,NaN,NaN,NaN,NaN,NaN,NaN,NaN,NaN,0.0026338,14.016,154.28,81,0,NaN,7.0602,875.18,335.58,2e-3,0.18639
0.276,2.3478,20.427,91.591,20.682,92.733,0.37185,0,0.37185,0,3.2354,14.507,28.61,-80.6,9.7884,21.209,0,0,0,27183,4350.1,38.319,0.11167,NaN,223.53,NaN,0.070437,4994143,2787.1,3.5188,0.58803,0.75034,0.36821,0.099175,0.12064,NaN,NaN,NaN,NaN,NaN,NaN,NaN,NaN,0.0026576,14.016,154.28,81,0,NaN,7.0599,875.18,335.58,2e-3,0.18763
0.278,2.3888,20.61,91.617,20.867,92.759,0.37835,0,0.37835,0,3.2644,14.511,28.61,-80.6,9.7884,21.039,0,0,0,27180,4347.4,38.317,0.11167,NaN,223.52,NaN,0.070947,5030278,2787.6,3.575,0.58804,0.75142,0.3682,0.099178,0.12065,NaN,NaN,NaN,NaN,NaN,NaN,NaN,NaN,0.0026815,14.016,154.28,81,0,NaN,7.0597,875.17,335.58,2e-3,0.18898
0.28,2.4302,20.794,91.612,21.053,92.785,0.3849,0,0.3849,0,3.2934,14.709,28.61,-80.6,9.7884,20.872,0,0,0,27177,4344.6,38.315,0.11167,222.41,223.52,-0.07897,0.071458,5066467,2788.2,3.6316,0.58805,0.75245,0.3682,0.099181,0.12066,7.4992,-1.4671,-1.0394e-4,0,0,0,0,0,0.0027053,14.016,154.28,81,0,NaN,7.0594,875.17,335.58,3e-3,0.19047
0.283,2.493,21.069,91.654,21.331,92.826,0.39485,0,0.39485,1.5083e-7,3.3375,14.704,28.61,-80.6,9.7884,20.627,0,-0.0039147,0,27174,4341.2,38.312,0.11166,222.63,223.51,-0.062708,0.072226,5120889,2789.1,3.7172,0.58806,0.75389,0.3682,0.099184,0.12068,7.402,-1.0925,-1.1995e-5,0,0,0,0,-7.3797e-8,0.0027411,14.016,154.28,81,0,NaN,7.059,875.16,335.58,0.0045,0.19174
0.2875,2.5887,21.481,91.717,21.749,92.888,0.41002,6.5383e-9,0.41002,9.1366e-7,3.4037,14.697,28.61,-80.6,9.7884,20.269,0,-0.0077628,0,27169,4336.1,38.308,0.11165,222.95,223.49,-0.038475,0.073381,5202730,2790.4,3.8469,0.58808,0.75585,0.36819,0.09919,0.1207,7.2616,-0.54854,-2.9884e-4,0,0,0,0,-2.8113e-7,0.0027948,14.016,154.28,81,0,NaN,7.0584,875.15,335.58,0.00675,0.19301
0.29425,2.7358,22.1,91.811,22.376,92.979,0.43333,2.3829e-8,0.43333,3.1507e-6,3.5028,14.692,28.61,-80.6,9.7884,19.752,0,-0.0091718,-1.248e-6,27161,4328.4,38.303,0.11165,223.43,223.47,-0.0024962,0.07512,5325939,2792.5,4.0447,0.58811,0.75835,0.36818,0.099199,0.12073,7.0274,-0.01749,-4.4004e-4,0,0,0,0,-3.7449e-7,0.0028754,14.016,154.28,81,2.4955e-8,NaN,7.0574,875.14,335.58,0.01,0.19433
0.30425,2.9614,23.019,91.947,23.306,93.115,0.46909,6.9976e-8,0.46909,8.547e-6,3.6497,14.703,28.61,-80.6,9.7884,18.964,0,-0.0071619,-2.4609e-6,27150,4317,38.294,0.11163,224.2,223.43,0.054509,0.077663,5506134,2794.9,4.3405,0.58816,0.76141,0.36817,0.099213,0.12078,6.6205,0.36115,4.2645e-4,0,0,0,0,-2.1363e-7,0.0029949,14.016,154.28,81,9.0509e-8,NaN,7.056,875.11,335.57,0.01,0.19578
0.31425,3.1962,23.939,92.075,24.238,93.245,0.50632,1.4152e-7,0.50632,1.6014e-5,3.7968,14.724,28.61,-80.6,9.7884,18.139,0,-2.7826e-4,-4.4922e-6,27136,4303.4,38.284,0.11162,225.04,223.39,0.11744,0.080163,5683237,2797.3,4.6375,0.58822,0.76358,0.36815,0.099227,0.12084,6.2051,0.72879,-3.6434e-4,0,0,0,0,0,0.0031146,14.016,154.28,81,9.0509e-8,NaN,7.0544,875.09,335.57,0.01,0.19709
0.32425,3.4402,24.86,92.203,25.171,93.375,0.54503,2.3944e-7,0.54503,2.5171e-5,3.9441,14.746,28.61,-80.6,9.7884,17.364,0,0.011544,-1.7273e-6,27122,4289.8,38.274,0.1116,225.87,223.35,0.17977,0.082682,5861698,2799.7,4.9402,0.58827,0.76463,0.36814,0.099241,0.12089,5.824,1.0469,3.9998e-4,0,0,0,0,4.8972e-7,0.0032345,14.016,154.28,81,9.0509e-8,NaN,7.0528,875.06,335.57,0.01,0.19839
0.33425,3.6934,25.782,92.331,26.105,93.505,0.58521,3.6472e-7,0.58521,3.5708e-5,4.0916,14.768,28.61,-80.6,9.7884,16.634,0,0.028241,-3.9382e-6,27109,4276.1,38.264,0.11158,226.69,223.31,0.24146,0.085219,6041419,2802.1,5.2474,0.58832,0.76458,0.36812,0.099256,0.12094,5.4736,1.3213,3.4558e-4,0,0,0,0,2.759e-6,0.0033545,14.016,154.28,81,2.6729e-7,NaN,7.0512,875.04,335.57,0.01,0.19967
0.34425,3.9558,26.706,92.459,27.04,93.635,0.62686,5.1834e-7,0.62686,4.7377e-5,4.2394,14.791,28.61,-80.6,9.7884,15.946,0,0.049751,-3.9677e-6,27095,4262.5,38.254,0.11157,227.5,223.26,0.30247,0.087773,6222317,2804.6,5.5546,0.58838,0.76294,0.36811,0.099271,0.121,5.1508,1.5579,2.9429e-4,0,0,0,0,8.0712e-6,0.0034747,14.016,154.28,81,5.3484e-7,NaN,7.0495,875.01,335.57,0.01,0.2009
0.35425,4.2275,27.631,92.588,27.977,93.765,0.66999,7.0131e-7,0.66999,5.9973e-5,4.3873,14.805,28.61,-80.6,9.7884,15.352,0,0.075962,-4.493e-6,27081,4248.9,38.244,0.11155,228.24,223.22,0.35773,0.090382,6407163,2807,5.8693,0.58844,0.76031,0.36809,0.099288,0.12106,4.8785,1.7452,-3.4583e-4,0,0,0,0,1.7745e-5,0.0035951,14.016,154.28,80.999,8.1971e-7,NaN,7.0477,874.98,335.57,0.01,0.20218
0.36425,4.5085,28.557,92.719,28.915,93.894,0.71461,9.1459e-7,0.71461,7.333e-5,4.5354,14.809,28.61,-80.6,9.7884,14.864,0,0.10641,-2.8881e-6,27068,4235.3,38.234,0.11153,228.86,223.18,0.40524,0.093058,6596680,2809.4,6.1979,0.5885,0.75739,0.36807,0.099305,0.12113,4.6593,1.8886,3.2081e-5,0,0,0,0,3.2849e-5,0.0037157,14.016,154.28,80.998,1.0475e-6,NaN,7.0459,874.95,335.57,0.01,0.20339
0.37425,4.7987,29.485,92.849,29.854,94.023,0.7607,1.1592e-6,0.7607,8.7308e-5,4.6834,14.814,28.61,-80.6,9.7884,14.403,0,0.14104,-6.696e-7,27054,4221.6,38.223,0.11152,229.47,223.14,0.45176,0.095744,6786890,2811.8,6.5314,0.58857,0.75403,0.36805,0.099323,0.12119,4.4555,2.0123,-6.8501e-5,0,0,0,0,5.4514e-5,0.0038364,14.016,154.28,80.997,1.186e-6,NaN,7.044,874.92,335.57,0.01,0.20462
0.38425,5.0982,30.414,92.979,30.795,94.153,0.80828,1.436e-6,0.80828,1.0179e-4,4.8316,14.819,28.61,-80.6,9.7884,13.965,0,0.17984,0,27040,4208,38.213,0.1115,230.07,223.1,0.49733,0.098439,6977756,2814.3,6.8704,0.58863,0.75035,0.36803,0.099341,0.12126,4.2655,2.1217,-3.5109e-4,0,0,0,0,8.385e-5,0.0039572,14.016,154.28,80.995,1.2295e-6,NaN,7.0421,874.89,335.57,0.01,0.20587
0.39425,5.4069,31.344,93.109,31.737,94.282,0.85733,1.7461e-6,0.85733,1.1669e-4,4.9797,14.826,28.61,-80.6,9.7884,13.55,0,0.22284,3.9412e-6,27027,4194.4,38.203,0.11148,230.65,223.05,0.54198,0.10114,7169248,2816.7,7.215,0.5887,0.74645,0.36801,0.09936,0.12133,4.0881,2.2151,-2.6801e-4,0,0,0,0,1.2195e-4,0.0040783,14.016,154.28,80.993,1.1259e-6,NaN,7.0401,874.85,335.57,0.01,0.20708
0.40425,5.725,32.275,93.238,32.68,94.411,0.90787,2.0905e-6,0.90787,1.3193e-4,5.128,14.833,28.61,-80.6,9.7884,13.156,0,0.27005,6.9039e-6,27013,4180.7,38.193,0.11147,231.22,223.01,0.58563,0.10386,7361390,2819.1,7.5659,0.58877,0.7424,0.36799,0.099379,0.1214,3.9225,2.2967,-3.8707e-4,0,0,0,0,1.6985e-4,0.0041995,14.016,154.28,80.991,7.7738e-7,NaN,7.038,874.82,335.56,0.01,0.20826
0.41425,6.0525,33.208,93.354,33.625,94.526,0.95989,2.4699e-6,0.95989,1.4743e-4,5.2763,14.838,28.61,-80.6,9.7884,12.782,0,0.32146,6.683e-7,27000,4167.1,38.183,0.11145,231.78,222.97,0.62829,0.10658,7554170,2821.1,7.9232,0.58885,0.73827,0.36797,0.099399,0.12148,3.7678,2.3672,2.8015e-4,0,0,0,0,2.2855e-4,0.0043209,14.016,154.28,80.988,5.5717e-7,NaN,7.0359,874.79,335.56,0.01,0.20948
0.42425,6.3892,34.142,93.445,34.57,94.616,1.0134,2.8855e-6,1.0134,1.6314e-4,5.4247,14.841,28.61,-80.6,9.7884,12.426,0,0.37708,1.8949e-6,26986,4153.4,38.173,0.11144,232.32,222.93,0.67012,0.10931,7747468,2822.5,8.287,0.58892,0.73411,0.36795,0.09942,0.12155,3.6225,2.4269,1.0166e-4,0,0,0,0,2.9897e-4,0.0044424,14.016,154.28,80.984,5.6713e-7,NaN,7.0337,874.75,335.56,0.01,0.21069
0.43425,6.7353,35.077,93.534,35.517,94.705,1.0684,3.3382e-6,1.0684,1.7902e-4,5.5731,14.845,28.61,-80.6,9.7884,12.085,0,0.43693,3.3389e-6,26972,4139.6,38.162,0.11142,232.85,222.88,0.71117,0.11205,7941210,2823.8,8.6574,0.589,0.72993,0.36793,0.099441,0.12163,3.4859,2.4789,1.634e-4,0,0,0,0,3.8203e-4,0.004564,14.016,154.28,80.98,6.259e-7,NaN,7.0314,874.71,335.56,0.01,0.21191
0.44425,7.0907,36.012,93.623,36.464,94.794,1.1249,3.8288e-6,1.1249,1.9503e-4,5.7216,14.85,28.61,-80.6,9.7884,11.76,0,0.501,3.3349e-6,26958,4125.9,38.152,0.1114,233.37,222.84,0.75144,0.11479,8135375,2825.2,9.0344,0.58908,0.72578,0.3679,0.099463,0.12171,3.3572,2.5222,-2.6422e-4,0,0,0,0,4.7856e-4,0.0046857,14.016,154.28,80.976,6.8584e-7,NaN,7.0291,874.67,335.56,0.01,0.21316
0.45425,7.4556,36.949,93.713,37.412,94.882,1.1828,4.3585e-6,1.1828,2.1113e-4,5.8701,14.853,28.61,-80.6,9.7884,11.467,0,0.56929,5.1191e-6,26945,4112.1,38.142,0.11139,233.85,222.8,0.78874,0.11756,8330972,2826.5,9.4241,0.58916,0.72193,0.36788,0.099486,0.1218,3.2431,2.5577,-2.6819e-4,0,0,0,0,5.8921e-4,0.0048076,14.016,154.28,80.97,6.7908e-7,NaN,7.0267,874.64,335.56,0.01,0.21444
0.46425,7.8297,37.887,93.802,38.362,94.97,1.2423,4.9281e-6,1.2423,2.2729e-4,6.0186,14.851,28.61,-80.6,9.7884,11.212,0,0.64177,4.8416e-6,26931,4098.3,38.131,0.11137,234.28,222.76,0.82235,0.12034,8528299,2827.8,9.829,0.58925,0.7185,0.36786,0.099509,0.12188,3.1447,2.5855,2.6993e-4,0,0,0,0,7.145e-4,0.0049296,14.016,154.28,80.964,5.7633e-7,NaN,7.0243,874.6,335.56,0.01,0.21565
0.47425,8.2133,38.825,93.891,39.312,95.058,1.3032,5.5385e-6,1.3032,2.435e-4,6.1671,14.852,28.61,-80.6,9.7884,10.967,0,0.71846,1.5139e-6,26917,4084.5,38.121,0.11135,234.7,222.71,0.85531,0.12314,8725939,2829.2,10.242,0.58934,0.71513,0.36783,0.099533,0.12197,3.0512,2.6092,-2.95e-4,0,0,0,0,8.5531e-4,0.0050517,14.016,154.28,80.957,7.3737e-7,NaN,7.0218,874.56,335.55,0.01,0.21685
0.48425,8.6062,39.764,93.98,40.263,95.146,1.3656,6.1906e-6,1.3656,2.5974e-4,6.3156,14.853,28.61,-80.6,9.7884,10.731,0,0.7994,-1.98e-6,26903,4070.7,38.111,0.11134,235.11,222.67,0.88766,0.12593,8923881,2830.5,10.663,0.58942,0.71184,0.36781,0.099557,0.12206,2.9623,2.6289,-2.594e-4,0,0,0,0,0.0010124,0.0051739,14.016,154.28,80.95,1.0647e-6,NaN,7.0193,874.51,335.55,0.01,0.21806
0.49425,9.0086,40.704,94.068,41.215,95.234,1.4295,6.8856e-6,1.4295,2.7598e-4,6.4641,14.857,28.61,-80.6,9.7884,10.503,0,0.8846,2.1399e-6,26889,4056.9,38.1,0.11132,235.51,222.63,0.91943,0.12874,9122118,2831.8,11.092,0.58952,0.70863,0.36778,0.099582,0.12215,2.8777,2.6444,4.86e-4,0,0,0,0,0.0011863,0.0052962,14.016,154.28,80.941,1.5567e-6,NaN,7.0166,874.47,335.55,0.01,0.21939
0.50425,9.4203,41.646,94.154,42.167,95.322,1.4949,7.6242e-6,1.4949,2.9222e-4,6.6127,14.877,28.61,-80.6,9.7884,10.222,0,0.97411,-9.8054e-7,26876,4043.2,38.09,0.1113,236.02,222.58,0.95863,0.13149,9317111,2833.2,11.505,0.58961,0.70456,0.36775,0.099607,0.12225,2.7743,2.6579,-4.2899e-4,0,0,0,0,0.0013788,0.0054186,14.016,154.28,80.932,2.0888e-6,NaN,7.014,874.43,335.55,0.01,0.22074
0.51425,9.8415,42.587,94.238,43.121,95.411,1.5618,8.4073e-6,1.5618,3.0844e-4,6.7617,14.92,28.61,-80.6,9.7884,9.8696,0,1.0678,-2.5952e-6,26862,4029.4,38.079,0.11129,236.67,222.54,1.0081,0.13419,9507783,2834.5,11.892,0.5897,0.69935,0.36773,0.099632,0.12234,2.6464,2.6667,-3.1787e-4,0,0,0,0,0.0015909,0.0055411,14.016,154.28,80.922,2.7237e-6,NaN,7.0112,874.38,335.55,0.01,0.222
0.52425,10.272,43.53,94.321,44.075,95.501,1.6301,9.2361e-6,1.6301,3.2463e-4,6.9111,14.965,28.61,-80.6,9.7884,9.5295,0,1.1655,-3.0165e-6,26848,4015.6,38.069,0.11127,237.31,222.5,1.0572,0.13689,9698958,2835.8,12.286,0.58979,0.69426,0.3677,0.099658,0.12244,2.5252,2.6681,1.3303e-4,0,0,0,0,0.0018213,0.0056638,14.016,154.28,80.911,3.6721e-6,NaN,7.0084,874.34,335.55,0.01,0.22332
0.53425,10.712,44.474,94.404,45.031,95.59,1.7,1.0111e-5,1.7,3.4079e-4,7.061,15.012,28.61,-80.6,9.7884,9.2013,0,1.2671,3.499e-7,26834,4001.8,38.059,0.11125,237.95,222.45,1.1058,0.1396,9890616,2837.2,12.685,0.58989,0.6893,0.36767,0.099684,0.12253,2.4102,2.6632,3.3297e-4,0,0,0,0,0.0020699,0.0057865,14.016,154.28,80.899,4.7279e-6,NaN,7.0056,874.29,335.54,0.01,0.22458
0.54425,11.162,45.418,94.486,45.987,95.679,1.7713,1.1034e-5,1.7713,3.5691e-4,7.2113,15.062,28.61,-80.6,9.7884,8.8844,0,1.3725,-7.0926e-6,26821,3988,38.048,0.11124,238.58,222.41,1.1539,0.14232,10082740,2838.5,13.091,0.58999,0.68449,0.36764,0.099711,0.12263,2.3011,2.6528,2.6612e-4,0,0,0,0,0.0023366,0.0059094,14.016,154.28,80.885,6.0756e-6,NaN,7.0026,874.24,335.54,0.01,0.226
0.55425,11.62,46.363,94.569,46.944,95.767,1.8442,1.2005e-5,1.8442,3.7298e-4,7.3622,15.1,28.61,-80.6,9.7884,8.6322,0,1.4815,-5.5679e-6,26807,3974.2,38.038,0.11122,239.1,222.37,1.1938,0.14509,10278414,2839.8,13.528,0.59009,0.68067,0.36761,0.099739,0.12274,2.2155,2.6426,3.4532e-4,0,0,0,0,0.0026197,0.0060324,14.016,154.28,80.871,7.7978e-6,NaN,6.9997,874.19,335.54,0.01,0.22724
0.56425,12.089,47.309,94.653,47.902,95.853,1.9186,1.3026e-5,1.9186,3.89e-4,7.5133,15.121,28.61,-80.6,9.7884,8.4596,0,1.5945,0,26793,3960.5,38.027,0.1112,239.46,222.32,1.2225,0.14792,10478582,2841.2,14.008,0.5902,0.6781,0.36758,0.099768,0.12284,2.1576,2.6353,2.5334e-4,0,0,0,0,0.0029195,0.0061555,14.016,154.28,80.856,9.4344e-6,NaN,6.9966,874.14,335.54,0.01,0.22846
0.57425,12.567,48.256,94.736,48.861,95.939,1.9945,1.4097e-5,1.9945,4.0497e-4,7.6646,15.144,28.61,-80.6,9.7884,8.2918,0,1.7116,-1.0789e-5,26779,3946.7,38.017,0.11119,239.81,222.28,1.2509,0.15076,10678986,2842.5,14.496,0.59031,0.6756,0.36755,0.099798,0.12295,2.1019,2.6256,-3.6485e-4,0,0,0,0,0.0032387,0.0062788,14.016,154.28,80.839,1.1209e-5,NaN,6.9935,874.09,335.54,0.01,0.23001
0.58425,13.054,49.204,94.796,49.821,96.001,2.0719,1.5219e-5,2.0719,4.2087e-4,7.8161,15.166,28.61,-80.6,9.7884,8.1283,0,1.8328,-5.2192e-6,26765,3932.9,38.006,0.11117,240.16,222.24,1.279,0.1536,1.088e7,2843.2,14.992,0.59042,0.67317,0.36752,0.099828,0.12307,2.0481,2.6163,-2.4569e-4,0,0,0,0,0.0035775,0.0064021,14.016,154.28,80.821,1.3372e-5,NaN,6.9903,874.04,335.54,0.01,0.23142
0.59425,13.551,50.152,94.839,50.781,96.048,2.1508,1.6394e-5,2.1508,4.3672e-4,7.9679,15.189,28.61,-80.6,9.7884,7.9689,0,1.958,-2.4931e-6,26752,3919.1,37.996,0.11115,240.51,222.19,1.3068,0.15644,1.108e7,2843.5,15.496,0.59053,0.67082,0.36749,0.099859,0.12318,1.9961,2.6047,4.7672e-4,0,0,0,0,0.0039362,0.0065255,14.016,154.28,80.802,1.5453e-5,NaN,6.9871,873.99,335.53,0.01,0.23273
0.60425,14.057,51.101,94.883,51.742,96.094,2.2312,1.7622e-5,2.2312,4.5251e-4,8.1199,15.205,28.61,-80.6,9.7884,7.8422,0,2.0874,6.672e-6,26738,3905.2,37.985,0.11114,240.79,222.15,1.3299,0.15931,11283126,2843.8,16.025,0.59065,0.66898,0.36745,0.099891,0.1233,1.9552,2.5963,1.9532e-4,0,0,0,0,0.0043139,0.006649,14.016,154.28,80.782,1.7459e-5,NaN,6.9838,873.93,335.53,0.01,0.23405
0.61425,14.573,52.05,94.928,52.703,96.139,2.3132,1.8904e-5,2.3132,4.6824e-4,8.272,15.213,28.61,-80.6,9.7884,7.7562,0,2.2213,1.5411e-5,26724,3891.4,37.975,0.11112,240.98,222.11,1.3467,0.16221,11488273,2844,16.584,0.59076,0.66778,0.36742,0.099924,0.12342,1.9276,2.5915,-4.4144e-4,0,0,0,0,0.0047118,0.0067725,14.016,154.28,80.761,1.9074e-5,NaN,6.9805,873.88,335.53,0.01,0.23715
