# Time (s),Altitude (m),Vertical velocity (m/s),Vertical acceleration (m/s²),Total velocity (m/s),Total acceleration (m/s²),Position East of launch (m),Position North of launch (m),Lateral distance (m),Lateral direction (°),Lateral velocity (m/s),Lateral acceleration (m/s²),Latitude (°),Longitude (°),Gravitational acceleration (m/s²),Angle of attack (°),Roll rate (°/s),Pitch rate (°/s),Yaw rate (°/s),Mass (g),Propellant mass (g),Longitudinal moment of inertia (kg·m²),Rotational moment of inertia (kg·m²),CP location (cm),CG location (cm),Stability margin calibers (?),Mach number (?),Reynolds number (?),Thrust (N),Drag force (N),Drag coefficient (?),Axial drag coefficient (?),Friction drag coefficient (?),Pressure drag coefficient (?),Base drag coefficient (?),Normal force coefficient (?),Pitch moment coefficient (?),Yaw moment coefficient (?),Side force coefficient (?),Roll moment coefficient (?),Roll forcing coefficient (?),Roll damping coefficient (?),Pitch damping coefficient (?),Coriolis acceleration (m/s²),Reference length (cm),Reference area (cm²),Vertical orientation (zenith) (°),Lateral orientation (azimuth) (°),Wind velocity (m/s),Air temperature (°C),Air pressure (mbar),Speed of sound (m/s),Simulation time step (s),Computation time (s)
0,0,0,-8.1487,0,8.2503,0,0,0,0,0,1.2906,28.61,-80.6,9.7884,81,0,0,0,34210,9765.2,39.658,0.12011,NaN,231.03,NaN,0.0065348,463426,48.497,2.6667e-4,0.74686,0.0066049,0.52785,0.099003,0.12001,NaN,NaN,NaN,NaN,NaN,NaN,NaN,NaN,0,14.016,154.28,81,0,NaN,7.0752,875.43,335.59,2e-3,0.0015395
2e-3,0,0,-5.3484,0,5.4151,0,0,0,0,0,0.84711,28.61,-80.6,9.7884,81,0,0,0,34210,9765.2,39.658,0.12011,NaN,231.03,NaN,0.0065387,463708,145.49,2.6697e-4,0.74679,0.0066043,0.52778,0.099003,0.12001,NaN,NaN,NaN,NaN,NaN,NaN,NaN,NaN,0,14.016,154.28,81,0,NaN,7.0752,875.43,335.59,2e-3,0.0020305
4e-3,0,0,-2.5476,0,2.5794,0,0,0,0,0,0.4035,28.61,-80.6,9.7884,81,0,0,0,34208,9762.8,39.657,0.12011,NaN,231.03,NaN,0.0065427,463989,242.49,2.6727e-4,0.74672,0.0066037,0.52771,0.099003,0.12001,NaN,NaN,NaN,NaN,NaN,NaN,NaN,NaN,0,14.016,154.28,81,0,NaN,7.0752,875.43,335.59,2e-3,0.0023782
6e-3,0,0,0.25358,0,0.25674,0,0,0,0,0,0.040162,28.61,-80.6,9.7884,81,0,0,0,34206,9760.4,39.656,0.1201,NaN,231.02,NaN,0.0065467,464271,339.48,2.6757e-4,0.74665,0.0066031,0.52765,0.099003,0.12001,NaN,NaN,NaN,NaN,NaN,NaN,NaN,NaN,0,14.016,154.28,81,0,NaN,7.0752,875.43,335.59,2e-3,0.0026742
8e-3,5.0807e-7,5.083e-4,3.0552,5.1464e-4,3.0933,8.0471e-8,0,8.0471e-8,0,8.0507e-5,0.48389,28.61,-80.6,9.7884,80.987,0,0,0,34203,9758,39.655,0.1201,NaN,231.02,NaN,0.0065509,464570,436.47,2.6903e-4,0.74658,0.0066306,0.52757,0.099003,0.12001,NaN,NaN,NaN,NaN,NaN,NaN,NaN,NaN,6.6131e-8,14.016,154.28,81,0,NaN,7.0752,875.43,335.59,2e-3,0.0030925
0.01,7.6362e-6,0.0066201,5.8572,0.0067026,5.9302,1.2095e-6,0,1.2095e-6,0,0.0010485,0.92768,28.61,-80.6,9.7884,80.828,0,0,0,34201,9755.6,39.654,0.1201,NaN,231.02,NaN,0.0065578,465058,533.47,2.8357e-4,0.74646,0.0069743,0.52745,0.099003,0.12001,NaN,NaN,NaN,NaN,NaN,NaN,NaN,NaN,8.6129e-7,14.016,154.28,81,0,NaN,7.0752,875.43,335.59,2e-3,0.0036463
0.012,3.2592e-5,0.018336,8.6595,0.018565,8.7675,5.1621e-6,0,5.1621e-6,0,0.0029042,1.3715,28.61,-80.6,9.7884,80.523,0,0,0,34198,9753.2,39.653,0.12009,NaN,231.01,NaN,0.0065675,465746,630.46,3.1252e-4,0.7463,0.0076635,0.52729,0.099003,0.12001,NaN,NaN,NaN,NaN,NaN,NaN,NaN,NaN,2.3856e-6,14.016,154.28,81,0,NaN,7.0752,875.43,335.59,2e-3,0.0041973
0.014,8.6585e-5,0.035657,11.462,0.036102,11.605,1.3714e-5,0,1.3714e-5,0,0.0056476,1.8155,28.61,-80.6,9.7884,80.075,0,0,0,34196,9750.7,39.652,0.12009,NaN,231.01,NaN,0.0065802,466652,727.46,3.5848e-4,0.74608,0.0087565,0.52707,0.099003,0.12001,NaN,NaN,NaN,NaN,NaN,NaN,NaN,NaN,4.6391e-6,14.016,154.28,81,0,NaN,7.0752,875.43,335.59,2e-3,0.0047125
0.016,1.8083e-4,0.058585,14.265,0.059315,14.443,2.864e-5,0,2.864e-5,0,0.0092789,2.2594,28.61,-80.6,9.7884,79.484,0,0,0,34194,9748.3,39.651,0.12009,NaN,231,NaN,0.0065965,467804,824.45,4.2549e-4,0.7458,0.010342,0.52679,0.099003,0.12001,NaN,NaN,NaN,NaN,NaN,NaN,NaN,NaN,7.622e-6,14.016,154.28,81,0,NaN,7.0752,875.43,335.59,2e-3,0.0051542
0.018,3.2653e-4,0.087118,17.069,0.088204,17.282,5.1717e-5,0,5.1717e-5,0,0.013798,2.7035,28.61,-80.6,9.7884,78.751,0,0,0,34191,9745.9,39.65,0.12009,NaN,231,NaN,0.0066167,469238,921.45,5.1921e-4,0.74545,0.012543,0.52644,0.099003,0.12001,NaN,NaN,NaN,NaN,NaN,NaN,NaN,NaN,1.1334e-5,14.016,154.28,81,0,NaN,7.0752,875.43,335.59,2e-3,0.005637
0.02,5.3491e-4,0.12126,19.873,0.12277,20.121,8.4721e-5,0,8.4721e-5,0,0.019206,3.1476,28.61,-80.6,9.7884,77.881,0,0,0,34189,9743.5,39.649,0.12008,NaN,231,NaN,0.0066415,470999,1018.4,6.4717e-4,0.74503,0.015518,0.52602,0.099003,0.12001,NaN,NaN,NaN,NaN,NaN,NaN,NaN,NaN,1.5776e-5,14.016,154.28,81,0,NaN,7.0752,875.43,335.59,2e-3,0.0061263
0.022,8.1717e-4,0.16101,22.677,0.16302,22.96,1.2943e-4,0,1.2943e-4,0,0.025501,3.5917,28.61,-80.6,9.7884,76.876,0,0,0,34186,9741.1,39.648,0.12008,NaN,230.99,NaN,0.0066717,473138,1115.4,8.1907e-4,0.74452,0.019462,0.52551,0.099003,0.12001,NaN,NaN,NaN,NaN,NaN,NaN,NaN,NaN,2.0948e-5,14.016,154.28,81,0,NaN,7.0752,875.43,335.59,2e-3,0.0066395
0.024,0.0011846,0.20637,25.482,0.20894,25.8,1.8761e-4,0,1.8761e-4,0,0.032685,4.036,28.61,-80.6,9.7884,75.74,0,0,0,34184,9738.7,39.647,0.12008,NaN,230.99,NaN,0.0067081,475716,1212.4,0.001047,0.74391,0.024609,0.5249,0.099003,0.12001,NaN,NaN,NaN,NaN,NaN,NaN,NaN,NaN,2.6849e-5,14.016,154.28,81,0,NaN,7.0752,875.43,335.59,2e-3,0.0076478
0.026,0.0016483,0.25734,28.287,0.26054,28.64,2.6106e-4,0,2.6106e-4,0,0.040758,4.4803,28.61,-80.6,9.7884,74.478,0,0,0,34182,9736.3,39.646,0.12007,NaN,230.99,NaN,0.0067515,478799,1309.4,0.0013457,0.74318,0.031224,0.52417,0.099003,0.12001,NaN,NaN,NaN,NaN,NaN,NaN,NaN,NaN,3.348e-5,14.016,154.28,81,0,NaN,7.0752,875.43,335.59,2e-3,0.0081577
0.028,0.0022195,0.31391,31.093,0.31783,31.48,3.5153e-4,0,3.5153e-4,0,0.049719,4.9246,28.61,-80.6,9.7884,73.097,0,0,0,34179,9733.9,39.645,0.12007,NaN,230.98,NaN,0.0068031,482458,1406.4,0.0017328,0.74233,0.039599,0.52332,0.099003,0.12001,NaN,NaN,NaN,NaN,NaN,NaN,NaN,NaN,4.0841e-5,14.016,154.28,81,0,NaN,7.0752,875.43,335.59,2e-3,0.0086265
0.03,0.0029095,0.37611,33.899,0.38079,34.321,4.6082e-4,0,4.6082e-4,0,0.059569,5.369,28.61,-80.6,9.7884,71.603,0,0,0,34177,9731.5,39.645,0.12007,NaN,230.98,NaN,0.006864,486772,1503.4,0.0022291,0.74133,0.050041,0.52232,0.099004,0.12001,NaN,NaN,NaN,NaN,NaN,NaN,NaN,NaN,4.8932e-5,14.016,154.28,81,0,NaN,7.0752,875.43,335.59,2e-3,0.0090538
0.032,0.0037295,0.44391,36.705,0.44944,37.163,5.907e-4,0,5.907e-4,0,0.070308,5.8135,28.61,-80.6,9.7884,70.004,0,0,0,34174,9729.1,39.644,0.12007,NaN,230.97,NaN,0.0069351,491819,1600.4,0.0028581,0.74018,0.062852,0.52117,0.099004,0.12001,NaN,NaN,NaN,NaN,NaN,NaN,NaN,NaN,5.7753e-5,14.016,154.28,81,0,NaN,7.0752,875.43,335.59,2e-3,0.0095276
0.034,0.0046908,0.51732,39.512,0.52377,40.004,7.4294e-4,0,7.4294e-4,0,0.081936,6.258,28.61,-80.6,9.7884,68.311,0,0,0,34172,9726.7,39.643,0.12006,NaN,230.97,NaN,0.0070178,497685,1697.4,0.0036467,0.73887,0.078315,0.51986,0.099004,0.12001,NaN,NaN,NaN,NaN,NaN,NaN,NaN,NaN,6.7305e-5,14.016,154.28,81,0,NaN,7.0752,875.43,335.59,2e-3,0.010002
0.036,0.0058044,0.59635,42.319,0.60379,42.846,9.1933e-4,0,9.1933e-4,0,0.094453,6.7026,28.61,-80.6,9.7884,66.533,0,0,0,34170,9724.3,39.642,0.12006,NaN,230.97,NaN,0.0071133,504451,1794.4,0.0046245,0.73738,0.096667,0.51837,0.099004,0.12001,NaN,NaN,NaN,NaN,NaN,NaN,NaN,NaN,7.7587e-5,14.016,154.28,81,0,NaN,7.0752,875.43,335.59,2e-3,0.010484
0.038,0.0070818,0.681,45.126,0.68948,45.689,0.0011216,0,0.0011216,0,0.10786,7.1473,28.61,-80.6,9.7884,64.682,0,0,0,34167,9721.8,39.641,0.12006,NaN,230.96,NaN,0.0072226,512203,1891.4,0.0058238,0.7357,0.11808,0.51669,0.099004,0.12001,NaN,NaN,NaN,NaN,NaN,NaN,NaN,NaN,8.8599e-5,14.016,154.28,81,0,NaN,7.0752,875.43,335.59,2e-3,0.010996
0.04,0.008534,0.77125,47.934,0.78087,48.532,0.0013517,0,0.0013517,0,0.12215,7.592,28.61,-80.6,9.7884,62.771,0,0,0,34165,9719.4,39.64,0.12005,NaN,230.96,NaN,0.0073469,521021,1988.4,0.0072789,0.73383,0.14263,0.51482,0.099004,0.12001,NaN,NaN,NaN,NaN,NaN,NaN,NaN,NaN,1.0034e-4,14.016,154.28,81,0,NaN,7.0751,875.43,335.59,2e-3,0.013899
0.042,0.010172,0.86713,50.742,0.87794,51.375,0.0016112,0,0.0016112,0,0.13734,8.0368,28.61,-80.6,9.7884,60.812,0,0,0,34162,9717,39.639,0.12005,NaN,230.95,NaN,0.0074874,530985,2085.4,0.0090263,0.73177,0.17029,0.51276,0.099004,0.12001,NaN,NaN,NaN,NaN,NaN,NaN,NaN,NaN,1.1282e-4,14.016,154.28,81,0,NaN,7.0751,875.43,335.59,2e-3,0.014507
0.044,0.012008,0.96862,53.551,0.9807,54.219,0.0019019,0,0.0019019,0,0.15341,8.4817,28.61,-80.6,9.7884,58.818,0,0,0,34160,9714.6,39.638,0.12005,NaN,230.95,NaN,0.0076451,542167,2182.4,0.011103,0.72951,0.20093,0.5105,0.099004,0.12001,NaN,NaN,NaN,NaN,NaN,NaN,NaN,NaN,1.2602e-4,14.016,154.28,81,0,NaN,7.0751,875.43,335.59,2e-3,0.015046
0.046,0.014053,1.0757,56.36,1.0891,57.063,0.0022257,0,0.0022257,0,0.17038,8.9266,28.61,-80.6,9.7884,56.804,0,0,0,34158,9712.2,39.637,0.12005,NaN,230.95,NaN,0.0078209,554636,2279.4,0.013549,0.72707,0.23428,0.50806,0.099004,0.12001,NaN,NaN,NaN,NaN,NaN,NaN,NaN,NaN,1.3995e-4,14.016,154.28,81,0,NaN,7.0751,875.43,335.59,2e-3,0.015605
0.048,0.016317,1.1885,59.17,1.2033,59.907,0.0025843,0,0.0025843,0,0.18823,9.3715,28.61,-80.6,9.7884,54.781,0,0,0,34155,9709.8,39.636,0.12004,NaN,230.94,NaN,0.0080157,568452,2376.4,0.0164,0.72445,0.26997,0.50544,0.099004,0.12001,NaN,NaN,NaN,NaN,NaN,NaN,NaN,NaN,1.5462e-4,14.016,154.28,81,0,NaN,7.0751,875.43,335.59,2e-3,0.016107
0.05,0.018812,1.3068,61.979,1.3231,62.752,0.0029795,0,0.0029795,0,0.20698,9.8166,28.61,-80.6,9.7884,52.762,0,0,0,34153,9707.4,39.635,0.12004,NaN,230.94,NaN,0.0082303,583670,2473.4,0.019697,0.72165,0.30755,0.50264,0.099004,0.12001,NaN,NaN,NaN,NaN,NaN,NaN,NaN,NaN,1.7002e-4,14.016,154.28,81,0,NaN,7.0751,875.43,335.59,2e-3,0.016615
0.052,0.02155,1.4308,64.789,1.4486,65.597,0.0034131,0,0.0034131,0,0.22661,10.262,28.61,-80.6,9.7884,50.802,0,0,0,34150,9705,39.634,0.12004,NaN,230.94,NaN,0.0084763,601116,2570.3,0.023471,0.71857,0.34552,0.49955,0.099004,0.12001,NaN,NaN,NaN,NaN,NaN,NaN,NaN,NaN,1.8615e-4,14.016,154.28,81,0,NaN,7.0751,875.43,335.59,2e-3,0.017239
0.054,0.024541,1.5604,67.6,1.5798,68.443,0.0038869,0,0.0038869,0,0.24714,10.707,28.61,-80.6,9.7884,48.871,0,0,0,34148,9702.6,39.633,0.12003,NaN,230.93,NaN,0.0087428,620016,2667.3,0.027762,0.71535,0.38415,0.49634,0.099005,0.12001,NaN,NaN,NaN,NaN,NaN,NaN,NaN,NaN,2.0301e-4,14.016,154.28,81,0,NaN,7.075,875.43,335.59,2e-3,0.017769
0.056,0.027797,1.6956,70.411,1.7167,71.289,0.0044025,0,0.0044025,0,0.26855,11.152,28.61,-80.6,9.7884,46.978,0,0,0,34145,9700.2,39.632,0.12003,NaN,230.93,NaN,0.0090302,640398,2764.3,0.032605,0.71203,0.4229,0.49301,0.099005,0.12001,NaN,NaN,NaN,NaN,NaN,NaN,NaN,NaN,2.206e-4,14.016,154.28,81,0,NaN,7.075,875.43,335.59,2e-3,0.018363
0.058,0.031329,1.8364,73.222,1.8593,74.135,0.004962,0,0.004962,0,0.29086,11.597,28.61,-80.6,9.7884,45.129,0,0,0,34143,9697.8,39.631,0.12003,NaN,230.92,NaN,0.0093389,662283,2861.3,0.038033,0.70861,0.46123,0.48959,0.099005,0.12001,NaN,NaN,NaN,NaN,NaN,NaN,NaN,NaN,2.3892e-4,14.016,154.28,81,0,NaN,7.075,875.43,335.59,2e-3,0.018886
0.06,0.035148,1.9829,76.034,2.0076,76.982,0.0055669,0,0.0055669,0,0.31405,12.043,28.61,-80.6,9.7884,43.331,0,0,0,34141,9695.4,39.63,0.12002,NaN,230.92,NaN,0.0096689,685688,2958.3,0.044078,0.70511,0.49867,0.48609,0.099005,0.12001,NaN,NaN,NaN,NaN,NaN,NaN,NaN,NaN,2.5797e-4,14.016,154.28,81,0,NaN,7.075,875.43,335.59,2e-3,0.019391
0.062,0.039266,2.1349,78.846,2.1615,79.829,0.0062191,0,0.0062191,0,0.33814,12.488,28.61,-80.6,9.7884,41.589,0,0,0,34138,9692.9,39.629,0.12002,NaN,230.92,NaN,0.010021,710623,3055.3,0.050769,0.70155,0.53477,0.48253,0.099005,0.12001,NaN,NaN,NaN,NaN,NaN,NaN,NaN,NaN,2.7776e-4,14.016,154.28,81,0,NaN,7.0749,875.42,335.59,2e-3,0.019951
0.064,0.043693,2.2926,81.659,2.3212,82.676,0.0069203,0,0.0069203,0,0.36312,12.933,28.61,-80.6,9.7884,39.906,0,0,0,34136,9690.5,39.628,0.12002,NaN,230.91,NaN,0.010394,737093,3152.3,0.058136,0.69795,0.56918,0.47893,0.099006,0.12001,NaN,NaN,NaN,NaN,NaN,NaN,NaN,NaN,2.9828e-4,14.016,154.28,81,0,NaN,7.0749,875.42,335.59,2e-3,0.020486
0.066,0.048442,2.456,84.471,2.4866,85.524,0.0076724,0,0.0076724,0,0.38899,13.379,28.61,-80.6,9.7884,38.286,0,0,0,34133,9688.1,39.627,0.12002,NaN,230.91,NaN,0.010789,765098,3249.3,0.066206,0.69432,0.6016,0.4753,0.099006,0.12002,NaN,NaN,NaN,NaN,NaN,NaN,NaN,NaN,3.1953e-4,14.016,154.28,81,0,NaN,7.0749,875.42,335.59,2e-3,0.020998
0.068,0.053523,2.6249,87.285,2.6576,88.373,0.0084772,0,0.0084772,0,0.41575,13.825,28.61,-80.6,9.7884,36.729,0,0,0,34131,9685.7,39.626,0.12001,NaN,230.91,NaN,0.011205,794637,3346.3,0.075003,0.69067,0.63182,0.47165,0.099006,0.12002,NaN,NaN,NaN,NaN,NaN,NaN,NaN,NaN,3.4151e-4,14.016,154.28,81,0,NaN,7.0749,875.42,335.59,2e-3,0.021488
0.07,0.058947,2.7995,90.098,2.8344,91.221,0.0093363,0,0.0093363,0,0.4434,14.27,28.61,-80.6,9.7884,35.236,0,0,0,34129,9683.3,39.625,0.12001,NaN,230.9,NaN,0.011643,825703,3443.3,0.084552,0.68702,0.65967,0.468,0.099007,0.12002,NaN,NaN,NaN,NaN,NaN,NaN,NaN,NaN,3.6422e-4,14.016,154.28,81,0,NaN,7.0748,875.42,335.59,2e-3,0.021986
0.072,0.064726,2.9797,92.912,3.0168,94.07,0.010252,0,0.010252,0,0.47194,14.716,28.61,-80.6,9.7884,33.807,0,0,0,34126,9680.9,39.624,0.12001,NaN,230.9,NaN,0.012103,858288,3540.3,0.094877,0.68338,0.68509,0.46436,0.099007,0.12002,NaN,NaN,NaN,NaN,NaN,NaN,NaN,NaN,3.8767e-4,14.016,154.28,81,0,NaN,7.0748,875.42,335.59,2e-3,0.022488
0.074,0.070871,3.1655,95.726,3.205,96.92,0.011225,0,0.011225,0,0.50137,15.162,28.61,-80.6,9.7884,32.443,0,0,0,34124,9678.5,39.623,0.12,NaN,230.89,NaN,0.012584,892385,3637.3,0.106,0.67976,0.70803,0.46073,0.099007,0.12002,NaN,NaN,NaN,NaN,NaN,NaN,NaN,NaN,4.1184e-4,14.016,154.28,81,0,NaN,7.0747,875.42,335.59,2e-3,0.022989
0.076,0.077394,3.357,98.541,3.3989,99.769,0.012258,0,0.012258,0,0.5317,15.607,28.61,-80.6,9.7884,31.141,0,0,0,34121,9676.1,39.622,0.12,NaN,230.89,NaN,0.013086,927980,3734.3,0.11794,0.67617,0.72852,0.45714,0.099008,0.12002,NaN,NaN,NaN,NaN,NaN,NaN,NaN,NaN,4.3675e-4,14.016,154.28,81,0,NaN,7.0747,875.42,335.59,2e-3,0.023474
0.078,0.084305,3.5541,101.36,3.5984,102.62,0.013353,0,0.013353,0,0.56291,16.053,28.61,-80.6,9.7884,29.9,0,0,0,34119,9673.7,39.621,0.12,NaN,230.89,NaN,0.013608,965063,3831.3,0.13072,0.67261,0.74661,0.45358,0.099008,0.12002,NaN,NaN,NaN,NaN,NaN,NaN,NaN,NaN,4.624e-4,14.016,154.28,81,0,NaN,7.0747,875.42,335.59,2e-3,0.023956
0.08,0.091616,3.7568,104.17,3.8037,105.47,0.014511,0,0.014511,0,0.59502,16.499,28.61,-80.6,9.7884,28.718,0,0,0,34117,9671.3,39.62,0.12,NaN,230.88,NaN,0.014152,1003621,3928.3,0.14437,0.6691,0.7624,0.45006,0.099009,0.12003,NaN,NaN,NaN,NaN,NaN,NaN,NaN,NaN,4.8877e-4,14.016,154.28,81,0,NaN,7.0746,875.42,335.59,2e-3,0.024447
0.082,0.099338,3.9652,106.99,4.0146,108.32,0.015734,0,0.015734,0,0.62802,16.945,28.61,-80.6,9.7884,27.593,0,0,0,34114,9668.9,39.619,0.11999,NaN,230.88,NaN,0.014717,1043643,4025.3,0.15889,0.66563,0.77599,0.44659,0.099009,0.12003,NaN,NaN,NaN,NaN,NaN,NaN,NaN,NaN,5.1588e-4,14.016,154.28,81,0,NaN,7.0746,875.42,335.59,2e-3,0.024901
0.084,0.10748,4.1792,109.8,4.2313,111.17,0.017024,0,0.017024,0,0.66192,17.391,28.61,-80.6,9.7884,26.524,0,0,0,34112,9666.5,39.618,0.11999,NaN,230.88,NaN,0.015301,1085114,4122.3,0.17432,0.66221,0.7875,0.44317,0.09901,0.12003,NaN,NaN,NaN,NaN,NaN,NaN,NaN,NaN,5.4372e-4,14.016,154.28,81,0,NaN,7.0745,875.42,335.59,2e-3,0.025337
0.086,0.11606,4.3988,112.62,4.4536,114.02,0.018382,0,0.018382,0,0.6967,17.837,28.61,-80.6,9.7884,25.507,0,0,0,34109,9664,39.617,0.11999,NaN,230.87,NaN,0.015906,1128023,4219.2,0.19068,0.65885,0.79709,0.43981,0.099011,0.12003,NaN,NaN,NaN,NaN,NaN,NaN,NaN,NaN,5.7229e-4,14.016,154.28,81,0,NaN,7.0744,875.42,335.59,2e-3,0.026577
0.088,0.12508,4.624,115.44,4.6817,116.88,0.019811,0,0.019811,0,0.73238,18.283,28.61,-80.6,9.7884,24.54,0,0,0,34107,9661.6,39.616,0.11998,NaN,230.87,NaN,0.016532,1172358,4316.2,0.20797,0.65555,0.80488,0.4365,0.099011,0.12004,NaN,NaN,NaN,NaN,NaN,NaN,NaN,NaN,6.016e-4,14.016,154.28,81,0,NaN,7.0744,875.42,335.59,2e-3,0.027077
0.09,0.13456,4.8549,118.25,4.9155,119.73,0.021313,0,0.021313,0,0.76895,18.73,28.61,-80.6,9.7884,23.622,0,0,0,34105,9659.2,39.615,0.11998,NaN,230.86,NaN,0.017177,1218106,4413.2,0.22623,0.65231,0.81103,0.43326,0.099012,0.12004,NaN,NaN,NaN,NaN,NaN,NaN,NaN,NaN,6.3164e-4,14.016,154.28,81,0,NaN,7.0743,875.41,335.59,2e-3,0.027569
0.092,0.14451,5.0915,121.07,5.1549,122.58,0.022888,0,0.022888,0,0.80641,19.176,28.61,-80.6,9.7884,22.749,0,0,0,34102,9656.8,39.614,0.11998,NaN,230.86,NaN,0.017842,1265256,4510.2,0.24548,0.64913,0.81566,0.43007,0.099013,0.12004,NaN,NaN,NaN,NaN,NaN,NaN,NaN,NaN,6.6241e-4,14.016,154.28,81,0,NaN,7.0743,875.41,335.59,2e-3,0.02806
0.094,0.15493,5.3336,123.89,5.4001,125.43,0.024539,0,0.024539,0,0.84476,19.622,28.61,-80.6,9.7884,21.919,0,0,0,34100,9654.4,39.613,0.11998,NaN,230.86,NaN,0.018526,1313797,4607.2,0.26574,0.64601,0.81894,0.42695,0.099014,0.12004,NaN,NaN,NaN,NaN,NaN,NaN,NaN,NaN,6.9391e-4,14.016,154.28,81,0,NaN,7.0742,875.41,335.59,2e-3,0.028725
0.096,0.16585,5.5814,126.71,5.651,128.29,0.026268,0,0.026268,0,0.88401,20.069,28.61,-80.6,9.7884,21.13,0,0,0,34097,9652,39.612,0.11997,NaN,230.85,NaN,0.01923,1363719,4704.2,0.28703,0.64295,0.82097,0.42389,0.099015,0.12005,NaN,NaN,NaN,NaN,NaN,NaN,NaN,NaN,7.2615e-4,14.016,154.28,81,0,NaN,7.0741,875.41,335.59,2e-3,0.02913
0.098,0.17726,5.8348,128.3,5.9076,129.9,0.028076,0,0.028076,0,0.92415,20.321,28.61,-80.6,9.7884,20.38,0,0,0,34095,9649.6,39.611,0.11997,NaN,230.85,NaN,0.019953,1415012,4758.9,0.30938,0.63996,0.82189,0.42089,0.099016,0.12005,NaN,NaN,NaN,NaN,NaN,NaN,NaN,NaN,7.5912e-4,14.016,154.28,81,0,NaN,7.074,875.41,335.59,2e-3,0.029437
0.1,0.18919,6.0915,128.67,6.1674,130.28,0.029965,0,0.029965,0,0.96479,20.38,28.61,-80.6,9.7884,19.674,0,0,0,34091,9645.7,39.61,0.11997,NaN,230.84,NaN,0.020689,1467173,4771.3,0.33258,0.63706,0.82183,0.41798,0.099017,0.12006,NaN,NaN,NaN,NaN,NaN,NaN,NaN,NaN,7.9251e-4,14.016,154.28,81,0,NaN,7.074,875.41,335.59,2e-3,0.029721
0.102,0.20163,6.3489,129.05,6.428,130.66,0.031935,0,0.031935,0,1.0056,20.44,28.61,-80.6,9.7884,18.952,0,0,0,34086,9640.2,39.607,0.11996,NaN,230.83,NaN,0.021417,1518819,4783.6,0.35613,0.63431,0.82119,0.41523,0.099018,0.12006,NaN,NaN,NaN,NaN,NaN,NaN,NaN,NaN,8.26e-4,14.016,154.28,81,0,NaN,7.0739,875.41,335.59,2e-3,0.030022
0.104,0.21459,6.607,129.43,6.6894,131.05,0.033987,0,0.033987,0,1.0464,20.5,28.61,-80.6,9.7884,18.275,0,0,0,34080,9634.8,39.605,0.11995,NaN,230.83,NaN,0.022151,1570843,4796,0.38025,0.63166,0.81969,0.41258,0.099019,0.12006,NaN,NaN,NaN,NaN,NaN,NaN,NaN,NaN,8.5958e-4,14.016,154.28,81,0,NaN,7.0738,875.41,335.59,2e-3,0.030425
0.106,0.22806,6.8659,129.81,6.9515,131.43,0.036121,0,0.036121,0,1.0875,20.561,28.61,-80.6,9.7884,17.641,0,0,0,34075,9629.3,39.603,0.11995,NaN,230.82,NaN,0.02289,1623228,4808.3,0.40494,0.62911,0.81747,0.41002,0.09902,0.12007,NaN,NaN,NaN,NaN,NaN,NaN,NaN,NaN,8.9327e-4,14.016,154.28,81,0,NaN,7.0737,875.4,335.59,2e-3,0.030729
0.108,0.24205,7.1256,130.19,7.2144,131.82,0.038337,0,0.038337,0,1.1286,20.621,28.61,-80.6,9.7884,17.044,0,0,0,34069,9623.9,39.601,0.11994,NaN,230.81,NaN,0.023633,1675954,4820.7,0.43017,0.62664,0.81464,0.40755,0.099021,0.12007,NaN,NaN,NaN,NaN,NaN,NaN,NaN,NaN,9.2705e-4,14.016,154.28,81,0,NaN,7.0736,875.4,335.59,2e-3,0.031094
0.11,0.25656,7.386,130.57,7.4781,132.2,0.040636,0,0.040636,0,1.1698,20.681,28.61,-80.6,9.7884,16.483,0,0,0,34064,9618.4,39.599,0.11993,NaN,230.8,NaN,0.024381,1729007,4833.1,0.45581,0.62426,0.81103,0.40516,0.099023,0.12008,NaN,NaN,NaN,NaN,NaN,NaN,NaN,NaN,9.6093e-4,14.016,154.28,81,0,NaN,7.0735,875.4,335.59,2e-3,0.031401
0.112,0.2716,7.6472,130.95,7.7425,132.59,0.043017,0,0.043017,0,1.2112,20.741,28.61,-80.6,9.7884,15.953,0,0,0,34058,9613,39.596,0.11993,NaN,230.79,NaN,0.025134,1782372,4845.4,0.48169,0.62196,0.80651,0.40285,0.099024,0.12008,NaN,NaN,NaN,NaN,NaN,NaN,NaN,NaN,9.9491e-4,14.016,154.28,81,0,NaN,7.0734,875.4,335.59,2e-3,0.03167
0.114,0.28715,7.9091,131.33,8.0077,132.97,0.045481,0,0.045481,0,1.2527,20.801,28.61,-80.6,9.7884,15.453,0,0,0,34053,9607.5,39.594,0.11992,NaN,230.78,NaN,0.025891,1836037,4857.8,0.50784,0.61973,0.80131,0.40062,0.099025,0.12009,NaN,NaN,NaN,NaN,NaN,NaN,NaN,NaN,0.001029,14.016,154.28,81,0,NaN,7.0733,875.4,335.59,2e-3,0.031938
0.116,0.30323,8.1718,131.72,8.2737,133.36,0.048028,0,0.048028,0,1.2943,20.862,28.61,-80.6,9.7884,14.98,0,0,0,34047,9602,39.592,0.11991,NaN,230.77,NaN,0.026651,1.89e6,4870.2,0.5343,0.61758,0.79562,0.39846,0.099027,0.12009,NaN,NaN,NaN,NaN,NaN,NaN,NaN,NaN,0.0010632,14.016,154.28,81,0,NaN,7.0732,875.4,335.59,2e-3,0.032204
0.118,0.31984,8.4353,132.1,8.5404,133.74,0.050658,0,0.050658,0,1.336,20.922,28.61,-80.6,9.7884,14.533,0,0,0,34042,9596.6,39.59,0.11991,NaN,230.77,NaN,0.027416,1944223,4882.5,0.56112,0.61549,0.78959,0.39636,0.099028,0.1201,NaN,NaN,NaN,NaN,NaN,NaN,NaN,NaN,0.0010974,14.016,154.28,81,0,NaN,7.0731,875.4,335.59,2e-3,0.032475
0.12,0.33698,8.6995,132.48,8.808,134.13,0.053372,0,0.053372,0,1.3779,20.982,28.61,-80.6,9.7884,14.108,0,0,0,34036,9591.1,39.587,0.1199,NaN,230.76,NaN,0.028185,1998726,4894.9,0.58832,0.61346,0.78333,0.39433,0.09903,0.1201,NaN,NaN,NaN,NaN,NaN,NaN,NaN,NaN,0.0011318,14.016,154.28,81,0,NaN,7.073,875.39,335.59,2e-3,0.032745
0.122,0.35464,8.9645,132.86,9.0763,134.51,0.056169,0,0.056169,0,1.4198,21.042,28.61,-80.6,9.7884,13.705,0,0,0,34031,9585.7,39.585,0.11989,NaN,230.75,NaN,0.028957,2053491,4907.3,0.61593,0.61149,0.77694,0.39235,0.099031,0.12011,NaN,NaN,NaN,NaN,NaN,NaN,NaN,NaN,0.0011663,14.016,154.28,81,0,NaN,7.0729,875.39,335.59,2e-3,0.033013
0.124,0.37283,9.2303,133.24,9.3453,134.9,0.059051,0,0.059051,0,1.4619,21.103,28.61,-80.6,9.7884,13.322,0,0,0,34026,9580.2,39.583,0.11989,NaN,230.74,NaN,0.029733,2108510,4919.6,0.64398,0.60959,0.77048,0.39044,0.099033,0.12011,NaN,NaN,NaN,NaN,NaN,NaN,NaN,NaN,0.0012009,14.016,154.28,81,0,NaN,7.0728,875.39,335.59,2e-3,0.033279
0.126,0.39156,9.4968,133.62,9.6152,135.28,0.062017,0,0.062017,0,1.5041,21.163,28.61,-80.6,9.7884,12.957,0,0,0,34020,9574.8,39.581,0.11988,NaN,230.73,NaN,0.030512,2163778,4932,0.6725,0.60773,0.76402,0.38858,0.099034,0.12012,NaN,NaN,NaN,NaN,NaN,NaN,NaN,NaN,0.0012355,14.016,154.28,81,0,NaN,7.0727,875.39,335.58,2e-3,0.033552
0.128,0.41082,9.7641,134,9.8858,135.67,0.065068,0,0.065068,0,1.5465,21.224,28.61,-80.6,9.7884,12.61,0,0,0,34015,9569.3,39.579,0.11987,NaN,230.72,NaN,0.031295,2219287,4944.3,0.7015,0.60593,0.7576,0.38677,0.099036,0.12013,NaN,NaN,NaN,NaN,NaN,NaN,NaN,NaN,0.0012703,14.016,154.28,81,0,NaN,7.0725,875.39,335.58,2e-3,0.033891
0.13,0.43062,10.032,134.38,10.157,136.06,0.068203,0,0.068203,0,1.5889,21.284,28.61,-80.6,9.7884,12.278,0,0,0,34009,9563.9,39.576,0.11987,NaN,230.71,NaN,0.032081,2275034,4956.7,0.73101,0.60418,0.75126,0.38501,0.099038,0.12013,NaN,NaN,NaN,NaN,NaN,NaN,NaN,NaN,0.0013052,14.016,154.28,81,0,NaN,7.0724,875.38,335.58,2e-3,0.034298
0.132,0.45095,10.301,134.76,10.429,136.44,0.071424,0,0.071424,0,1.6315,21.344,28.61,-80.6,9.7884,11.962,0,0,0,34004,9558.4,39.574,0.11986,NaN,230.71,NaN,0.032871,2331012,4969.1,0.76105,0.60248,0.74501,0.38329,0.09904,0.12014,NaN,NaN,NaN,NaN,NaN,NaN,NaN,NaN,0.0013402,14.016,154.28,81,0,NaN,7.0723,875.38,335.58,2e-3,0.034597
0.134,0.47182,10.57,135.14,10.702,136.83,0.074729,0,0.074729,0,1.6742,21.405,28.61,-80.6,9.7884,11.66,0,0,0,33998,9553,39.572,0.11985,NaN,230.7,NaN,0.033664,2387217,4981.4,0.79162,0.60082,0.73888,0.38163,0.099042,0.12015,NaN,NaN,NaN,NaN,NaN,NaN,NaN,NaN,0.0013752,14.016,154.28,81,0,NaN,7.0721,875.38,335.58,2e-3,0.034865
0.136,0.49323,10.841,135.53,10.976,137.21,0.078121,0,0.078121,0,1.717,21.465,28.61,-80.6,9.7884,11.371,0,0,0,33993,9547.5,39.57,0.11985,NaN,230.69,NaN,0.034459,2443645,4993.8,0.82276,0.5992,0.73289,0.38,0.099043,0.12015,NaN,NaN,NaN,NaN,NaN,NaN,NaN,NaN,0.0014104,14.016,154.28,81,0,NaN,7.072,875.38,335.58,2e-3,0.035131
0.138,0.51519,11.112,135.91,11.25,137.6,0.081598,0,0.081598,0,1.7599,21.526,28.61,-80.6,9.7884,11.094,0,0,0,33987,9542.1,39.567,0.11984,NaN,230.68,NaN,0.035258,2500293,5006.2,0.85448,0.59762,0.72703,0.37842,0.099045,0.12016,NaN,NaN,NaN,NaN,NaN,NaN,NaN,NaN,0.0014457,14.016,154.28,81,0,NaN,7.0719,875.37,335.58,2e-3,0.035407
0.14,0.53768,11.384,136.29,11.526,137.99,0.085161,0,0.085161,0,1.803,21.586,28.61,-80.6,9.7884,10.829,0,0,0,33982,9536.6,39.565,0.11983,NaN,230.67,NaN,0.03606,2557156,5018.5,0.88678,0.59609,0.72133,0.37687,0.099047,0.12017,NaN,NaN,NaN,NaN,NaN,NaN,NaN,NaN,0.001481,14.016,154.28,81,0,NaN,7.0717,875.37,335.58,2e-3,0.035673
0.142,0.56072,11.656,136.67,11.802,138.37,0.08881,0,0.08881,0,1.8462,21.646,28.61,-80.6,9.7884,10.575,0,0,0,33976,9531.2,39.563,0.11983,NaN,230.66,NaN,0.036865,2614232,5030.9,0.91968,0.59459,0.71579,0.37537,0.099049,0.12018,NaN,NaN,NaN,NaN,NaN,NaN,NaN,NaN,0.0015165,14.016,154.28,81,0,NaN,7.0716,875.37,335.58,2e-3,0.035939
0.144,0.58431,11.93,137.05,12.078,138.76,0.092545,0,0.092545,0,1.8895,21.707,28.61,-80.6,9.7884,10.331,0,0,0,33971,9525.7,39.561,0.11982,NaN,230.65,NaN,0.037673,2671518,5043.2,0.9532,0.59313,0.7104,0.37389,0.099052,0.12018,NaN,NaN,NaN,NaN,NaN,NaN,NaN,NaN,0.0015521,14.016,154.28,81,0,NaN,7.0714,875.37,335.58,2e-3,0.03621
0.146,0.60844,12.204,137.43,12.356,139.15,0.096368,0,0.096368,0,1.9329,21.767,28.61,-80.6,9.7884,10.097,0,0,0,33966,9520.3,39.558,0.11981,NaN,230.64,NaN,0.038484,2729011,5055.6,0.98735,0.5917,0.70517,0.37246,0.099054,0.12019,NaN,NaN,NaN,NaN,NaN,NaN,NaN,NaN,0.0015877,14.016,154.28,81,0,NaN,7.0712,875.36,335.58,2e-3,0.036488
0.148,0.63312,12.479,137.82,12.634,139.53,0.10028,0,0.10028,0,1.9764,21.828,28.61,-80.6,9.7884,9.8712,0,0,0,33960,9514.8,39.556,0.11981,NaN,230.64,NaN,0.039298,2786708,5068,1.0221,0.59031,0.7001,0.37105,0.099056,0.1202,NaN,NaN,NaN,NaN,NaN,NaN,NaN,NaN,0.0016235,14.016,154.28,81,0,NaN,7.0711,875.36,335.58,2e-3,0.036754
0.15,0.65836,12.754,138.2,12.913,139.92,0.10427,0,0.10427,0,2.0201,21.889,28.61,-80.6,9.7884,9.6546,0,0,0,33955,9509.4,39.554,0.1198,NaN,230.63,NaN,0.040114,2844608,5080.3,1.0576,0.58895,0.69518,0.36968,0.099058,0.12021,NaN,NaN,NaN,NaN,NaN,NaN,NaN,NaN,0.0016594,14.016,154.28,81,0,NaN,7.0709,875.36,335.58,2e-3,0.037025
0.152,0.68414,13.031,138.58,13.193,140.31,0.10836,0,0.10836,0,2.0639,21.949,28.61,-80.6,9.7884,9.4615,0,0,0,33949,9503.9,39.552,0.1198,NaN,230.62,NaN,0.040937,2902968,5092.7,1.0942,0.58761,0.69064,0.36833,0.09906,0.12022,NaN,NaN,NaN,NaN,NaN,NaN,NaN,NaN,0.0016953,14.016,154.28,81,0,NaN,7.0708,875.36,335.58,2e-3,0.03729
0.154,0.71048,13.308,138.96,13.474,140.7,0.11253,0,0.11253,0,2.1078,22.01,28.61,-80.6,9.7884,9.2755,0,0,0,33944,9498.5,39.55,0.11979,NaN,230.61,NaN,0.041763,2961522,5105.1,1.1341,0.58762,0.68779,0.36833,0.099063,0.12023,NaN,NaN,NaN,NaN,NaN,NaN,NaN,NaN,0.0017314,14.016,154.28,81,0,NaN,7.0706,875.35,335.58,2e-3,0.037566
0.156,0.73738,13.586,139.35,13.755,141.08,0.11679,0,0.11679,0,2.1518,22.07,28.61,-80.6,9.7884,9.0962,0,0,0,33938,9493,39.547,0.11978,NaN,230.6,NaN,0.042592,3020266,5117.4,1.1748,0.58762,0.68503,0.36832,0.099065,0.12024,NaN,NaN,NaN,NaN,NaN,NaN,NaN,NaN,0.0017676,14.016,154.28,81,0,NaN,7.0704,875.35,335.58,2e-3,0.037833
0.158,0.76483,13.865,139.73,14.038,141.47,0.12114,0,0.12114,0,2.196,22.131,28.61,-80.6,9.7884,8.9233,0,0,0,33933,9487.5,39.545,0.11978,NaN,230.59,NaN,0.043423,3079200,5129.8,1.2163,0.58763,0.68236,0.36832,0.099068,0.12025,NaN,NaN,NaN,NaN,NaN,NaN,NaN,NaN,0.0018038,14.016,154.28,81,0,NaN,7.0702,875.35,335.58,2e-3,0.038098
0.16,0.79284,14.144,140.11,14.321,141.86,0.12557,0,0.12557,0,2.2402,22.191,28.61,-80.6,9.7884,8.7564,0,0,0,33927,9482.1,39.543,0.11977,NaN,230.58,NaN,0.044257,3138323,5142.1,1.2587,0.58764,0.67978,0.36832,0.09907,0.12025,NaN,NaN,NaN,NaN,NaN,NaN,NaN,NaN,0.0018402,14.016,154.28,81,0,NaN,7.07,875.34,335.58,2e-3,0.038369
0.162,0.8214,14.425,140.49,14.604,142.25,0.1301,0,0.1301,0,2.2846,22.252,28.61,-80.6,9.7884,8.5953,0,0,0,33922,9476.6,39.541,0.11976,NaN,230.58,NaN,0.045093,3197633,5154.5,1.302,0.58765,0.67728,0.36831,0.099073,0.12026,NaN,NaN,NaN,NaN,NaN,NaN,NaN,NaN,0.0018767,14.016,154.28,81,0,NaN,7.0699,875.34,335.58,2e-3,0.038635
0.164,0.85053,14.706,140.88,14.889,142.63,0.13471,0,0.13471,0,2.3291,22.313,28.61,-80.6,9.7884,8.4396,0,0,0,33916,9471.2,39.538,0.11976,NaN,230.57,NaN,0.045932,3257129,5166.9,1.3461,0.58766,0.67487,0.36831,0.099076,0.12027,NaN,NaN,NaN,NaN,NaN,NaN,NaN,NaN,0.0019132,14.016,154.28,81,0,NaN,7.0697,875.34,335.58,2e-3,0.038901
0.166,0.88023,14.987,141.26,15.174,143.02,0.13941,0,0.13941,0,2.3738,22.373,28.61,-80.6,9.7884,8.2891,0,0,0,33911,9465.7,39.536,0.11975,NaN,230.56,NaN,0.046774,3316809,5179.2,1.391,0.58767,0.67254,0.36831,0.099078,0.12028,NaN,NaN,NaN,NaN,NaN,NaN,NaN,NaN,0.0019499,14.016,154.28,81,0,NaN,7.0695,875.34,335.58,2e-3,0.03917
0.168,0.91049,15.27,141.64,15.46,143.41,0.14421,0,0.14421,0,2.4185,22.434,28.61,-80.6,9.7884,8.1435,0,0,0,33906,9460.3,39.534,0.11974,NaN,230.55,NaN,0.047618,3376674,5191.6,1.4369,0.58768,0.67029,0.36831,0.099081,0.12029,NaN,NaN,NaN,NaN,NaN,NaN,NaN,NaN,0.0019866,14.016,154.28,81,0,NaN,7.0693,875.33,335.58,2e-3,0.039443
0.17,0.94131,15.553,142.03,15.747,143.8,0.14909,0,0.14909,0,2.4634,22.495,28.61,-80.6,9.7884,8.0026,0,0,0,33900,9454.8,39.532,0.11974,NaN,230.54,NaN,0.048465,3436721,5204,1.4836,0.58769,0.66812,0.3683,0.099084,0.12031,NaN,NaN,NaN,NaN,NaN,NaN,NaN,NaN,0.0020235,14.016,154.28,81,0,NaN,7.0691,875.33,335.58,2e-3,0.03971
0.172,0.9727,15.837,142.41,16.035,144.18,0.15406,0,0.15406,0,2.5084,22.555,28.61,-80.6,9.7884,7.8662,0,0,0,33895,9449.4,39.529,0.11973,NaN,230.53,NaN,0.049315,3496951,5216.3,1.5312,0.5877,0.66602,0.3683,0.099087,0.12032,NaN,NaN,NaN,NaN,NaN,NaN,NaN,NaN,0.0020605,14.016,154.28,81,0,NaN,7.0689,875.33,335.58,2e-3,0.039976
0.174,1.0047,16.122,142.79,16.323,144.57,0.15912,0,0.15912,0,2.5535,22.616,28.61,-80.6,9.7884,7.7341,0,0,0,33889,9443.9,39.527,0.11972,NaN,230.52,NaN,0.050167,3557361,5228.7,1.5798,0.58771,0.66399,0.3683,0.09909,0.12033,NaN,NaN,NaN,NaN,NaN,NaN,NaN,NaN,0.0020975,14.016,154.28,81,0,NaN,7.0687,875.32,335.58,2e-3,0.040242
0.176,1.0372,16.408,143.18,16.612,144.96,0.16427,0,0.16427,0,2.5987,22.677,28.61,-80.6,9.7884,7.606,0,0,0,33884,9438.5,39.525,0.11972,NaN,230.51,NaN,0.051021,3617952,5241,1.6292,0.58773,0.66203,0.36829,0.099093,0.12034,NaN,NaN,NaN,NaN,NaN,NaN,NaN,NaN,0.0021347,14.016,154.28,81,0,NaN,7.0685,875.32,335.58,2e-3,0.040516
0.178,1.0703,16.694,143.56,16.902,145.35,0.16952,0,0.16952,0,2.6441,22.738,28.61,-80.6,9.7884,7.4818,0,0,0,33878,9433,39.523,0.11971,NaN,230.51,NaN,0.051879,3678723,5253.4,1.6796,0.58774,0.66013,0.36829,0.099096,0.12035,NaN,NaN,NaN,NaN,NaN,NaN,NaN,NaN,0.0021719,14.016,154.28,81,0,NaN,7.0682,875.32,335.58,2e-3,0.040784
0.18,1.104,16.981,143.94,17.193,145.74,0.17485,0,0.17485,0,2.6896,22.798,28.61,-80.6,9.7884,7.3613,0,0,0,33873,9427.6,39.52,0.1197,NaN,230.5,NaN,0.052738,3739673,5265.8,1.7309,0.58775,0.6583,0.36829,0.099099,0.12036,NaN,NaN,NaN,NaN,NaN,NaN,NaN,NaN,0.0022093,14.016,154.28,81,0,NaN,7.068,875.31,335.58,2e-3,0.041088
0.182,1.1382,17.269,144.33,17.485,146.13,0.18028,0,0.18028,0,2.7352,22.859,28.61,-80.6,9.7884,7.2444,0,0,0,33867,9422.1,39.518,0.1197,NaN,230.49,NaN,0.053601,3800801,5278.1,1.7831,0.58776,0.65653,0.36828,0.099102,0.12037,NaN,NaN,NaN,NaN,NaN,NaN,NaN,NaN,0.0022468,14.016,154.28,81,0,NaN,7.0678,875.31,335.58,2e-3,0.041354
0.184,1.173,17.558,144.71,17.777,146.51,0.18579,0,0.18579,0,2.7809,22.92,28.61,-80.6,9.7884,7.1309,0,0,0,33862,9416.7,39.516,0.11969,NaN,230.48,NaN,0.054465,3862107,5290.5,1.8363,0.58777,0.65482,0.36828,0.099106,0.12039,NaN,NaN,NaN,NaN,NaN,NaN,NaN,NaN,0.0022843,14.016,154.28,81,0,NaN,7.0676,875.3,335.58,2e-3,0.041627
0.186,1.2084,17.847,145.09,18.07,146.9,0.1914,0,0.1914,0,2.8268,22.981,28.61,-80.6,9.7884,7.0206,0,0,0,33857,9411.2,39.514,0.11968,NaN,230.47,NaN,0.055333,3923590,5302.9,1.8905,0.58778,0.65317,0.36828,0.099109,0.1204,NaN,NaN,NaN,NaN,NaN,NaN,NaN,NaN,0.002322,14.016,154.28,81,0,NaN,7.0673,875.3,335.58,2e-3,0.041897
0.188,1.2444,18.138,145.48,18.364,147.29,0.1971,0,0.1971,0,2.8727,23.042,28.61,-80.6,9.7884,6.9135,0,0,0,33851,9405.8,39.512,0.11968,NaN,230.46,NaN,0.056202,3985249,5315.2,1.9456,0.5878,0.65157,0.36827,0.099112,0.12041,NaN,NaN,NaN,NaN,NaN,NaN,NaN,NaN,0.0023597,14.016,154.28,81,0,NaN,7.0671,875.3,335.58,2e-3,0.042165
0.19,1.281,18.429,145.86,18.658,147.68,0.20289,0,0.20289,0,2.9188,23.102,28.61,-80.6,9.7884,6.8093,0,0,0,33846,9400.3,39.509,0.11967,NaN,230.45,NaN,0.057075,4047085,5327.6,2.0017,0.58781,0.65002,0.36827,0.099116,0.12042,NaN,NaN,NaN,NaN,NaN,NaN,NaN,NaN,0.0023976,14.016,154.28,81,0,NaN,7.0669,875.29,335.58,2e-3,0.042457
0.192,1.3181,18.72,146.25,18.954,148.07,0.20877,0,0.20877,0,2.965,23.163,28.61,-80.6,9.7884,6.708,0,0,0,33840,9394.9,39.507,0.11966,NaN,230.45,NaN,0.057949,4109096,5339.9,2.0588,0.58782,0.64853,0.36827,0.099119,0.12044,NaN,NaN,NaN,NaN,NaN,NaN,NaN,NaN,0.0024356,14.016,154.28,81,0,NaN,7.0666,875.29,335.58,2e-3,0.042735
0.194,1.3559,19.013,146.63,19.25,148.46,0.21475,0,0.21475,0,3.0114,23.224,28.61,-80.6,9.7884,6.6095,0,0,0,33835,9389.4,39.505,0.11966,NaN,230.44,NaN,0.058826,4171283,5352.3,2.1168,0.58784,0.64708,0.36826,0.099123,0.12045,NaN,NaN,NaN,NaN,NaN,NaN,NaN,NaN,0.0024736,14.016,154.28,81,0,NaN,7.0664,875.28,335.58,2e-3,0.043003
0.196,1.3942,19.306,147.02,19.547,148.85,0.22082,0,0.22082,0,3.0578,23.285,28.61,-80.6,9.7884,6.5136,0,0,0,33829,9384,39.503,0.11965,NaN,230.43,NaN,0.059706,4233644,5364.7,2.1759,0.58785,0.64568,0.36826,0.099127,0.12046,NaN,NaN,NaN,NaN,NaN,NaN,NaN,NaN,0.0025118,14.016,154.28,81,0,NaN,7.0661,875.28,335.58,2e-3,0.043268
0.198,1.4331,19.6,147.4,19.845,149.24,0.22698,0,0.22698,0,3.1044,23.346,28.61,-80.6,9.7884,6.4203,0,0,0,33824,9378.5,39.5,0.11964,NaN,230.42,NaN,0.060588,4296180,5377,2.2359,0.58786,0.64432,0.36825,0.09913,0.12048,NaN,NaN,NaN,NaN,NaN,NaN,NaN,NaN,0.00255,14.016,154.28,81,0,NaN,7.0659,875.28,335.58,2e-3,0.043544
0.2,1.4726,19.895,147.78,20.143,149.63,0.23324,0,0.23324,0,3.1511,23.407,28.61,-80.6,9.7884,6.3294,0,0,0,33818,9373,39.498,0.11964,NaN,230.41,NaN,0.061473,4358890,5389.4,2.297,0.58788,0.64301,0.36825,0.099134,0.12049,NaN,NaN,NaN,NaN,NaN,NaN,NaN,NaN,0.0025884,14.016,154.28,81,0,NaN,7.0656,875.27,335.58,2e-3,0.043815
0.202,1.5127,20.191,148.17,20.442,150.02,0.23959,0,0.23959,0,3.1979,23.468,28.61,-80.6,9.7884,6.233,0,0,0,33813,9367.6,39.496,0.11963,NaN,230.4,NaN,0.062358,4421609,5401.8,2.3585,0.58789,0.64163,0.36825,0.099138,0.12051,NaN,NaN,NaN,NaN,NaN,NaN,NaN,NaN,0.0026269,14.016,154.28,81,0,NaN,7.0654,875.27,335.58,2e-3,0.044084
0.204,1.5534,20.487,148.55,20.743,150.41,0.24603,0,0.24603,0,3.2448,23.529,28.61,-80.6,9.7884,6.1391,0,0,0,33807,9362.1,39.494,0.11962,NaN,230.39,NaN,0.063245,4484504,5414.1,2.421,0.5879,0.64029,0.36824,0.099142,0.12052,NaN,NaN,NaN,NaN,NaN,NaN,NaN,NaN,0.0026654,14.016,154.28,81,0,NaN,7.0651,875.26,335.58,2e-3,0.04435
0.206,1.5946,20.784,148.94,21.043,150.8,0.25257,0,0.25257,0,3.2919,23.59,28.61,-80.6,9.7884,6.0476,0,0,0,33802,9356.7,39.491,0.11962,NaN,230.38,NaN,0.064135,4547573,5426.5,2.4846,0.58792,0.639,0.36824,0.099146,0.12053,NaN,NaN,NaN,NaN,NaN,NaN,NaN,NaN,0.0027041,14.016,154.28,81,0,NaN,7.0648,875.26,335.58,2e-3,0.044763
0.208,1.6365,21.082,149.32,21.345,151.18,0.2592,0,0.2592,0,3.3391,23.651,28.61,-80.6,9.7884,5.9584,0,0,0,33797,9351.2,39.489,0.11961,NaN,230.38,NaN,0.065027,4610817,5438.8,2.5492,0.58793,0.63775,0.36823,0.09915,0.12055,NaN,NaN,NaN,NaN,NaN,NaN,NaN,NaN,0.0027428,14.016,154.28,81,0,NaN,7.0646,875.26,335.58,2e-3,0.045122
0.21,1.679,21.381,149.71,21.647,151.57,0.26592,0,0.26592,0,3.3864,23.712,28.61,-80.6,9.7884,5.8714,0,0,0,33791,9345.8,39.487,0.11961,NaN,230.37,NaN,0.065921,4674235,5451.2,2.6148,0.58795,0.63653,0.36823,0.099154,0.12056,NaN,NaN,NaN,NaN,NaN,NaN,NaN,NaN,0.0027817,14.016,154.28,81,0,NaN,7.0643,875.25,335.58,2e-3,0.045415
0.212,1.722,21.68,150.09,21.951,151.96,0.27274,0,0.27274,0,3.4338,23.773,28.61,-80.6,9.7884,5.7865,0,0,0,33786,9340.3,39.485,0.1196,NaN,230.36,NaN,0.066819,4737827,5463.6,2.6815,0.58796,0.63536,0.36823,0.099158,0.12058,NaN,NaN,NaN,NaN,NaN,NaN,NaN,NaN,0.0028207,14.016,154.28,81,0,NaN,7.064,875.25,335.58,2e-3,0.04569
0.214,1.7657,21.981,150.48,22.255,152.35,0.27966,0,0.27966,0,3.4814,23.834,28.61,-80.6,9.7884,5.7036,0,0,0,33780,9334.9,39.482,0.11959,NaN,230.35,NaN,0.067718,4801592,5475.9,2.7492,0.58798,0.63422,0.36822,0.099162,0.1206,NaN,NaN,NaN,NaN,NaN,NaN,NaN,NaN,0.0028597,14.016,154.28,81,0,NaN,7.0637,875.24,335.58,2e-3,0.045957
0.216,1.81,22.282,150.86,22.559,152.74,0.28667,0,0.28667,0,3.5291,23.895,28.61,-80.6,9.7884,5.6228,0,0,0,33775,9329.4,39.48,0.11959,NaN,230.34,NaN,0.06862,4865531,5488.3,2.818,0.588,0.63312,0.36822,0.099167,0.12061,NaN,NaN,NaN,NaN,NaN,NaN,NaN,NaN,0.0028989,14.016,154.28,81,0,NaN,7.0634,875.24,335.58,2e-3,0.046282
0.218,1.8548,22.583,151.25,22.865,153.14,0.29377,0,0.29377,0,3.5769,23.956,28.61,-80.6,9.7884,5.5439,0,0,0,33769,9324,39.478,0.11958,NaN,230.33,NaN,0.069525,4929642,5500.7,2.8879,0.58801,0.63206,0.36821,0.099171,0.12063,NaN,NaN,NaN,NaN,NaN,NaN,NaN,NaN,0.0029381,14.016,154.28,81,0,NaN,7.0631,875.23,335.58,2e-3,0.046749
0.22,1.9003,22.886,151.64,23.171,153.53,0.30098,0,0.30098,0,3.6248,24.017,28.61,-80.6,9.7884,5.4668,0,0,0,33764,9318.5,39.476,0.11957,NaN,230.32,NaN,0.070431,4993926,5513,2.9589,0.58803,0.63102,0.36821,0.099175,0.12064,NaN,NaN,NaN,NaN,NaN,NaN,NaN,NaN,0.0029775,14.016,154.28,81,0,NaN,7.0628,875.23,335.58,2e-3,0.047131
0.222,1.9464,23.189,152.02,23.478,153.92,0.30827,0,0.30827,0,3.6728,24.078,28.61,-80.6,9.7884,5.3915,0,0,0,33758,9313.1,39.473,0.11957,NaN,230.31,NaN,0.071341,5058382,5525.4,3.031,0.58804,0.63002,0.3682,0.09918,0.12066,NaN,NaN,NaN,NaN,NaN,NaN,NaN,NaN,0.003017,14.016,154.28,81,0,NaN,7.0625,875.22,335.58,2e-3,0.047405
0.224,1.993,23.493,152.41,23.786,154.31,0.31567,0,0.31567,0,3.721,24.139,28.61,-80.6,9.7884,5.3179,0,0,0,33753,9307.6,39.471,0.11956,NaN,230.31,NaN,0.072253,5123010,5537.7,3.1041,0.58806,0.62905,0.3682,0.099185,0.12068,NaN,NaN,NaN,NaN,NaN,NaN,NaN,NaN,0.0030565,14.016,154.28,81,0,NaN,7.0622,875.22,335.58,2e-3,0.047676
0.226,2.0403,23.798,152.79,24.095,154.7,0.32316,0,0.32316,0,3.7693,24.2,28.61,-80.6,9.7884,5.246,0,0,0,33747,9302.2,39.469,0.11955,NaN,230.3,NaN,0.073167,5187810,5550.1,3.1784,0.58808,0.62811,0.36819,0.099189,0.1207,NaN,NaN,NaN,NaN,NaN,NaN,NaN,NaN,0.0030962,14.016,154.28,81,0,NaN,7.0619,875.21,335.58,2e-3,0.047943
0.228,2.0882,24.104,153.18,24.404,155.09,0.33074,0,0.33074,0,3.8177,24.261,28.61,-80.6,9.7884,5.1757,0,0,0,33742,9296.7,39.467,0.11955,NaN,230.29,NaN,0.074084,5252782,5562.5,3.2538,0.58809,0.6272,0.36819,0.099194,0.12071,NaN,NaN,NaN,NaN,NaN,NaN,NaN,NaN,0.0031359,14.016,154.28,81,0,NaN,7.0616,875.21,335.58,2e-3,0.048208
0.23,2.1368,24.41,153.56,24.714,155.48,0.33843,0,0.33843,0,3.8662,24.322,28.61,-80.6,9.7884,5.1069,0,0,0,33737,9291.3,39.464,0.11954,NaN,230.28,NaN,0.075003,5317925,5574.8,3.3303,0.58811,0.62631,0.36818,0.099199,0.12073,NaN,NaN,NaN,NaN,NaN,NaN,NaN,NaN,0.0031758,14.016,154.28,81,0,NaN,7.0613,875.2,335.58,2e-3,0.048525
0.232,2.1859,24.717,153.95,25.025,155.87,0.34621,0,0.34621,0,3.9148,24.383,28.61,-80.6,9.7884,5.0397,0,0,0,33731,9285.8,39.462,0.11953,NaN,230.27,NaN,0.075924,5383239,5587.2,3.4079,0.58813,0.62546,0.36818,0.099204,0.12075,NaN,NaN,NaN,NaN,NaN,NaN,NaN,NaN,0.0032158,14.016,154.28,81,0,NaN,7.061,875.2,335.58,2e-3,0.048923
0.234,2.2356,25.025,154.34,25.337,156.26,0.35409,0,0.35409,0,3.9636,24.445,28.61,-80.6,9.7884,4.9739,0,0,0,33726,9280.4,39.46,0.11953,NaN,230.26,NaN,0.076848,5448724,5599.6,3.4867,0.58815,0.62462,0.36817,0.099209,0.12077,NaN,NaN,NaN,NaN,NaN,NaN,NaN,NaN,0.0032558,14.016,154.28,81,0,NaN,7.0607,875.19,335.58,2e-3,0.04933
0.236,2.286,25.334,154.72,25.65,156.65,0.36206,0,0.36206,0,4.0125,24.506,28.61,-80.6,9.7884,4.9096,0,0,0,33720,9274.9,39.458,0.11952,NaN,230.25,NaN,0.077774,5514381,5611.9,3.5667,0.58817,0.62382,0.36817,0.099214,0.12079,NaN,NaN,NaN,NaN,NaN,NaN,NaN,NaN,0.003296,14.016,154.28,81,0,NaN,7.0603,875.19,335.58,2e-3,0.049612
0.238,2.337,25.643,155.11,25.963,157.04,0.37014,0,0.37014,0,4.0615,24.567,28.61,-80.6,9.7884,4.8466,0,0,0,33715,9269.5,39.455,0.11951,NaN,230.24,NaN,0.078703,5580207,5624.3,3.6477,0.58819,0.62303,0.36816,0.099219,0.12081,NaN,NaN,NaN,NaN,NaN,NaN,NaN,NaN,0.0033363,14.016,154.28,81,0,NaN,7.06,875.18,335.58,2e-3,0.04988
0.24,2.3886,25.954,155.5,26.277,157.43,0.37831,0,0.37831,0,4.1107,24.628,28.61,-80.6,9.7884,4.785,0,0,0,33709,9264,39.453,0.11951,NaN,230.24,NaN,0.079634,5646205,5636.7,3.73,0.5882,0.62227,0.36816,0.099224,0.12082,NaN,NaN,NaN,NaN,NaN,NaN,NaN,NaN,0.0033766,14.016,154.28,81,0,NaN,7.0597,875.18,335.58,2e-3,0.050147
0.242,2.4408,26.265,155.67,26.592,157.83,0.38658,0,0.38658,0,4.1599,26.012,28.61,-80.6,9.7884,4.7246,0,0,0,33704,9258.5,39.451,0.1195,248.49,230.23,1.3033,0.080568,5712372,5652.1,3.8134,0.58822,0.62154,0.36815,0.099229,0.12084,1.0375,1.3525,2.97e-4,0,0,0,0,0,0.0034171,14.016,154.28,81,0,NaN,7.0593,875.17,335.58,3e-3,0.050558
0.245,2.5203,26.732,156.34,27.066,158.5,0.39918,0,0.39918,1.888e-7,4.238,26.114,28.61,-80.6,9.7884,4.6447,0,0.0051376,6.1747e-7,33697,9251.7,39.448,0.11949,248.72,230.22,1.3205,0.081974,5812001,5675.3,3.9415,0.58825,0.62058,0.36814,0.099237,0.12087,1.0165,1.3426,4.4679e-4,0,0,0,0,9.8674e-8,0.003478,14.016,154.28,81,0,NaN,7.0588,875.16,335.58,0.0045,0.050835
0.2495,2.6421,27.436,157.33,27.78,159.51,0.41851,8.2968e-9,0.41851,1.1359e-6,4.3556,26.268,28.61,-80.6,9.7884,4.5294,0,0.013108,5.9661e-7,33687,9241.5,39.444,0.11948,249.06,230.2,1.3456,0.084092,5962147,5710.1,4.1387,0.5883,0.61921,0.36813,0.099249,0.12092,0.9863,1.3271,1.5269e-4,0,0,0,0,6.1038e-7,0.0035698,14.016,154.28,81,0,NaN,7.058,875.15,335.58,0.00675,0.051146
0.25625,2.8309,28.5,158.83,28.858,161.02,0.44851,3.0362e-8,0.44851,3.8787e-6,4.5332,26.499,28.61,-80.6,9.7884,4.3637,0,0.025663,-1.1753e-6,33671,9226.2,39.437,0.11946,249.55,230.17,1.3821,0.087292,6188895,5761.8,4.4457,0.58837,0.61729,0.36811,0.099269,0.12099,0.94337,1.3036,2.3831e-4,0,0,0,0,2.1713e-6,0.0037084,14.016,154.28,81,1.1703e-8,NaN,7.0568,875.13,335.58,0.01,0.05143
0.26625,3.1239,30.092,161.04,30.472,163.26,0.49517,8.9701e-8,0.49517,1.0379e-5,4.7986,26.841,28.61,-80.6,9.7884,4.1367,0,0.04559,1.1058e-6,33649,9203.3,39.428,0.11943,250.23,230.14,1.4333,0.092082,6528293,5823.6,4.9264,0.58848,0.61475,0.36808,0.099299,0.1211,0.88541,1.2692,2.1042e-4,0,0,0,0,6.158e-6,0.0039158,14.016,154.28,81,1.1512e-8,NaN,7.0549,875.1,335.57,0.01,0.051706
0.27625,3.4329,31.703,162.98,32.105,165.23,0.5445,1.8248e-7,0.5445,1.9202e-5,5.0672,27.14,28.61,-80.6,9.7884,3.9294,0,0.067135,-8.4424e-7,33621,9176.1,39.417,0.1194,250.86,230.09,1.4817,0.096932,6871989,5885.5,5.4392,0.5886,0.61254,0.36804,0.099331,0.12122,0.83332,1.2343,4.1639e-5,0,0,0,0,1.205e-5,0.0041258,14.016,154.28,80.999,0,NaN,7.0529,875.06,335.57,0.01,0.051979
0.28625,3.758,33.334,164.92,33.759,167.19,0.59653,3.1055e-7,0.59653,2.9827e-5,5.3387,27.441,28.61,-80.6,9.7884,3.7393,0,0.090314,-1.3691e-6,33594,9148.8,39.405,0.11937,251.45,230.05,1.5272,0.10184,7219879,5947.3,5.985,0.58872,0.6106,0.36801,0.099365,0.12135,0.78628,1.2011,4.9711e-5,0,0,0,0,1.9756e-5,0.0043383,14.016,154.28,80.998,7.0809e-8,NaN,7.0508,875.03,335.57,0.01,0.052252
0.29625,4.0996,34.984,166.54,35.432,168.82,0.65129,4.7575e-7,0.65129,4.1853e-5,5.6133,27.69,28.61,-80.6,9.7884,3.5643,0,0.11516,-2.9424e-6,33567,9121.6,39.394,0.11934,252.01,230.01,1.57,0.10681,7571959,5997.8,6.5647,0.58885,0.60889,0.36797,0.099401,0.12148,0.74358,1.1678,4.552e-4,0,0,0,0,2.92e-5,0.0045534,14.016,154.28,80.997,3.0886e-7,NaN,7.0486,874.99,335.57,0.01,0.052546
0.30625,4.4578,36.651,166.34,37.121,168.63,0.70881,6.7997e-7,0.70881,5.4965e-5,5.8903,27.653,28.61,-80.6,9.7884,3.4145,0,0.1417,4.4673e-6,33539,9093.7,39.382,0.1193,252.49,229.96,1.6078,0.11184,7927871,5986.9,7.1803,0.58899,0.60752,0.36793,0.09944,0.12163,0.7075,1.1375,4.498e-4,0,0,0,0,4.0327e-5,0.0047706,14.016,154.28,80.996,4.415e-7,NaN,7.0462,874.95,335.57,0.01,0.052822
0.31625,4.8326,38.315,165.88,38.808,168.16,0.76909,9.251e-7,0.76909,6.8918e-5,6.167,27.573,28.61,-80.6,9.7884,3.284,0,0.17004,-3.9225e-7,33510,9064.8,39.37,0.11927,252.92,229.91,1.6417,0.11686,8283606,5966.7,7.8246,0.58914,0.60638,0.36789,0.09948,0.12178,0.67641,1.1104,-1.4274e-4,0,0,0,0,5.3193e-5,0.0049875,14.016,154.28,80.994,5.0987e-7,NaN,7.0438,874.92,335.57,0.01,0.053096
0.32625,5.2241,39.975,165.42,40.491,167.69,0.83214,1.213e-6,0.83214,8.352e-5,6.4429,27.494,28.61,-80.6,9.7884,3.1641,0,0.20021,0,33481,9035.5,39.358,0.11923,253.32,229.87,1.6736,0.12187,8638364,5946.5,8.4954,0.5893,0.60539,0.36784,0.099522,0.12193,0.64813,1.0844,-2.8115e-4,0,0,0,0,6.7802e-5,0.0052038,14.016,154.28,80.992,6.1507e-7,NaN,7.0412,874.87,335.57,0.01,0.05337
0.33625,5.6321,41.631,164.96,42.169,167.22,0.89795,1.5456e-6,0.89795,9.8619e-5,6.718,27.416,28.61,-80.6,9.7884,3.0534,0,0.2322,1.4869e-6,33451,9006.1,39.346,0.1192,253.69,229.82,1.7036,0.12686,8992136,5926.4,9.1926,0.58945,0.60452,0.3678,0.099565,0.12209,0.62229,1.0601,3.8557e-4,0,0,0,0,8.4163e-5,0.0054195,14.016,154.28,80.99,7.0653e-7,NaN,7.0386,874.83,335.56,0.01,0.053644
0.34625,6.0567,43.282,164.5,43.843,166.76,0.9665,1.9246e-6,0.9665,1.141e-4,6.9923,27.339,28.61,-80.6,9.7884,2.9509,0,0.26606,1.4456e-6,33422,8976.7,39.334,0.11916,254.04,229.77,1.732,0.13185,9344913,5906.2,9.9157,0.58962,0.60376,0.36775,0.099611,0.12226,0.59855,1.0369,-5.1016e-5,0,0,0,0,1.023e-4,0.0056346,14.016,154.28,80.988,1.0162e-6,NaN,7.0358,874.78,335.56,0.01,0.053917
0.35625,6.4977,44.928,164.03,45.511,166.28,1.0378,2.3521e-6,1.0378,1.2986e-4,7.2659,27.264,28.61,-80.6,9.7884,2.8483,0,0.30175,-7.6616e-6,33393,8947.3,39.321,0.11913,254.4,229.72,1.7606,0.13681,9696429,5886.1,10.663,0.58979,0.60303,0.3677,0.099657,0.12243,0.57499,1.012,9.2791e-5,0,0,0,0,1.2222e-4,0.0058491,14.016,154.28,80.985,1.4569e-6,NaN,7.033,874.74,335.56,0.01,0.054197
0.36625,6.9552,46.569,163.57,47.175,165.81,1.1118,2.8297e-6,1.1118,1.4583e-4,7.5387,27.189,28.61,-80.6,9.7884,2.7483,0,0.33921,-4.6581e-6,33363,8917.9,39.309,0.11909,254.75,229.67,1.7889,0.14176,10046785,5865.9,11.435,0.58997,0.60235,0.36765,0.099706,0.12261,0.55223,0.98773,-3.0286e-4,0,0,0,0,1.4385e-4,0.006063,14.016,154.28,80.982,2.194e-6,NaN,7.03,874.69,335.56,0.01,0.054481
0.37625,7.4291,48.206,163.1,48.835,165.34,1.1886,3.3594e-6,1.1886,1.6194e-4,7.8108,27.116,28.61,-80.6,9.7884,2.6547,0,0.37843,4.5364e-6,33334,8888.5,39.297,0.11906,255.08,229.62,1.8159,0.1467,10396130,5845.7,12.232,0.59015,0.60175,0.3676,0.099756,0.1228,0.53111,0.9642,-2.223e-4,0,0,0,0,1.672e-4,0.0062763,14.016,154.28,80.978,2.6364e-6,NaN,7.0269,874.64,335.56,0.01,0.054755
0.38625,7.9193,49.838,162.63,50.489,164.86,1.268,3.943e-6,1.268,1.7816e-4,8.0821,27.044,28.61,-80.6,9.7884,2.5669,0,0.41938,1.3064e-5,33304,8859.1,39.284,0.11902,255.39,229.58,1.8416,0.15162,10744457,5825.6,13.055,0.59034,0.60123,0.36754,0.099807,0.12299,0.51143,0.94157,-4.0839e-4,0,0,0,0,1.9222e-4,0.006489,14.016,154.28,80.974,2.7296e-6,NaN,7.0237,874.59,335.56,0.01,0.055029
0.39625,8.4258,51.466,162.16,52.139,164.39,1.3502,4.5823e-6,1.3502,1.9445e-4,8.3528,26.973,28.61,-80.6,9.7884,2.4841,0,0.46207,1.7005e-5,33275,8829.7,39.272,0.11899,255.69,229.53,1.8663,0.15653,11091759,5805.4,13.902,0.59053,0.60078,0.36749,0.09986,0.12319,0.49303,0.92025,-7.8221e-6,0,0,0,0,2.1895e-4,0.006701,14.016,154.28,80.97,2.3563e-6,NaN,7.0204,874.53,335.55,0.01,0.055302
0.40625,8.9486,53.088,161.68,53.784,163.91,1.4351,5.279e-6,1.4351,2.1076e-4,8.6227,26.901,28.61,-80.6,9.7884,2.4145,0,0.50654,1.4519e-5,33246,8800.3,39.259,0.11895,255.94,229.48,1.8879,0.16142,11438376,5785.3,14.777,0.59073,0.60044,0.36743,0.099915,0.12339,0.47765,0.90141,3.645e-4,0,0,0,0,2.474e-4,0.0069125,14.016,154.28,80.965,2.3294e-6,NaN,7.017,874.48,335.55,0.01,0.05558
0.41625,9.4876,54.706,161.21,55.424,163.43,1.5226,6.0349e-6,1.5226,2.2709e-4,8.8919,26.83,28.61,-80.6,9.7884,2.3535,0,0.55292,5.7759e-6,33216,8770.9,39.247,0.11892,256.16,229.43,1.9074,0.16631,11784156,5765.1,15.678,0.59094,0.60019,0.36737,0.099971,0.1236,0.46426,0.88527,-2.7602e-4,0,0,0,0,2.777e-4,0.0071233,14.016,154.28,80.96,2.7577e-6,NaN,7.0135,874.42,335.55,0.01,0.055856
0.42625,10.043,56.32,160.73,57.06,162.94,1.6129,6.8518e-6,1.6129,2.434e-4,9.1604,26.76,28.61,-80.6,9.7884,2.2954,0,0.60124,1.0073e-5,33187,8741.5,39.235,0.11888,256.38,229.38,1.9262,0.17119,12128887,5744.9,16.603,0.59115,0.59998,0.36731,0.10003,0.12381,0.45158,0.86955,-1.9021e-4,0,0,0,0,3.0993e-4,0.0073336,14.016,154.28,80.954,3.3695e-6,NaN,7.0099,874.36,335.55,0.01,0.056129
0.43625,10.614,57.928,160.25,58.69,162.46,1.7059,7.7314e-6,1.7059,2.5968e-4,9.4282,26.691,28.61,-80.6,9.7884,2.24,0,0.65149,1.783e-5,33157,8712.1,39.222,0.11884,256.59,229.33,1.9445,0.17605,12472562,5724.8,17.553,0.59137,0.59979,0.36725,0.10009,0.12403,0.43954,0.85449,2.5527e-4,0,0,0,0,3.441e-4,0.0075432,14.016,154.28,80.948,3.8239e-6,NaN,7.0062,874.3,335.54,0.01,0.05643
0.44625,11.201,59.532,159.77,60.316,161.97,1.8015,8.6756e-6,1.8015,2.7593e-4,9.6954,26.624,28.61,-80.6,9.7884,2.187,0,0.70369,1.951e-5,33128,8682.7,39.21,0.11881,256.79,229.28,1.9622,0.18089,12815177,5704.6,18.526,0.59159,0.59964,0.36718,0.10015,0.12425,0.42807,0.83911,1.6736e-4,0,0,0,0,3.8022e-4,0.0077522,14.016,154.28,80.941,4.3907e-6,NaN,7.0024,874.24,335.54,0.01,0.056862
0.45625,11.805,61.13,159.29,61.937,161.49,1.8998,9.686e-6,1.8998,2.9212e-4,9.9618,26.559,28.61,-80.6,9.7884,2.1299,0,0.75778,1.3407e-5,33099,8653.3,39.197,0.11877,257,229.24,1.9811,0.18572,13156448,5684.4,19.522,0.59181,0.59948,0.36712,0.10021,0.12448,0.41579,0.82311,-3.0299e-4,0,0,0,0,4.1831e-4,0.0079605,14.016,154.28,80.934,5.422e-6,NaN,6.9985,874.17,335.54,0.01,0.057191
0.46625,12.424,62.724,158.8,63.553,161,2.0007,1.0764e-5,2.0007,3.0827e-4,10.228,26.496,28.61,-80.6,9.7884,2.0716,0,0.81359,1.6289e-5,33069,8623.9,39.185,0.11874,257.22,229.19,2.0005,0.19053,13496484,5664.3,20.539,0.59205,0.59932,0.36705,0.10027,0.12472,0.40329,0.8061,4.3269e-4,0,0,0,0,4.5816e-4,0.0081682,14.016,154.28,80.926,6.6426e-6,NaN,6.9944,874.11,335.54,0.01,0.057471
0.47625,13.059,64.313,158.32,65.164,160.51,2.1043,1.1913e-5,2.1043,3.2435e-4,10.493,26.434,28.61,-80.6,9.7884,2.0154,0,0.8711,-5.0539e-6,33040,8594.5,39.172,0.1187,257.44,229.14,2.0193,0.19533,13835448,5644.1,21.58,0.59228,0.59918,0.36698,0.10034,0.12496,0.39132,0.79007,-3.0101e-4,0,0,0,0,4.9975e-4,0.0083754,14.016,154.28,80.917,8.9362e-6,NaN,6.9903,874.04,335.54,0.01,0.057746
0.48625,13.71,65.898,157.83,66.77,160.02,2.2106,1.3132e-5,2.2106,3.4038e-4,10.757,26.375,28.61,-80.6,9.7884,1.9612,0,0.93026,4.5872e-6,33010,8565.1,39.16,0.11867,257.65,229.09,2.0378,0.20011,14173335,5624,22.644,0.59253,0.59908,0.36691,0.10041,0.12521,0.37984,0.77319,9.2325e-5,0,0,0,0,5.4303e-4,0.0085818,14.016,154.28,80.908,1.1744e-5,NaN,6.9861,873.97,335.53,0.01,0.05802
0.49625,14.377,67.477,157.34,68.371,159.53,2.3195,1.4425e-5,2.3195,3.5634e-4,11.021,26.317,28.61,-80.6,9.7884,1.9089,0,0.99104,7.7011e-6,32981,8535.8,39.147,0.11863,257.85,229.04,2.0559,0.20488,1.451e7,5603.8,23.73,0.59277,0.599,0.36684,0.10047,0.12546,0.36879,0.75718,-1.6421e-4,0,0,0,0,5.8796e-4,0.0087877,14.016,154.28,80.899,1.4818e-5,NaN,6.9818,873.9,335.53,0.01,0.058295
0.50625,15.06,69.052,156.92,69.968,159.1,2.431,1.5793e-5,2.431,3.7223e-4,11.285,26.268,28.61,-80.6,9.7884,1.87,0,1.0535,1.2341e-5,32952,8506.4,39.135,0.1186,258.01,228.99,2.0704,0.20964,14846455,5585.9,24.845,0.59303,0.59901,0.36677,0.10054,0.12571,0.36063,0.74578,-2.1479e-4,0,0,0,0,6.3461e-4,0.0089929,14.016,154.28,80.888,1.7759e-5,NaN,6.9773,873.83,335.53,0.01,0.058591
0.51625,15.758,70.622,156.55,71.56,158.73,2.5451,1.7238e-5,2.5451,3.8807e-4,11.548,26.228,28.61,-80.6,9.7884,1.839,0,1.1181,2.64e-5,32923,8477.9,39.122,0.11856,258.13,228.94,2.0828,0.21439,15182165,5570,25.985,0.59329,0.59908,0.3667,0.10061,0.12598,0.35416,0.73652,1.6842e-4,0,0,0,0,6.8348e-4,0.0091975,14.016,154.28,80.878,2.0794e-5,NaN,6.9728,873.75,335.52,0.01,0.058865
0.52625,16.472,72.188,156.17,73.148,158.35,2.6619,1.8762e-5,2.6619,4.0384e-4,11.81,26.189,28.61,-80.6,9.7884,1.8085,0,1.1848,2.7012e-5,32896,8450.4,39.111,0.11853,258.26,228.89,2.0949,0.21914,15517030,5554.1,27.149,0.59355,0.59917,0.36662,0.10069,0.12624,0.3478,0.72759,3.8975e-4,0,0,0,0,7.3462e-4,0.0094017,14.016,154.28,80.866,2.3579e-5,NaN,6.9681,873.68,335.52,0.01,0.059141
0.53625,17.202,73.751,155.79,74.732,157.97,2.7814,2.0366e-5,2.7814,4.1955e-4,12.073,26.152,28.61,-80.6,9.7884,1.7783,0,1.2536,1.9608e-5,32868,8422.9,39.099,0.1185,258.38,228.85,2.1071,0.22387,15851043,5538.3,28.336,0.59382,0.59926,0.36654,0.10076,0.12652,0.34154,0.71931,4.8181e-4,0,0,0,0,7.8803e-4,0.0096054,14.016,154.28,80.854,2.7346e-5,NaN,6.9634,873.6,335.52,0.01,0.059419
0.54625,17.947,75.31,155.42,76.313,157.59,2.9034,2.2053e-5,2.9034,4.352e-4,12.334,26.117,28.61,-80.6,9.7884,1.7485,0,1.3245,3.2298e-5,32841,8395.4,39.087,0.11846,258.5,228.8,2.1191,0.22859,16184201,5522.4,29.546,0.59409,0.59936,0.36646,0.10084,0.12679,0.33536,0.70979,3.6612e-5,0,0,0,0,8.4369e-4,0.0098086,14.016,154.28,80.841,3.1597e-5,NaN,6.9585,873.52,335.52,0.01,0.059694
0.55625,18.708,76.865,155.03,77.89,157.21,3.028,2.3823e-5,3.028,4.5078e-4,12.596,26.084,28.61,-80.6,9.7884,1.716,0,1.3974,4.0839e-5,32813,8367.8,39.075,0.11843,258.64,228.75,2.132,0.2333,16516337,5506.5,30.778,0.59437,0.59946,0.36638,0.10091,0.12708,0.32864,0.70009,-3.0201e-4,0,0,0,0,9.0163e-4,0.010011,14.016,154.28,80.827,3.5653e-5,NaN,6.9536,873.44,335.51,0.01,0.059971
0.56625,19.484,78.416,154.65,79.463,156.83,3.1553,2.568e-5,3.1553,4.6631e-4,12.857,26.054,28.61,-80.6,9.7884,1.6821,0,1.4722,4.488e-5,32786,8340.3,39.063,0.1184,258.77,228.71,2.1453,0.23799,16847514,5490.6,32.031,0.59466,0.59955,0.3663,0.10099,0.12736,0.32165,0.68864,-4.5258e-4,0,0,0,0,9.6168e-4,0.010214,14.016,154.28,80.813,3.9458e-5,NaN,6.9486,873.36,335.51,0.01,0.060245
0.57625,20.276,79.964,154.27,81.032,156.45,3.2852,2.7624e-5,3.2852,4.8178e-4,13.118,26.027,28.61,-80.6,9.7884,1.6485,0,1.5488,4.92e-5,32758,8312.8,39.052,0.11837,258.91,228.66,2.1585,0.24268,17177825,5474.8,33.307,0.59495,0.59965,0.36622,0.10107,0.12766,0.31475,0.67812,-3.4808e-5,0,0,0,0,0.0010237,0.010415,14.016,154.28,80.798,4.3466e-5,NaN,6.9434,873.27,335.51,0.01,0.060523
0.58625,21.084,81.507,153.88,82.598,156.06,3.4177,2.9657e-5,3.4177,4.9719e-4,13.378,26.001,28.61,-80.6,9.7884,1.6152,0,1.6273,6.31e-5,32731,8285.3,39.04,0.11833,259.05,228.61,2.1717,0.24735,17507266,5458.9,34.605,0.59524,0.59977,0.36614,0.10115,0.12795,0.30792,0.66754,-2.0089e-4,0,0,0,0,0.0010877,0.010617,14.016,154.28,80.782,4.8298e-5,NaN,6.9382,873.19,335.5,0.01,0.060798
0.59625,21.906,83.047,153.49,84.159,155.68,3.5527,3.1781e-5,3.5527,5.1254e-4,13.639,25.978,28.61,-80.6,9.7884,1.582,0,1.7074,7.0827e-5,32703,8257.7,39.028,0.1183,259.19,228.57,2.1849,0.25201,17835833,5443,35.925,0.59554,0.59989,0.36605,0.10123,0.12826,0.30114,0.65723,-7.7431e-5,0,0,0,0,0.0011536,0.010817,14.016,154.28,80.765,5.3078e-5,NaN,6.9328,873.1,335.5,0.01,0.061097
0.60625,22.744,84.583,153.1,85.717,155.29,3.6904,3.3998e-5,3.6904,5.2784e-4,13.899,25.96,28.61,-80.6,9.7884,1.5427,0,1.7891,7.8836e-5,32676,8230.2,39.016,0.11827,259.35,228.52,2.1999,0.25665,18163139,5427.1,37.264,0.59584,0.59999,0.36596,0.10132,0.12856,0.29312,0.64354,-4.8583e-4,0,0,0,0,0.0012213,0.011018,14.016,154.28,80.748,5.8314e-5,NaN,6.9274,873.01,335.5,0.01,0.061378
0.61625,23.598,86.115,152.71,87.271,154.9,3.8307,3.631e-5,3.8307,5.4309e-4,14.159,25.946,28.61,-80.6,9.7884,1.4999,0,1.872,1.0567e-4,32648,8202.7,39.004,0.11823,259.53,228.47,2.2159,0.26128,18489337,5411.3,38.622,0.59615,0.60008,0.36587,0.1014,0.12887,0.28443,0.62935,-3.5916e-4,0,0,0,0,0.0012901,0.011217,14.016,154.28,80.73,6.3121e-5,NaN,6.9218,872.92,335.49,0.01,0.061671
0.62625,24.467,87.643,152.32,88.821,154.51,3.9736,3.8718e-5,3.9736,5.5829e-4,14.419,25.934,28.61,-80.6,9.7884,1.4576,0,1.9559,1.5404e-4,32620,8175.2,38.992,0.1182,259.71,228.43,2.2318,0.2659,18814652,5395.4,40.002,0.59646,0.60018,0.36579,0.10149,0.12919,0.27586,0.61442,-2.3447e-5,0,0,0,0,0.0013599,0.011417,14.016,154.28,80.71,6.6586e-5,NaN,6.9162,872.83,335.49,0.01,0.061982
0.63625,25.351,89.167,151.93,90.367,154.12,4.1191,4.1225e-5,4.1191,5.7343e-4,14.679,25.925,28.61,-80.6,9.7884,1.4156,0,2.0407,1.3838e-4,32593,8147.6,38.98,0.11817,259.88,228.38,2.2478,0.27051,19139080,5379.5,41.404,0.59678,0.6003,0.36569,0.10157,0.12951,0.26738,0.59917,-2.6139e-4,0,0,0,0,0.0014304,0.011615,14.016,154.28,80.69,7.0352e-5,NaN,6.9104,872.73,335.49,0.01,0.06227
0.64625,26.25,90.687,151.53,91.909,153.73,4.2672,4.3831e-5,4.2672,5.8852e-4,14.938,25.918,28.61,-80.6,9.7883,1.3739,0,2.1264,1.9379e-4,32565,8120.1,38.968,0.11813,260.06,228.33,2.2637,0.2751,19462618,5363.6,42.827,0.5971,0.60042,0.3656,0.10166,0.12984,0.259,0.58483,1.735e-4,0,0,0,0,0.0015016,0.011814,14.016,154.28,80.67,7.398e-5,NaN,6.9046,872.64,335.48,0.01,0.062566
0.65625,27.164,92.203,151.13,93.447,153.34,4.4179,4.6538e-5,4.4179,6.0356e-4,15.198,25.919,28.61,-80.6,9.7883,1.3231,0,2.2125,1.7954e-4,32538,8092.6,38.956,0.1181,260.27,228.28,2.2822,0.27968,19784652,5347.8,44.265,0.59743,0.60052,0.36551,0.10175,0.13017,0.24882,0.56626,1.7454e-4,0,0,0,0,0.001573,0.012011,14.016,154.28,80.648,7.8116e-5,NaN,6.8986,872.54,335.48,0.01,0.062916
0.66625,28.094,93.715,150.73,94.982,152.94,4.5711,4.9349e-5,4.5711,6.1856e-4,15.458,25.924,28.61,-80.6,9.7883,1.2673,0,2.2984,2.018e-4,32510,8065,38.944,0.11807,260.5,228.24,2.3022,0.28424,20105425,5331.9,45.721,0.59776,0.6006,0.36541,0.10184,0.1305,0.2377,0.54525,-1.3697e-4,0,0,0,0,0.0016436,0.012209,14.016,154.28,80.625,8.3169e-5,NaN,6.8926,872.44,335.48,0.01,0.0632
0.67625,29.039,95.223,150.32,96.512,152.55,4.727,5.2265e-5,4.727,6.335e-4,15.717,25.933,28.61,-80.6,9.7883,1.2121,0,2.3839,2.3187e-4,32483,8037.5,38.932,0.11803,260.74,228.19,2.3222,0.28879,20425302,5316,47.198,0.59809,0.6007,0.36532,0.10193,0.13084,0.22676,0.52448,2.1528e-4,0,0,0,0,0.0017129,0.012406,14.016,154.28,80.602,8.7791e-5,NaN,6.8864,872.34,335.47,0.01,0.063477
0.68625,29.998,96.728,149.92,98.038,152.15,4.8855,5.5287e-5,4.8855,6.4839e-4,15.977,25.945,28.61,-80.6,9.7883,1.1576,0,2.4687,2.8641e-4,32455,8010,38.92,0.118,260.97,228.14,2.3421,0.29332,20744278,5300.1,48.696,0.59843,0.60082,0.36522,0.10203,0.13118,0.21599,0.50417,6.7258e-5,0,0,0,0,0.0017805,0.012602,14.016,154.28,80.578,9.2398e-5,NaN,6.8802,872.24,335.47,0.01,0.063748
0.69625,30.973,98.228,149.51,99.561,151.75,5.0466,5.8417e-5,5.0466,6.6323e-4,16.237,25.959,28.61,-80.6,9.7883,1.1037,0,2.5526,2.9099e-4,32428,7982.5,38.908,0.11797,261.2,228.09,2.3619,0.29785,21062349,5284.3,50.215,0.59878,0.60095,0.36512,0.10212,0.13153,0.2054,0.48298,7.9133e-5,0,0,0,0,0.0018463,0.012798,14.016,154.28,80.553,9.6917e-5,NaN,6.8739,872.13,335.46,0.01,0.064025
0.70625,31.963,99.724,149.16,101.08,151.41,5.2102,6.1657e-5,5.2102,6.7803e-4,16.497,25.983,28.61,-80.6,9.7883,1.056,0,2.6355,3.1632e-4,32400,7954.9,38.896,0.11794,261.4,228.04,2.3801,0.30236,2.138e7,5270.3,51.758,0.59912,0.60112,0.36502,0.10222,0.13189,0.19607,0.46491,4.9151e-4,0,0,0,0,0.0019099,0.012993,14.016,154.28,80.527,1.0325e-4,NaN,6.8674,872.03,335.46,0.01,0.0643
0.71625,32.968,101.22,149.04,102.59,151.29,5.3765,6.5009e-5,5.3765,6.9278e-4,16.758,26.045,28.61,-80.6,9.7883,1.0119,0,2.7179,3.5397e-4,32373,7927.8,38.884,0.1179,261.6,228,2.3972,0.30688,21696903,5263.7,53.325,0.59948,0.60131,0.36492,0.10231,0.13224,0.1875,0.44793,-2.444e-4,0,0,0,0,0.0019718,0.013188,14.016,154.28,80.5,1.1001e-4,NaN,6.8609,871.92,335.46,0.01,0.064608
0.72625,33.987,102.71,148.92,104.11,151.2,5.5454,6.8474e-5,5.5454,7.0749e-4,17.019,26.113,28.61,-80.6,9.7883,0.96798,0,2.7995,3.8024e-4,32346,7901.2,38.873,0.11787,261.79,227.95,2.4143,0.31138,22013577,5257.8,54.915,0.59984,0.60152,0.36482,0.10241,0.1326,0.179,0.42971,3.692e-4,0,0,0,0,0.002032,0.013382,14.016,154.28,80.472,1.1663e-4,NaN,6.8543,871.81,335.45,0.01,0.064882
0.73625,35.022,104.2,148.81,105.62,151.1,5.7169,7.2055e-5,5.7169,7.2215e-4,17.28,26.184,28.61,-80.6,9.7883,0.92421,0,2.8802,3.8102e-4,32320,7874.8,38.861,0.11784,261.98,227.9,2.4313,0.31589,2.233e7,5251.9,56.529,0.6002,0.60174,0.36471,0.10251,0.13297,0.17055,0.41242,-4.9938e-4,0,0,0,0,0.0020899,0.013577,14.016,154.28,80.444,1.2532e-4,NaN,6.8476,871.7,335.45,0.01,0.065155
