# Time (s),Altitude (m),Vertical velocity (m/s),Vertical acceleration (m/s²),Total velocity (m/s),Total acceleration (m/s²),Position East of launch (m),Position North of launch (m),Lateral distance (m),Lateral direction (°),Lateral velocity (m/s),Lateral acceleration (m/s²),Latitude (°),Longitude (°),Gravitational acceleration (m/s²),Angle of attack (°),Roll rate (°/s),Pitch rate (°/s),Yaw rate (°/s),Mass (g),Propellant mass (g),Longitudinal moment of inertia (kg·m²),Rotational moment of inertia (kg·m²),CP location (cm),CG location (cm),Stability margin calibers (?),Mach number (?),Reynolds number (?),Thrust (N),Drag force (N),Drag coefficient (?),Axial drag coefficient (?),Friction drag coefficient (?),Pressure drag coefficient (?),Base drag coefficient (?),Normal force coefficient (?),Pitch moment coefficient (?),Yaw moment coefficient (?),Side force coefficient (?),Roll moment coefficient (?),Roll forcing coefficient (?),Roll damping coefficient (?),Pitch damping coefficient (?),Coriolis acceleration (m/s²),Reference length (cm),Reference area (cm²),Vertical orientation (zenith) (°),Lateral orientation (azimuth) (°),Wind velocity (m/s),Air temperature (°C),Air pressure (mbar),Speed of sound (m/s),Simulation time step (s),Computation time (s)
0,0,0,-8.3051,0,8.3674,0,0,0,0,0,1.0197,28.61,-80.6,9.7884,0,0,0,0,25878,3652,38.095,0.11011,NaN,221.26,NaN,0,0,34.885,0,1.7436,1.7436,1.5246,0.099002,0.12,NaN,NaN,NaN,NaN,NaN,NaN,NaN,NaN,0,14.016,154.28,83,0,NaN,7.0752,875.43,335.59,2e-3,0.0049317
2e-3,0,0,-5.6291,0,5.6714,0,0,0,0,0,0.69116,28.61,-80.6,9.7884,0,0,0,0,25878,3652,38.095,0.11011,NaN,221.26,NaN,0,0,104.65,0,1.7436,1.7436,1.5246,0.099002,0.12,NaN,NaN,NaN,NaN,NaN,NaN,NaN,NaN,0,14.016,154.28,83,0,NaN,7.0752,875.43,335.59,2e-3,0.0063825
4e-3,0,0,-2.9528,0,2.975,0,0,0,0,0,0.36256,28.61,-80.6,9.7884,0,0,0,0,25877,3650.8,38.094,0.1101,NaN,221.26,NaN,0,0,174.42,0,1.7436,1.7436,1.5246,0.099002,0.12,NaN,NaN,NaN,NaN,NaN,NaN,NaN,NaN,0,14.016,154.28,83,0,NaN,7.0752,875.43,335.59,2e-3,0.0074704
6e-3,0,0,-0.27628,0,0.27835,0,0,0,0,0,0.033923,28.61,-80.6,9.7884,0,0,0,0,25876,3649.6,38.093,0.1101,NaN,221.26,NaN,0,0,244.19,0,1.7436,1.7436,1.5246,0.099002,0.12,NaN,NaN,NaN,NaN,NaN,NaN,NaN,NaN,0,14.016,154.28,83,0,NaN,7.0752,875.43,335.59,2e-3,0.0085604
8e-3,0,0,2.4005,0,2.4185,0,0,0,0,0,0.29474,28.61,-80.6,9.7884,0,0,0,0,25875,3648.4,38.092,0.1101,NaN,221.25,NaN,0,0,313.96,0,1.7436,1.7436,1.5246,0.099002,0.12,NaN,NaN,NaN,NaN,NaN,NaN,NaN,NaN,0,14.016,154.28,83,0,NaN,7.0752,875.43,335.59,2e-3,0.0093256
0.01,4.8017e-6,0.0048019,5.0775,0.0048379,5.1156,5.8957e-7,0,5.8957e-7,0,5.896e-4,0.62344,28.61,-80.6,9.7884,0,0,0,0,25874,3647.3,38.091,0.1101,NaN,221.25,NaN,1.4416e-5,1022.4,383.73,3.4261e-7,1.7436,1.7436,1.5246,0.099002,0.12,NaN,NaN,NaN,NaN,NaN,NaN,NaN,NaN,6.2079e-7,14.016,154.28,83,0,NaN,7.0752,875.43,335.59,2e-3,0.010117
0.012,2.4561e-5,0.014958,7.7547,0.01507,7.813,3.0158e-6,0,3.0158e-6,0,0.0018366,0.95216,28.61,-80.6,9.7884,0,0,0,0,25872,3646.1,38.09,0.1101,NaN,221.24,NaN,4.4907e-5,3184.7,453.5,3.3245e-6,1.7436,1.7436,1.5246,0.099002,0.12,NaN,NaN,NaN,NaN,NaN,NaN,NaN,NaN,1.9338e-6,14.016,154.28,83,0,NaN,7.0752,875.43,335.59,2e-3,0.01097
0.014,6.9988e-5,0.030469,10.432,0.030698,10.511,8.5934e-6,0,8.5934e-6,0,0.0037411,1.2809,28.61,-80.6,9.7884,0,0,0,0,25871,3644.9,38.089,0.1101,NaN,221.24,NaN,9.1474e-5,6487.1,523.27,1.3794e-5,1.7436,1.7436,1.5246,0.099002,0.12,NaN,NaN,NaN,NaN,NaN,NaN,NaN,NaN,3.939e-6,14.016,154.28,83,0,NaN,7.0752,875.43,335.59,2e-3,0.011804
0.016,1.5179e-4,0.051335,13.11,0.05172,13.208,1.8638e-5,0,1.8638e-5,0,0.0063031,1.6097,28.61,-80.6,9.7884,0,0,0,0,25870,3643.8,38.088,0.1101,NaN,221.24,NaN,1.5412e-4,10930,593.04,3.8107e-5,1.6968,1.6968,1.4778,0.099002,0.12,NaN,NaN,NaN,NaN,NaN,NaN,NaN,NaN,6.6366e-6,14.016,154.28,83,0,NaN,7.0752,875.43,335.59,2e-3,0.012681
0.018,2.8068e-4,0.077556,15.788,0.078139,15.906,3.4463e-5,0,3.4463e-5,0,0.0095227,1.9385,28.61,-80.6,9.7884,0,0,0,0,25869,3642.6,38.087,0.11009,NaN,221.23,NaN,2.3284e-4,16513,662.81,7.6884e-5,1.4999,1.4999,1.2809,0.099002,0.12,NaN,NaN,NaN,NaN,NaN,NaN,NaN,NaN,1.0027e-5,14.016,154.28,83,0,NaN,7.0752,875.43,335.59,2e-3,0.013495
0.02,4.6737e-4,0.10913,18.466,0.10995,18.605,5.7386e-5,0,5.7386e-5,0,0.0134,2.2674,28.61,-80.6,9.7884,0,0,0,0,25868,3641.4,38.086,0.11009,NaN,221.23,NaN,3.2765e-4,23236,732.58,1.3856e-4,1.3652,1.3652,1.1462,0.099002,0.12,NaN,NaN,NaN,NaN,NaN,NaN,NaN,NaN,1.4109e-5,14.016,154.28,83,0,NaN,7.0752,875.43,335.59,2e-3,0.014364
0.022,7.2257e-4,0.14607,21.145,0.14717,21.303,8.8721e-5,0,8.8721e-5,0,0.017935,2.5962,28.61,-80.6,9.7884,0,0,0,0,25867,3640.3,38.084,0.11009,NaN,221.22,NaN,4.3853e-4,31099,802.35,2.3025e-4,1.2663,1.2663,1.0473,0.099002,0.12,NaN,NaN,NaN,NaN,NaN,NaN,NaN,NaN,1.8884e-5,14.016,154.28,83,0,NaN,7.0752,875.43,335.59,2e-3,0.015234
0.024,0.001057,0.18836,23.823,0.18977,24.002,1.2978e-4,0,1.2978e-4,0,0.023128,2.9251,28.61,-80.6,9.7884,0,0,0,0,25865,3639.1,38.083,0.11009,NaN,221.22,NaN,5.655e-4,40104,872.12,3.5986e-4,1.1902,1.1902,0.97119,0.099002,0.12,NaN,NaN,NaN,NaN,NaN,NaN,NaN,NaN,2.4351e-5,14.016,154.28,83,0,NaN,7.0752,875.43,335.59,2e-3,0.016052
0.026,0.0014814,0.23601,26.502,0.23778,26.701,1.8189e-4,0,1.8189e-4,0,0.028978,3.2541,28.61,-80.6,9.7884,0,0,0,0,25864,3637.9,38.082,0.11009,NaN,221.21,NaN,7.0856e-4,50249,941.89,5.361e-4,1.1294,1.1294,0.91041,0.099002,0.12,NaN,NaN,NaN,NaN,NaN,NaN,NaN,NaN,3.0512e-5,14.016,154.28,83,0,NaN,7.0752,875.43,335.59,2e-3,0.016833
0.028,0.0020064,0.28902,29.181,0.29119,29.401,2.4635e-4,0,2.4635e-4,0,0.035487,3.583,28.61,-80.6,9.7884,0,0,0,0,25863,3636.8,38.081,0.11009,NaN,221.21,NaN,8.677e-4,61534,1011.7,7.6846e-4,1.0795,1.0795,0.86053,0.099002,0.12,NaN,NaN,NaN,NaN,NaN,NaN,NaN,NaN,3.7364e-5,14.016,154.28,83,0,NaN,7.0752,875.43,335.59,2e-3,0.017604
0.03,0.0026428,0.34738,31.861,0.34999,32.1,3.2449e-4,0,3.2449e-4,0,0.042653,3.912,28.61,-80.6,9.7884,0,0,0,0,25862,3635.6,38.08,0.11009,NaN,221.21,NaN,0.0010429,73961,1081.4,0.0010672,1.0377,1.0377,0.81872,0.099002,0.12,NaN,NaN,NaN,NaN,NaN,NaN,NaN,NaN,4.491e-5,14.016,154.28,83,0,NaN,7.0752,875.43,335.59,2e-3,0.018454
0.032,0.0034013,0.41111,34.54,0.41419,34.8,4.1762e-4,0,4.1762e-4,0,0.050478,4.241,28.61,-80.6,9.7884,0,0,0,0,25861,3634.4,38.079,0.11008,NaN,221.2,NaN,0.0012342,87529,1151.2,0.0014432,1.002,1.002,0.78304,0.099002,0.12,NaN,NaN,NaN,NaN,NaN,NaN,NaN,NaN,5.3148e-5,14.016,154.28,83,0,NaN,7.0752,875.43,335.59,2e-3,0.019228
0.034,0.0042926,0.48019,37.22,0.4838,37.5,5.2706e-4,0,5.2706e-4,0,0.05896,4.5701,28.61,-80.6,9.7884,0,0,0,0,25860,3633.2,38.078,0.11008,NaN,221.2,NaN,0.0014416,102237,1221,0.0019084,0.97118,0.97118,0.75217,0.099002,0.12,NaN,NaN,NaN,NaN,NaN,NaN,NaN,NaN,6.208e-5,14.016,154.28,83,0,NaN,7.0752,875.43,335.59,2e-3,0.019998
0.036,0.0053274,0.55464,39.901,0.5588,40.2,6.5412e-4,0,6.5412e-4,0,0.068101,4.8992,28.61,-80.6,9.7884,0,0,0,0,25858,3632.1,38.077,0.11008,NaN,221.19,NaN,0.0016651,118087,1290.7,0.0024751,0.94414,0.94414,0.72514,0.099002,0.12,NaN,NaN,NaN,NaN,NaN,NaN,NaN,NaN,7.1704e-5,14.016,154.28,83,0,NaN,7.0752,875.43,335.59,2e-3,0.020821
0.038,0.0065165,0.63444,42.581,0.6392,42.901,8.0012e-4,0,8.0012e-4,0,0.077899,5.2283,28.61,-80.6,9.7884,0,0,0,0,25857,3630.9,38.076,0.11008,NaN,221.19,NaN,0.0019047,135079,1360.5,0.0031565,0.92021,0.92021,0.70121,0.099002,0.12,NaN,NaN,NaN,NaN,NaN,NaN,NaN,NaN,8.2021e-5,14.016,154.28,83,0,NaN,7.0752,875.43,335.59,2e-3,0.021551
0.04,0.0078705,0.71961,45.261,0.72501,45.601,9.6638e-4,0,9.6638e-4,0,0.088356,5.5574,28.61,-80.6,9.7884,0,0,0,0,25856,3629.7,38.075,0.11008,NaN,221.18,NaN,0.0021604,153211,1430.3,0.0039666,0.89885,0.89885,0.67985,0.099002,0.12,NaN,NaN,NaN,NaN,NaN,NaN,NaN,NaN,9.3031e-5,14.016,154.28,83,0,NaN,7.0751,875.43,335.59,2e-3,0.022632
0.042,0.0094003,0.81013,47.942,0.81622,48.302,0.0011542,0,0.0011542,0,0.099472,5.8866,28.61,-80.6,9.7884,0,0,0,0,25855,3628.6,38.074,0.11008,NaN,221.18,NaN,0.0024322,172485,1500.1,0.0049199,0.87963,0.87963,0.66063,0.099002,0.12,NaN,NaN,NaN,NaN,NaN,NaN,NaN,NaN,1.0473e-4,14.016,154.28,83,0,NaN,7.0751,875.43,335.59,2e-3,0.023622
0.044,0.011116,0.90602,50.623,0.91283,51.004,0.0013649,0,0.0013649,0,0.11125,6.2158,28.61,-80.6,9.7884,0,0,0,0,25854,3627.4,38.073,0.11008,NaN,221.18,NaN,0.0027201,192901,1569.8,0.0060317,0.86223,0.86223,0.64323,0.099002,0.12,NaN,NaN,NaN,NaN,NaN,NaN,NaN,NaN,1.1713e-4,14.016,154.28,83,0,NaN,7.0751,875.43,335.59,2e-3,0.024497
0.046,0.01303,1.0073,53.305,1.0148,53.705,0.0015998,0,0.0015998,0,0.12368,6.545,28.61,-80.6,9.7884,0,0,0,0,25853,3626.2,38.072,0.11008,NaN,221.17,NaN,0.0030241,214458,1639.6,0.0073181,0.84638,0.84638,0.62737,0.099002,0.12,NaN,NaN,NaN,NaN,NaN,NaN,NaN,NaN,1.3022e-4,14.016,154.28,83,0,NaN,7.0751,875.43,335.59,2e-3,0.025436
0.048,0.015151,1.1139,55.986,1.1223,56.407,0.0018603,0,0.0018603,0,0.13677,6.8742,28.61,-80.6,9.7884,0,0,0,0,25851,3625.1,38.071,0.11007,NaN,221.17,NaN,0.0033442,237157,1709.4,0.0087957,0.83186,0.83186,0.61285,0.099002,0.12,NaN,NaN,NaN,NaN,NaN,NaN,NaN,NaN,1.44e-4,14.016,154.28,83,0,NaN,7.0751,875.43,335.59,2e-3,0.026193
0.05,0.017491,1.2259,58.668,1.2351,59.109,0.0021476,0,0.0021476,0,0.15052,7.2035,28.61,-80.6,9.7884,0,0,0,0,25850,3623.9,38.07,0.11007,NaN,221.16,NaN,0.0036803,260998,1779.1,0.010482,0.81849,0.81849,0.59949,0.099002,0.12,NaN,NaN,NaN,NaN,NaN,NaN,NaN,NaN,1.5848e-4,14.016,154.28,83,0,NaN,7.0751,875.43,335.59,2e-3,0.026999
0.052,0.02006,1.3432,61.35,1.3533,61.811,0.002463,0,0.002463,0,0.16492,7.5328,28.61,-80.6,9.7884,0,0,0,0,25849,3622.7,38.069,0.11007,NaN,221.16,NaN,0.0040326,285981,1848.9,0.012395,0.80615,0.80615,0.58714,0.099002,0.12,NaN,NaN,NaN,NaN,NaN,NaN,NaN,NaN,1.7365e-4,14.016,154.28,83,0,NaN,7.0751,875.43,335.59,2e-3,0.027793
0.054,0.022869,1.4659,64.032,1.4769,64.513,0.0028079,0,0.0028079,0,0.17999,7.8622,28.61,-80.6,9.7884,0,0,0,0,25848,3621.5,38.068,0.11007,NaN,221.16,NaN,0.004401,312106,1918.7,0.014553,0.79469,0.79469,0.57569,0.099003,0.12,NaN,NaN,NaN,NaN,NaN,NaN,NaN,NaN,1.8951e-4,14.016,154.28,83,0,NaN,7.0751,875.43,335.59,2e-3,0.028626
0.056,0.025929,1.594,66.715,1.606,67.216,0.0031836,0,0.0031836,0,0.19572,8.1915,28.61,-80.6,9.7884,0,0,0,0,25847,3620.4,38.067,0.11007,NaN,221.15,NaN,0.0047855,339374,1988.4,0.016976,0.78403,0.78403,0.56502,0.099003,0.12,NaN,NaN,NaN,NaN,NaN,NaN,NaN,NaN,2.0607e-4,14.016,154.28,83,0,NaN,7.075,875.43,335.59,2e-3,0.029404
0.058,0.02925,1.7274,69.398,1.7404,69.919,0.0035915,0,0.0035915,0,0.2121,8.5209,28.61,-80.6,9.7884,0,0,0,0,25846,3619.2,38.066,0.11007,NaN,221.15,NaN,0.0051861,367783,2058.2,0.019684,0.77407,0.77407,0.55506,0.099003,0.12,NaN,NaN,NaN,NaN,NaN,NaN,NaN,NaN,2.2332e-4,14.016,154.28,83,0,NaN,7.075,875.43,335.59,2e-3,0.030218
0.06,0.032844,1.8662,72.08,1.8802,72.622,0.0040327,0,0.0040327,0,0.22914,8.8504,28.61,-80.6,9.7884,0,0,0,0,25844,3618,38.065,0.11007,NaN,221.14,NaN,0.0056028,397335,2128,0.022698,0.76474,0.76474,0.54574,0.099003,0.12,NaN,NaN,NaN,NaN,NaN,NaN,NaN,NaN,2.4127e-4,14.016,154.28,83,0,NaN,7.075,875.43,335.59,2e-3,0.03114
0.062,0.03672,2.0104,74.764,2.0255,75.325,0.0045087,0,0.0045087,0,0.24684,9.1798,28.61,-80.6,9.7884,0,0,0,0,25843,3616.9,38.063,0.11006,NaN,221.14,NaN,0.0060357,428030,2197.8,0.026038,0.75598,0.75598,0.53698,0.099003,0.12,NaN,NaN,NaN,NaN,NaN,NaN,NaN,NaN,2.599e-4,14.016,154.28,83,0,NaN,7.075,875.43,335.59,2e-3,0.031968
0.064,0.040891,2.1599,77.447,2.1761,78.029,0.0050207,0,0.0050207,0,0.2652,9.5093,28.61,-80.6,9.7884,0,0,0,0,25842,3615.7,38.062,0.11006,NaN,221.13,NaN,0.0064846,459866,2267.5,0.029728,0.74774,0.74774,0.52873,0.099003,0.12001,NaN,NaN,NaN,NaN,NaN,NaN,NaN,NaN,2.7924e-4,14.016,154.28,83,0,NaN,7.0749,875.42,335.59,2e-3,0.033187
0.066,0.045365,2.3148,80.131,2.3322,80.732,0.0055702,0,0.0055702,0,0.28422,9.8388,28.61,-80.6,9.7884,0,0,0,0,25841,3614.5,38.061,0.11006,NaN,221.13,NaN,0.0069496,492846,2337.3,0.033789,0.73995,0.73995,0.52094,0.099004,0.12001,NaN,NaN,NaN,NaN,NaN,NaN,NaN,NaN,2.9926e-4,14.016,154.28,83,0,NaN,7.0749,875.42,335.59,2e-3,0.034198
0.068,0.050155,2.4751,82.815,2.4937,83.436,0.0061583,0,0.0061583,0,0.3039,10.168,28.61,-80.6,9.7884,0,0,0,0,25840,3613.4,38.06,0.11006,NaN,221.13,NaN,0.0074308,526968,2407.1,0.038246,0.73259,0.73259,0.51358,0.099004,0.12001,NaN,NaN,NaN,NaN,NaN,NaN,NaN,NaN,3.1998e-4,14.016,154.28,83,0,NaN,7.0749,875.42,335.59,2e-3,0.035152
0.07,0.055271,2.6407,84.173,2.6606,84.805,0.0067864,0,0.0067864,0,0.32424,10.335,28.61,-80.6,9.7884,0,0,0,0,25839,3612.2,38.059,0.11006,NaN,221.12,NaN,0.0079281,562233,2442.3,0.043121,0.72562,0.72562,0.50661,0.099004,0.12001,NaN,NaN,NaN,NaN,NaN,NaN,NaN,NaN,3.414e-4,14.016,154.28,83,0,NaN,7.0748,875.42,335.59,2e-3,0.036279
0.072,0.060721,2.8091,84.209,2.8302,84.841,0.0074556,0,0.0074556,0,0.34491,10.34,28.61,-80.6,9.7884,0,0,0,0,25837,3610.4,38.058,0.11006,NaN,221.11,NaN,0.0084335,598078,2443.1,0.048356,0.7191,0.7191,0.50008,0.099004,0.12001,NaN,NaN,NaN,NaN,NaN,NaN,NaN,NaN,3.6316e-4,14.016,154.28,83,0,NaN,7.0748,875.42,335.59,2e-3,0.03706
0.074,0.066507,2.9775,84.246,2.9999,84.879,0.0081661,0,0.0081661,0,0.36559,10.344,28.61,-80.6,9.7884,0,0,0,0,25834,3608.1,38.056,0.11005,NaN,221.11,NaN,0.0089392,633938,2443.8,0.053873,0.71306,0.71306,0.49405,0.099005,0.12001,NaN,NaN,NaN,NaN,NaN,NaN,NaN,NaN,3.8494e-4,14.016,154.28,83,0,NaN,7.0748,875.42,335.59,2e-3,0.03793
0.076,0.072631,3.146,84.284,3.1696,84.917,0.008918,0,0.008918,0,0.38628,10.349,28.61,-80.6,9.7884,0,0,0,0,25832,3605.7,38.053,0.11005,NaN,221.1,NaN,0.0094451,669814,2444.6,0.059671,0.70746,0.70746,0.48845,0.099005,0.12001,NaN,NaN,NaN,NaN,NaN,NaN,NaN,NaN,4.0672e-4,14.016,154.28,83,0,NaN,7.0747,875.42,335.59,2e-3,0.038774
0.078,0.079092,3.3146,84.321,3.3395,84.954,0.0097112,0,0.0097112,0,0.40698,10.353,28.61,-80.6,9.7884,0,0,0,0,25830,3603.3,38.051,0.11005,NaN,221.09,NaN,0.0099512,705706,2445.4,0.065748,0.70224,0.70224,0.48322,0.099005,0.12001,NaN,NaN,NaN,NaN,NaN,NaN,NaN,NaN,4.2851e-4,14.016,154.28,83,0,NaN,7.0747,875.42,335.59,2e-3,0.040373
0.08,0.085889,3.4833,84.359,3.5094,84.992,0.010546,0,0.010546,0,0.42769,10.358,28.61,-80.6,9.7884,0,0,0,0,25827,3601,38.049,0.11004,NaN,221.08,NaN,0.010458,741614,2446.1,0.072104,0.69735,0.69735,0.47833,0.099006,0.12001,NaN,NaN,NaN,NaN,NaN,NaN,NaN,NaN,4.5032e-4,14.016,154.28,83,0,NaN,7.0746,875.42,335.59,2e-3,0.041584
0.082,0.093025,3.652,84.396,3.6794,85.03,0.011422,0,0.011422,0,0.44841,10.363,28.61,-80.6,9.7884,0,0,0,0,25825,3598.6,38.047,0.11004,NaN,221.07,NaN,0.010964,777538,2446.9,0.078737,0.69276,0.69276,0.47374,0.099006,0.12002,NaN,NaN,NaN,NaN,NaN,NaN,NaN,NaN,4.7213e-4,14.016,154.28,83,0,NaN,7.0746,875.42,335.59,2e-3,0.042666
0.084,0.1005,3.8208,84.434,3.8495,85.068,0.01234,0,0.01234,0,0.46913,10.367,28.61,-80.6,9.7884,0,0,0,0,25823,3596.2,38.045,0.11004,NaN,221.06,NaN,0.011471,813478,2447.6,0.085646,0.68844,0.68844,0.46941,0.099006,0.12002,NaN,NaN,NaN,NaN,NaN,NaN,NaN,NaN,4.9396e-4,14.016,154.28,83,0,NaN,7.0745,875.42,335.59,2e-3,0.043591
0.086,0.10831,3.9897,84.471,4.0196,85.106,0.013299,0,0.013299,0,0.48987,10.372,28.61,-80.6,9.7884,0,0,0,0,25820,3593.9,38.043,0.11004,NaN,221.06,NaN,0.011978,849434,2448.4,0.092831,0.68435,0.68435,0.46533,0.099007,0.12002,NaN,NaN,NaN,NaN,NaN,NaN,NaN,NaN,5.1579e-4,14.016,154.28,83,0,NaN,7.0745,875.42,335.59,2e-3,0.044412
0.088,0.11646,4.1586,84.509,4.1899,85.143,0.014299,0,0.014299,0,0.51062,10.376,28.61,-80.6,9.7884,0,0,0,0,25818,3591.5,38.041,0.11003,NaN,221.05,NaN,0.012485,885405,2449.2,0.10029,0.68049,0.68049,0.46146,0.099007,0.12002,NaN,NaN,NaN,NaN,NaN,NaN,NaN,NaN,5.3763e-4,14.016,154.28,83,0,NaN,7.0744,875.42,335.59,2e-3,0.045265
0.09,0.12494,4.3277,84.546,4.3602,85.181,0.015341,0,0.015341,0,0.53137,10.381,28.61,-80.6,9.7884,0,0,0,0,25815,3589.1,38.039,0.11003,NaN,221.04,NaN,0.012993,921393,2449.9,0.10802,0.67682,0.67682,0.45779,0.099008,0.12002,NaN,NaN,NaN,NaN,NaN,NaN,NaN,NaN,5.5948e-4,14.016,154.28,83,0,NaN,7.0744,875.42,335.59,2e-3,0.04617
0.092,0.13377,4.4968,84.584,4.5305,85.219,0.016425,0,0.016425,0,0.55213,10.386,28.61,-80.6,9.7884,0,0,0,0,25813,3586.8,38.036,0.11003,NaN,221.03,NaN,0.0135,957396,2450.7,0.11603,0.67333,0.67333,0.4543,0.099008,0.12002,NaN,NaN,NaN,NaN,NaN,NaN,NaN,NaN,5.8135e-4,14.016,154.28,83,0,NaN,7.0743,875.41,335.59,2e-3,0.046954
0.094,0.14293,4.6659,84.621,4.701,85.257,0.01755,0,0.01755,0,0.57291,10.39,28.61,-80.6,9.7884,0,0,0,0,25811,3584.4,38.034,0.11002,NaN,221.02,NaN,0.014008,993416,2451.4,0.12431,0.67001,0.67001,0.45097,0.099009,0.12003,NaN,NaN,NaN,NaN,NaN,NaN,NaN,NaN,6.0322e-4,14.016,154.28,83,0,NaN,7.0743,875.41,335.59,2e-3,0.04782
0.096,0.15243,4.8352,84.659,4.8715,85.295,0.018716,0,0.018716,0,0.59369,10.395,28.61,-80.6,9.7884,0,0,0,0,25808,3582,38.032,0.11002,NaN,221.01,NaN,0.014516,1029451,2452.2,0.13286,0.66684,0.66684,0.4478,0.099009,0.12003,NaN,NaN,NaN,NaN,NaN,NaN,NaN,NaN,6.251e-4,14.016,154.28,83,0,NaN,7.0742,875.41,335.59,2e-3,0.048652
0.098,0.16227,5.0045,84.696,5.0421,85.332,0.019924,0,0.019924,0,0.61448,10.399,28.61,-80.6,9.7884,0,0,0,0,25806,3579.7,38.03,0.11002,NaN,221,NaN,0.015025,1065502,2453,0.14168,0.66381,0.66381,0.44477,0.09901,0.12003,NaN,NaN,NaN,NaN,NaN,NaN,NaN,NaN,6.4699e-4,14.016,154.28,83,0,NaN,7.0741,875.41,335.59,2e-3,0.049505
0.1,0.17245,5.1739,84.734,5.2128,85.37,0.021174,0,0.021174,0,0.63528,10.404,28.61,-80.6,9.7884,0,0,0,0,25804,3577.3,38.028,0.11002,NaN,221,NaN,0.015533,1101569,2453.7,0.15077,0.6609,0.6609,0.44186,0.09901,0.12003,NaN,NaN,NaN,NaN,NaN,NaN,NaN,NaN,6.6889e-4,14.016,154.28,83,0,NaN,7.0741,875.41,335.59,2e-3,0.050374
0.102,0.18297,5.3434,84.771,5.3836,85.408,0.022465,0,0.022465,0,0.65609,10.409,28.61,-80.6,9.7884,0,0,0,0,25801,3575,38.026,0.11001,NaN,220.99,NaN,0.016042,1137652,2454.5,0.16013,0.65812,0.65812,0.43908,0.099011,0.12003,NaN,NaN,NaN,NaN,NaN,NaN,NaN,NaN,6.908e-4,14.016,154.28,83,0,NaN,7.074,875.41,335.59,2e-3,0.051142
0.104,0.19382,5.513,84.809,5.5544,85.446,0.023798,0,0.023798,0,0.67691,10.413,28.61,-80.6,9.7884,0,0,0,0,25799,3572.6,38.024,0.11001,NaN,220.98,NaN,0.016551,1173750,2455.2,0.16976,0.65545,0.65545,0.4364,0.099011,0.12004,NaN,NaN,NaN,NaN,NaN,NaN,NaN,NaN,7.1272e-4,14.016,154.28,83,0,NaN,7.0739,875.41,335.59,2e-3,0.052015
0.106,0.20502,5.6826,84.846,5.7253,85.483,0.025173,0,0.025173,0,0.69774,10.418,28.61,-80.6,9.7884,0,0,0,0,25797,3570.2,38.021,0.11001,NaN,220.97,NaN,0.017061,1209865,2456,0.17966,0.65288,0.65288,0.43383,0.099012,0.12004,NaN,NaN,NaN,NaN,NaN,NaN,NaN,NaN,7.3465e-4,14.016,154.28,83,0,NaN,7.0739,875.41,335.59,2e-3,0.052783
0.108,0.21655,5.8523,84.884,5.8963,85.521,0.026589,0,0.026589,0,0.71857,10.422,28.61,-80.6,9.7884,0,0,0,0,25794,3567.9,38.019,0.11001,NaN,220.96,NaN,0.01757,1245995,2456.7,0.18983,0.65041,0.65041,0.43135,0.099013,0.12004,NaN,NaN,NaN,NaN,NaN,NaN,NaN,NaN,7.5659e-4,14.016,154.28,83,0,NaN,7.0738,875.41,335.59,2e-3,0.053675
0.11,0.22843,6.0221,84.921,6.0673,85.559,0.028047,0,0.028047,0,0.73942,10.427,28.61,-80.6,9.7884,0,0,0,0,25792,3565.5,38.017,0.11,NaN,220.95,NaN,0.01808,1282142,2457.5,0.20027,0.64802,0.64802,0.42897,0.099013,0.12004,NaN,NaN,NaN,NaN,NaN,NaN,NaN,NaN,7.7854e-4,14.016,154.28,83,0,NaN,7.0737,875.4,335.59,2e-3,0.054692
0.112,0.24064,6.192,84.959,6.2385,85.597,0.029547,0,0.029547,0,0.76028,10.432,28.61,-80.6,9.7884,0,0,0,0,25789,3563.1,38.015,0.11,NaN,220.94,NaN,0.01859,1318304,2458.3,0.21098,0.64573,0.64573,0.42667,0.099014,0.12004,NaN,NaN,NaN,NaN,NaN,NaN,NaN,NaN,8.005e-4,14.016,154.28,83,0,NaN,7.0736,875.4,335.59,2e-3,0.055911
0.114,0.2532,6.3619,84.996,6.4097,85.634,0.031089,0,0.031089,0,0.78114,10.436,28.61,-80.6,9.7884,0,0,0,0,25787,3560.8,38.013,0.11,NaN,220.94,NaN,0.0191,1354482,2459,0.22195,0.64351,0.64351,0.42444,0.099015,0.12005,NaN,NaN,NaN,NaN,NaN,NaN,NaN,NaN,8.2247e-4,14.016,154.28,83,0,NaN,7.0736,875.4,335.59,2e-3,0.057135
0.116,0.26609,6.5319,85.033,6.5809,85.672,0.032672,0,0.032672,0,0.80202,10.441,28.61,-80.6,9.7884,0,0,0,0,25785,3558.4,38.011,0.10999,NaN,220.93,NaN,0.01961,1390676,2459.8,0.23319,0.64136,0.64136,0.4223,0.099015,0.12005,NaN,NaN,NaN,NaN,NaN,NaN,NaN,NaN,8.4445e-4,14.016,154.28,83,0,NaN,7.0735,875.4,335.59,2e-3,0.058048
0.118,0.27932,6.702,85.071,6.7523,85.71,0.034297,0,0.034297,0,0.8229,10.445,28.61,-80.6,9.7884,0,0,0,0,25782,3556,38.009,0.10999,NaN,220.92,NaN,0.020121,1426885,2460.5,0.2447,0.63929,0.63929,0.42022,0.099016,0.12005,NaN,NaN,NaN,NaN,NaN,NaN,NaN,NaN,8.6644e-4,14.016,154.28,83,0,NaN,7.0734,875.4,335.59,2e-3,0.058919
0.12,0.2929,6.8721,85.108,6.9237,85.748,0.035963,0,0.035963,0,0.84379,10.45,28.61,-80.6,9.7884,0,0,0,0,25780,3553.7,38.007,0.10999,NaN,220.91,NaN,0.020632,1463111,2461.3,0.25647,0.63728,0.63728,0.41821,0.099017,0.12006,NaN,NaN,NaN,NaN,NaN,NaN,NaN,NaN,8.8844e-4,14.016,154.28,83,0,NaN,7.0733,875.4,335.59,2e-3,0.059811
0.122,0.30681,7.0424,85.146,7.0952,85.785,0.037672,0,0.037672,0,0.86469,10.455,28.61,-80.6,9.7884,0,0,0,0,25778,3551.3,38.004,0.10999,NaN,220.9,NaN,0.021143,1499352,2462.1,0.26851,0.63533,0.63533,0.41626,0.099018,0.12006,NaN,NaN,NaN,NaN,NaN,NaN,NaN,NaN,9.1044e-4,14.016,154.28,83,0,NaN,7.0732,875.4,335.59,2e-3,0.060571
0.124,0.32107,7.2127,85.183,7.2668,85.823,0.039422,0,0.039422,0,0.8856,10.459,28.61,-80.6,9.7884,0,0,0,0,25775,3548.9,38.002,0.10998,NaN,220.89,NaN,0.021654,1535609,2462.8,0.28082,0.63344,0.63344,0.41436,0.099018,0.12006,NaN,NaN,NaN,NaN,NaN,NaN,NaN,NaN,9.3246e-4,14.016,154.28,83,0,NaN,7.0731,875.39,335.59,2e-3,0.061424
0.126,0.33566,7.383,85.221,7.4385,85.861,0.041214,0,0.041214,0,0.90652,10.464,28.61,-80.6,9.7884,0,0,0,0,25773,3546.6,38,0.10998,NaN,220.88,NaN,0.022166,1571882,2463.6,0.29339,0.63161,0.63161,0.41253,0.099019,0.12006,NaN,NaN,NaN,NaN,NaN,NaN,NaN,NaN,9.5449e-4,14.016,154.28,83,0,NaN,7.073,875.39,335.59,2e-3,0.062225
0.128,0.3506,7.5535,85.258,7.6102,85.898,0.043048,0,0.043048,0,0.92745,10.468,28.61,-80.6,9.7884,0,0,0,0,25771,3544.2,37.998,0.10998,NaN,220.88,NaN,0.022677,1608171,2464.3,0.30623,0.62983,0.62983,0.41075,0.09902,0.12007,NaN,NaN,NaN,NaN,NaN,NaN,NaN,NaN,9.7653e-4,14.016,154.28,83,0,NaN,7.0729,875.39,335.59,2e-3,0.063204
0.13,0.36588,7.724,85.296,7.782,85.936,0.044924,0,0.044924,0,0.94839,10.473,28.61,-80.6,9.7884,0,0,0,0,25768,3541.9,37.996,0.10997,NaN,220.87,NaN,0.023189,1644476,2465.1,0.31933,0.6281,0.6281,0.40901,0.099021,0.12007,NaN,NaN,NaN,NaN,NaN,NaN,NaN,NaN,9.9857e-4,14.016,154.28,83,0,NaN,7.0728,875.39,335.59,2e-3,0.064519
0.132,0.3815,7.8946,85.333,7.9539,85.974,0.046842,0,0.046842,0,0.96934,10.478,28.61,-80.6,9.7884,0,0,0,0,25766,3539.5,37.994,0.10997,NaN,220.86,NaN,0.023702,1680796,2465.9,0.3327,0.62642,0.62642,0.40733,0.099022,0.12007,NaN,NaN,NaN,NaN,NaN,NaN,NaN,NaN,0.0010206,14.016,154.28,83,0,NaN,7.0727,875.39,335.58,2e-3,0.065733
0.134,0.39746,8.0653,85.37,8.1259,86.012,0.048801,0,0.048801,0,0.9903,10.482,28.61,-80.6,9.7884,0,0,0,0,25763,3537.1,37.992,0.10997,NaN,220.85,NaN,0.024214,1717132,2466.6,0.34634,0.62479,0.62479,0.40569,0.099022,0.12008,NaN,NaN,NaN,NaN,NaN,NaN,NaN,NaN,0.0010427,14.016,154.28,83,0,NaN,7.0726,875.39,335.58,2e-3,0.067979
0.136,0.41376,8.2361,85.408,8.2979,86.049,0.050803,0,0.050803,0,1.0113,10.487,28.61,-80.6,9.7884,0,0,0,0,25761,3534.8,37.989,0.10997,NaN,220.84,NaN,0.024727,1753484,2467.4,0.36024,0.6232,0.6232,0.40409,0.099023,0.12008,NaN,NaN,NaN,NaN,NaN,NaN,NaN,NaN,0.0010648,14.016,154.28,83,0,NaN,7.0725,875.39,335.58,2e-3,0.069454
0.138,0.4304,8.4069,85.445,8.47,86.087,0.052846,0,0.052846,0,1.0322,10.491,28.61,-80.6,9.7884,0,0,0,0,25759,3532.4,37.987,0.10996,NaN,220.83,NaN,0.02524,1789852,2468.1,0.3744,0.62164,0.62164,0.40254,0.099024,0.12008,NaN,NaN,NaN,NaN,NaN,NaN,NaN,NaN,0.0010869,14.016,154.28,83,0,NaN,7.0724,875.38,335.58,2e-3,0.070663
0.14,0.44738,8.5778,85.483,8.6422,86.125,0.054932,0,0.054932,0,1.0532,10.496,28.61,-80.6,9.7884,0,0,0,0,25756,3530,37.985,0.10996,NaN,220.82,NaN,0.025753,1826235,2468.9,0.38883,0.62013,0.62013,0.40102,0.099025,0.12009,NaN,NaN,NaN,NaN,NaN,NaN,NaN,NaN,0.0011089,14.016,154.28,83,0,NaN,7.0723,875.38,335.58,2e-3,0.071861
0.142,0.46471,8.7488,85.52,8.8145,86.162,0.057059,0,0.057059,0,1.0742,10.501,28.61,-80.6,9.7884,0,0,0,0,25754,3527.7,37.983,0.10996,NaN,220.82,NaN,0.026266,1862635,2469.7,0.40352,0.61866,0.61866,0.39954,0.099026,0.12009,NaN,NaN,NaN,NaN,NaN,NaN,NaN,NaN,0.0011311,14.016,154.28,83,0,NaN,7.0722,875.38,335.58,2e-3,0.072908
0.144,0.48238,8.9198,85.558,8.9868,86.2,0.059229,0,0.059229,0,1.0952,10.505,28.61,-80.6,9.7884,0,0,0,0,25752,3525.3,37.981,0.10995,NaN,220.81,NaN,0.02678,1899050,2470.4,0.41848,0.61722,0.61722,0.3981,0.099027,0.12009,NaN,NaN,NaN,NaN,NaN,NaN,NaN,NaN,0.0011532,14.016,154.28,83,0,NaN,7.0721,875.38,335.58,2e-3,0.073962
0.146,0.50039,9.091,85.595,9.1592,86.238,0.06144,0,0.06144,0,1.1162,10.51,28.61,-80.6,9.7884,0,0,0,0,25749,3522.9,37.979,0.10995,NaN,220.8,NaN,0.027293,1935481,2471.2,0.4337,0.61582,0.61582,0.39669,0.099028,0.1201,NaN,NaN,NaN,NaN,NaN,NaN,NaN,NaN,0.0011753,14.016,154.28,83,0,NaN,7.0719,875.38,335.58,2e-3,0.075081
0.148,0.51874,9.2622,85.632,9.3317,86.275,0.063694,0,0.063694,0,1.1373,10.514,28.61,-80.6,9.7884,0,0,0,0,25747,3520.6,37.977,0.10995,NaN,220.79,NaN,0.027807,1971927,2471.9,0.44919,0.61445,0.61445,0.39532,0.099029,0.1201,NaN,NaN,NaN,NaN,NaN,NaN,NaN,NaN,0.0011974,14.016,154.28,83,0,NaN,7.0718,875.37,335.58,2e-3,0.075988
0.15,0.53744,9.4335,85.67,9.5043,86.313,0.065989,0,0.065989,0,1.1583,10.519,28.61,-80.6,9.7884,0,0,0,0,25745,3518.2,37.974,0.10995,NaN,220.78,NaN,0.028322,2008390,2472.7,0.46494,0.61311,0.61311,0.39397,0.09903,0.1201,NaN,NaN,NaN,NaN,NaN,NaN,NaN,NaN,0.0012196,14.016,154.28,83,0,NaN,7.0717,875.37,335.58,2e-3,0.076767
0.152,0.55648,9.6048,85.707,9.6769,86.351,0.068327,0,0.068327,0,1.1793,10.524,28.61,-80.6,9.7884,0,0,0,0,25742,3515.8,37.972,0.10994,NaN,220.77,NaN,0.028836,2044868,2473.4,0.48095,0.6118,0.6118,0.39266,0.099031,0.12011,NaN,NaN,NaN,NaN,NaN,NaN,NaN,NaN,0.0012417,14.016,154.28,83,0,NaN,7.0716,875.37,335.58,2e-3,0.07759
0.154,0.57586,9.7762,85.745,9.8497,86.389,0.070707,0,0.070707,0,1.2004,10.528,28.61,-80.6,9.7884,0,0,0,0,25740,3513.5,37.97,0.10994,NaN,220.76,NaN,0.029351,2081362,2474.2,0.49723,0.61052,0.61052,0.39137,0.099032,0.12011,NaN,NaN,NaN,NaN,NaN,NaN,NaN,NaN,0.0012639,14.016,154.28,83,0,NaN,7.0715,875.37,335.58,2e-3,0.078378
0.156,0.59558,9.9477,85.782,10.022,86.426,0.073128,0,0.073128,0,1.2214,10.533,28.61,-80.6,9.7884,0,0,0,0,25737,3511.1,37.968,0.10994,NaN,220.76,NaN,0.029866,2117872,2475,0.51377,0.60927,0.60927,0.39012,0.099033,0.12012,NaN,NaN,NaN,NaN,NaN,NaN,NaN,NaN,0.0012861,14.016,154.28,83,0,NaN,7.0713,875.37,335.58,2e-3,0.079147
0.158,0.61565,10.119,85.819,10.195,86.464,0.075592,0,0.075592,0,1.2425,10.537,28.61,-80.6,9.7884,0,0,0,0,25735,3508.7,37.966,0.10993,NaN,220.75,NaN,0.030381,2154397,2475.7,0.53058,0.60804,0.60804,0.38889,0.099034,0.12012,NaN,NaN,NaN,NaN,NaN,NaN,NaN,NaN,0.0013082,14.016,154.28,83,0,NaN,7.0712,875.36,335.58,2e-3,0.080061
0.16,0.63606,10.291,85.857,10.368,86.502,0.078098,0,0.078098,0,1.2636,10.542,28.61,-80.6,9.7884,0,0,0,0,25733,3506.4,37.964,0.10993,NaN,220.74,NaN,0.030896,2190938,2476.5,0.54765,0.60684,0.60684,0.38768,0.099035,0.12012,NaN,NaN,NaN,NaN,NaN,NaN,NaN,NaN,0.0013304,14.016,154.28,83,0,NaN,7.0711,875.36,335.58,2e-3,0.080952
0.162,0.65681,10.463,85.894,10.541,86.539,0.080647,0,0.080647,0,1.2847,10.546,28.61,-80.6,9.7884,0,0,0,0,25730,3504,37.962,0.10993,NaN,220.73,NaN,0.031412,2227495,2477.2,0.56498,0.60567,0.60567,0.3865,0.099036,0.12013,NaN,NaN,NaN,NaN,NaN,NaN,NaN,NaN,0.0013526,14.016,154.28,83,0,NaN,7.0709,875.36,335.58,2e-3,0.081744
0.164,0.67791,10.635,85.932,10.714,86.577,0.083237,0,0.083237,0,1.3058,10.551,28.61,-80.6,9.7884,0,0,0,0,25728,3501.7,37.959,0.10993,NaN,220.72,NaN,0.031928,2264068,2478,0.58258,0.60452,0.60452,0.38535,0.099038,0.12013,NaN,NaN,NaN,NaN,NaN,NaN,NaN,NaN,0.0013748,14.016,154.28,83,0,NaN,7.0708,875.36,335.58,2e-3,0.082573
0.166,0.69935,10.806,85.969,10.888,86.615,0.08587,0,0.08587,0,1.3269,10.556,28.61,-80.6,9.7884,0,0,0,0,25726,3499.3,37.957,0.10992,NaN,220.71,NaN,0.032444,2300656,2478.8,0.60044,0.60339,0.60339,0.38422,0.099039,0.12014,NaN,NaN,NaN,NaN,NaN,NaN,NaN,NaN,0.0013971,14.016,154.28,83,0,NaN,7.0707,875.35,335.58,2e-3,0.083437
0.168,0.72114,10.978,86.006,11.061,86.652,0.088544,0,0.088544,0,1.348,10.56,28.61,-80.6,9.7884,0,0,0,0,25723,3496.9,37.955,0.10992,NaN,220.7,NaN,0.03296,2337261,2479.5,0.61857,0.60229,0.60229,0.38311,0.09904,0.12014,NaN,NaN,NaN,NaN,NaN,NaN,NaN,NaN,0.0014193,14.016,154.28,83,0,NaN,7.0705,875.35,335.58,2e-3,0.084198
0.17,0.74326,11.15,86.044,11.234,86.69,0.091261,0,0.091261,0,1.3691,10.565,28.61,-80.6,9.7884,0,0,0,0,25721,3494.6,37.953,0.10992,NaN,220.7,NaN,0.033476,2373880,2480.3,0.63696,0.6012,0.6012,0.38202,0.099041,0.12015,NaN,NaN,NaN,NaN,NaN,NaN,NaN,NaN,0.0014415,14.016,154.28,83,0,NaN,7.0704,875.35,335.58,2e-3,0.085348
0.172,0.76574,11.322,86.081,11.407,86.727,0.094021,0,0.094021,0,1.3902,10.569,28.61,-80.6,9.7884,0,0,0,0,25719,3492.2,37.951,0.10991,NaN,220.69,NaN,0.033993,2410516,2481,0.65561,0.60014,0.60014,0.38095,0.099042,0.12015,NaN,NaN,NaN,NaN,NaN,NaN,NaN,NaN,0.0014638,14.016,154.28,83,0,NaN,7.0702,875.35,335.58,2e-3,0.086183
0.174,0.78855,11.495,86.118,11.581,86.765,0.096822,0,0.096822,0,1.4114,10.574,28.61,-80.6,9.7884,0,0,0,0,25716,3489.8,37.949,0.10991,NaN,220.68,NaN,0.03451,2447167,2481.8,0.67452,0.5991,0.5991,0.3799,0.099044,0.12015,NaN,NaN,NaN,NaN,NaN,NaN,NaN,NaN,0.001486,14.016,154.28,83,0,NaN,7.0701,875.35,335.58,2e-3,0.086929
0.176,0.81172,11.667,86.156,11.755,86.803,0.099666,0,0.099666,0,1.4325,10.579,28.61,-80.6,9.7884,0,0,0,0,25714,3487.5,37.947,0.10991,NaN,220.67,NaN,0.035027,2483834,2482.6,0.6937,0.59808,0.59808,0.37887,0.099045,0.12016,NaN,NaN,NaN,NaN,NaN,NaN,NaN,NaN,0.0015083,14.016,154.28,83,0,NaN,7.0699,875.34,335.58,2e-3,0.087843
0.178,0.83522,11.839,86.193,11.928,86.84,0.10255,0,0.10255,0,1.4537,10.583,28.61,-80.6,9.7884,0,0,0,0,25711,3485.1,37.944,0.10991,NaN,220.66,NaN,0.035544,2520517,2483.3,0.71315,0.59707,0.59707,0.37786,0.099046,0.12016,NaN,NaN,NaN,NaN,NaN,NaN,NaN,NaN,0.0015306,14.016,154.28,83,0,NaN,7.0698,875.34,335.58,2e-3,0.088935
0.18,0.85907,12.012,86.23,12.102,86.878,0.10548,0,0.10548,0,1.4748,10.588,28.61,-80.6,9.7884,0,0,0,0,25709,3482.7,37.942,0.1099,NaN,220.65,NaN,0.036062,2557215,2484.1,0.73285,0.59609,0.59609,0.37687,0.099047,0.12017,NaN,NaN,NaN,NaN,NaN,NaN,NaN,NaN,0.0015529,14.016,154.28,83,0,NaN,7.0696,875.34,335.58,2e-3,0.090368
0.182,0.88327,12.184,86.268,12.276,86.916,0.10845,0,0.10845,0,1.496,10.592,28.61,-80.6,9.7884,0,0,0,0,25707,3480.4,37.94,0.1099,NaN,220.64,NaN,0.03658,2593929,2484.8,0.75282,0.59512,0.59512,0.3759,0.099049,0.12017,NaN,NaN,NaN,NaN,NaN,NaN,NaN,NaN,0.0015752,14.016,154.28,83,0,NaN,7.0695,875.34,335.58,2e-3,0.091252
0.184,0.90781,12.357,86.305,12.449,86.953,0.11147,0,0.11147,0,1.5172,10.597,28.61,-80.6,9.7884,0,0,0,0,25704,3478,37.938,0.1099,NaN,220.63,NaN,0.037098,2630659,2485.6,0.77306,0.59417,0.59417,0.37494,0.09905,0.12018,NaN,NaN,NaN,NaN,NaN,NaN,NaN,NaN,0.0015975,14.016,154.28,83,0,NaN,7.0693,875.33,335.58,2e-3,0.092121
0.186,0.9327,12.529,86.343,12.623,86.991,0.11452,0,0.11452,0,1.5384,10.602,28.61,-80.6,9.7884,0,0,0,0,25702,3475.6,37.936,0.10989,NaN,220.63,NaN,0.037616,2667404,2486.4,0.79356,0.59323,0.59323,0.374,0.099051,0.12018,NaN,NaN,NaN,NaN,NaN,NaN,NaN,NaN,0.0016198,14.016,154.28,83,0,NaN,7.0691,875.33,335.58,2e-3,0.092908
0.188,0.95793,12.702,86.38,12.797,87.029,0.11762,0,0.11762,0,1.5596,10.606,28.61,-80.6,9.7884,0,0,0,0,25700,3473.3,37.934,0.10989,NaN,220.62,NaN,0.038135,2704166,2487.1,0.81432,0.59232,0.59232,0.37307,0.099053,0.12019,NaN,NaN,NaN,NaN,NaN,NaN,NaN,NaN,0.0016421,14.016,154.28,83,0,NaN,7.069,875.33,335.58,2e-3,0.093757
0.19,0.9835,12.875,86.417,12.971,87.066,0.12076,0,0.12076,0,1.5808,10.611,28.61,-80.6,9.7884,0,0,0,0,25697,3470.9,37.932,0.10989,NaN,220.61,NaN,0.038653,2740942,2487.9,0.83534,0.59141,0.59141,0.37216,0.099054,0.12019,NaN,NaN,NaN,NaN,NaN,NaN,NaN,NaN,0.0016645,14.016,154.28,83,0,NaN,7.0688,875.32,335.58,2e-3,0.0946
0.192,1.0094,13.048,86.455,13.146,87.104,0.12394,0,0.12394,0,1.602,10.615,28.61,-80.6,9.7884,0,0,0,0,25695,3468.5,37.929,0.10989,NaN,220.6,NaN,0.039172,2777735,2488.6,0.85663,0.59052,0.59052,0.37127,0.099056,0.1202,NaN,NaN,NaN,NaN,NaN,NaN,NaN,NaN,0.0016868,14.016,154.28,83,0,NaN,7.0686,875.32,335.58,2e-3,0.095528
0.194,1.0357,13.221,86.492,13.32,87.141,0.12717,0,0.12717,0,1.6233,10.62,28.61,-80.6,9.7884,0,0,0,0,25693,3466.2,37.927,0.10988,NaN,220.59,NaN,0.039692,2814543,2489.4,0.87819,0.58965,0.58965,0.37039,0.099057,0.1202,NaN,NaN,NaN,NaN,NaN,NaN,NaN,NaN,0.0017092,14.016,154.28,83,0,NaN,7.0685,875.32,335.58,2e-3,0.096356
0.196,1.0623,13.394,86.529,13.494,87.179,0.13044,0,0.13044,0,1.6445,10.624,28.61,-80.6,9.7884,0,0,0,0,25690,3463.8,37.925,0.10988,NaN,220.58,NaN,0.040211,2851367,2490.1,0.90001,0.58879,0.58879,0.36952,0.099058,0.12021,NaN,NaN,NaN,NaN,NaN,NaN,NaN,NaN,0.0017315,14.016,154.28,83,0,NaN,7.0683,875.32,335.58,2e-3,0.097123
0.198,1.0893,13.567,86.567,13.668,87.217,0.13375,0,0.13375,0,1.6658,10.629,28.61,-80.6,9.7884,0,0,0,0,25688,3461.5,37.923,0.10988,NaN,220.57,NaN,0.040731,2888206,2490.9,0.92209,0.58795,0.58795,0.36867,0.09906,0.12022,NaN,NaN,NaN,NaN,NaN,NaN,NaN,NaN,0.0017539,14.016,154.28,83,0,NaN,7.0681,875.31,335.58,2e-3,0.097971
0.2,1.1166,13.74,86.604,13.843,87.254,0.1371,0,0.1371,0,1.687,10.634,28.61,-80.6,9.7884,0,0,0,0,25685,3459.1,37.921,0.10987,NaN,220.57,NaN,0.04125,2925061,2491.7,0.94523,0.58761,0.58761,0.36833,0.099061,0.12022,NaN,NaN,NaN,NaN,NaN,NaN,NaN,NaN,0.0017763,14.016,154.28,83,0,NaN,7.0679,875.31,335.58,2e-3,0.098854
0.202,1.1442,13.913,86.641,14.017,87.292,0.14049,0,0.14049,0,1.7083,10.638,28.61,-80.6,9.7884,0,0,0,0,25683,3456.7,37.919,0.10987,NaN,220.56,NaN,0.04177,2961932,2492.4,0.96922,0.58762,0.58762,0.36833,0.099063,0.12023,NaN,NaN,NaN,NaN,NaN,NaN,NaN,NaN,0.0017987,14.016,154.28,83,0,NaN,7.0678,875.31,335.58,2e-3,0.09964
0.204,1.1722,14.086,86.678,14.192,87.329,0.14393,0,0.14393,0,1.7296,10.643,28.61,-80.6,9.7884,0,0,0,0,25681,3454.4,37.917,0.10987,NaN,220.55,NaN,0.042291,2998818,2493.2,0.99352,0.58762,0.58762,0.36832,0.099064,0.12023,NaN,NaN,NaN,NaN,NaN,NaN,NaN,NaN,0.0018211,14.016,154.28,83,0,NaN,7.0676,875.3,335.58,2e-3,0.10067
0.206,1.2006,14.26,86.716,14.367,87.367,0.14741,0,0.14741,0,1.7509,10.647,28.61,-80.6,9.7884,0,0,0,0,25678,3452,37.914,0.10987,NaN,220.54,NaN,0.042811,3035720,2493.9,1.0181,0.58763,0.58763,0.36832,0.099066,0.12024,NaN,NaN,NaN,NaN,NaN,NaN,NaN,NaN,0.0018435,14.016,154.28,83,0,NaN,7.0674,875.3,335.58,2e-3,0.10181
0.208,1.2293,14.433,86.753,14.541,87.404,0.15093,0,0.15093,0,1.7722,10.652,28.61,-80.6,9.7884,0,0,0,0,25676,3449.6,37.912,0.10986,NaN,220.53,NaN,0.043332,3072638,2494.7,1.0431,0.58763,0.58763,0.36832,0.099068,0.12024,NaN,NaN,NaN,NaN,NaN,NaN,NaN,NaN,0.0018659,14.016,154.28,83,0,NaN,7.0672,875.3,335.58,2e-3,0.10269
0.21,1.2583,14.607,86.791,14.716,87.442,0.1545,0,0.1545,0,1.7935,10.657,28.61,-80.6,9.7884,0,0,0,0,25674,3447.3,37.91,0.10986,NaN,220.52,NaN,0.043853,3109571,2495.5,1.0683,0.58764,0.58764,0.36832,0.099069,0.12025,NaN,NaN,NaN,NaN,NaN,NaN,NaN,NaN,0.0018884,14.016,154.28,83,0,NaN,7.067,875.3,335.58,2e-3,0.10355
0.212,1.2877,14.78,86.831,14.891,87.483,0.15811,0,0.15811,0,1.8148,10.662,28.61,-80.6,9.7884,0,0,0,0,25671,3444.9,37.908,0.10986,NaN,220.51,NaN,0.044374,3146520,2496.3,1.0939,0.58764,0.58764,0.36832,0.099071,0.12026,NaN,NaN,NaN,NaN,NaN,NaN,NaN,NaN,0.0019108,14.016,154.28,83,0,NaN,7.0668,875.29,335.58,2e-3,0.10447
0.214,1.3174,14.954,86.872,15.066,87.525,0.16176,0,0.16176,0,1.8361,10.667,28.61,-80.6,9.7884,0,0,0,0,25669,3442.5,37.906,0.10985,NaN,220.51,NaN,0.044896,3183486,2497.2,1.1197,0.58765,0.58765,0.36832,0.099072,0.12026,NaN,NaN,NaN,NaN,NaN,NaN,NaN,NaN,0.0019332,14.016,154.28,83,0,NaN,7.0666,875.29,335.58,2e-3,0.10532
0.216,1.3475,15.128,86.913,15.241,87.566,0.16545,0,0.16545,0,1.8574,10.672,28.61,-80.6,9.7884,0,0,0,0,25666,3440.1,37.904,0.10985,NaN,220.5,NaN,0.045417,3220469,2498,1.1459,0.58766,0.58766,0.36831,0.099074,0.12027,NaN,NaN,NaN,NaN,NaN,NaN,NaN,NaN,0.0019557,14.016,154.28,83,0,NaN,7.0664,875.29,335.58,2e-3,0.1066
0.218,1.3779,15.301,86.954,15.416,87.607,0.16919,0,0.16919,0,1.8788,10.677,28.61,-80.6,9.7884,0,0,0,0,25664,3437.6,37.901,0.10985,NaN,220.49,NaN,0.045939,3257470,2498.9,1.1724,0.58766,0.58766,0.36831,0.099076,0.12027,NaN,NaN,NaN,NaN,NaN,NaN,NaN,NaN,0.0019782,14.016,154.28,83,0,NaN,7.0662,875.28,335.58,2e-3,0.10789
0.22,1.4087,15.475,86.995,15.592,87.649,0.17297,0,0.17297,0,1.9001,10.682,28.61,-80.6,9.7884,0,0,0,0,25662,3435.2,37.899,0.10985,NaN,220.48,NaN,0.046461,3294487,2499.7,1.1992,0.58767,0.58767,0.36831,0.099077,0.12028,NaN,NaN,NaN,NaN,NaN,NaN,NaN,NaN,0.0020007,14.016,154.28,83,0,NaN,7.066,875.28,335.58,2e-3,0.10913
0.222,1.4398,15.649,87.037,15.767,87.69,0.17679,0,0.17679,0,1.9215,10.687,28.61,-80.6,9.7884,0,0,0,0,25659,3432.8,37.897,0.10984,NaN,220.47,NaN,0.046984,3331522,2500.6,1.2263,0.58767,0.58767,0.36831,0.099079,0.12029,NaN,NaN,NaN,NaN,NaN,NaN,NaN,NaN,0.0020232,14.016,154.28,83,0,NaN,7.0658,875.28,335.58,2e-3,0.11024
0.224,1.4713,15.823,87.078,15.942,87.732,0.18065,0,0.18065,0,1.9429,10.692,28.61,-80.6,9.7884,0,0,0,0,25657,3430.4,37.895,0.10984,NaN,220.46,NaN,0.047507,3368574,2501.4,1.2538,0.58768,0.58768,0.36831,0.099081,0.12029,NaN,NaN,NaN,NaN,NaN,NaN,NaN,NaN,0.0020457,14.016,154.28,83,0,NaN,7.0656,875.27,335.58,2e-3,0.11142
0.226,1.5031,15.998,87.119,16.118,87.773,0.18456,0,0.18456,0,1.9643,10.697,28.61,-80.6,9.7884,0,0,0,0,25654,3428,37.893,0.10984,NaN,220.45,NaN,0.04803,3405644,2502.3,1.2815,0.58769,0.58769,0.3683,0.099083,0.1203,NaN,NaN,NaN,NaN,NaN,NaN,NaN,NaN,0.0020682,14.016,154.28,83,0,NaN,7.0654,875.27,335.58,2e-3,0.11251
0.228,1.5353,16.172,87.16,16.293,87.814,0.18851,0,0.18851,0,1.9857,10.702,28.61,-80.6,9.7884,0,0,0,0,25652,3425.5,37.89,0.10983,NaN,220.44,NaN,0.048553,3442730,2503.2,1.3096,0.58769,0.58769,0.3683,0.099084,0.12031,NaN,NaN,NaN,NaN,NaN,NaN,NaN,NaN,0.0020907,14.016,154.28,83,0,NaN,7.0652,875.27,335.58,2e-3,0.11369
0.23,1.5678,16.346,87.201,16.469,87.856,0.1925,0,0.1925,0,2.0071,10.707,28.61,-80.6,9.7884,0,0,0,0,25649,3423.1,37.888,0.10983,NaN,220.43,NaN,0.049076,3479834,2504,1.338,0.5877,0.5877,0.3683,0.099086,0.12031,NaN,NaN,NaN,NaN,NaN,NaN,NaN,NaN,0.0021133,14.016,154.28,83,0,NaN,7.065,875.26,335.58,2e-3,0.11492
0.232,1.6007,16.521,87.242,16.645,87.897,0.19654,0,0.19654,0,2.0285,10.712,28.61,-80.6,9.7884,0,0,0,0,25647,3420.7,37.886,0.10983,NaN,220.43,NaN,0.0496,3516955,2504.9,1.3667,0.58771,0.58771,0.3683,0.099088,0.12032,NaN,NaN,NaN,NaN,NaN,NaN,NaN,NaN,0.0021358,14.016,154.28,83,0,NaN,7.0648,875.26,335.58,2e-3,0.11613
0.234,1.6339,16.695,87.283,16.821,87.939,0.20062,0,0.20062,0,2.0499,10.717,28.61,-80.6,9.7884,0,0,0,0,25645,3418.3,37.884,0.10983,NaN,220.42,NaN,0.050124,3554094,2505.7,1.3958,0.58771,0.58771,0.3683,0.09909,0.12033,NaN,NaN,NaN,NaN,NaN,NaN,NaN,NaN,0.0021584,14.016,154.28,83,0,NaN,7.0646,875.26,335.58,2e-3,0.11727
0.236,1.6675,16.87,87.324,16.996,87.98,0.20474,0,0.20474,0,2.0713,10.722,28.61,-80.6,9.7884,0,0,0,0,25642,3415.9,37.881,0.10982,NaN,220.41,NaN,0.050648,3591249,2506.6,1.4251,0.58772,0.58772,0.3683,0.099092,0.12033,NaN,NaN,NaN,NaN,NaN,NaN,NaN,NaN,0.0021809,14.016,154.28,83,0,NaN,7.0644,875.25,335.58,2e-3,0.11857
0.238,1.7014,17.044,87.365,17.172,88.021,0.2089,0,0.2089,0,2.0928,10.727,28.61,-80.6,9.7884,0,0,0,0,25640,3413.4,37.879,0.10982,NaN,220.4,NaN,0.051172,3628422,2507.4,1.4548,0.58773,0.58773,0.36829,0.099093,0.12034,NaN,NaN,NaN,NaN,NaN,NaN,NaN,NaN,0.0022035,14.016,154.28,83,0,NaN,7.0641,875.25,335.58,2e-3,0.11978
0.24,1.7356,17.219,87.406,17.348,88.063,0.21311,0,0.21311,0,2.1142,10.732,28.61,-80.6,9.7884,0,0,0,0,25637,3411,37.877,0.10982,NaN,220.39,NaN,0.051697,3665611,2508.3,1.4848,0.58773,0.58773,0.36829,0.099095,0.12035,NaN,NaN,NaN,NaN,NaN,NaN,NaN,NaN,0.0022261,14.016,154.28,83,0,NaN,7.0639,875.24,335.58,2e-3,0.12094
0.242,1.7703,17.394,87.447,17.525,88.104,0.21736,0,0.21736,0,2.1357,10.737,28.61,-80.6,9.7884,0,0,0,0,25635,3408.6,37.875,0.10981,NaN,220.38,NaN,0.052222,3702818,2509.1,1.5151,0.58774,0.58774,0.36829,0.099097,0.12035,NaN,NaN,NaN,NaN,NaN,NaN,NaN,NaN,0.0022487,14.016,154.28,83,0,NaN,7.0637,875.24,335.58,2e-3,0.1222
0.244,1.8052,17.569,87.489,17.701,88.146,0.22165,0,0.22165,0,2.1572,10.742,28.61,-80.6,9.7884,0,0,0,0,25633,3406.2,37.873,0.10981,NaN,220.37,NaN,0.052747,3.74e6,2510,1.5458,0.58775,0.58775,0.36829,0.099099,0.12036,NaN,NaN,NaN,NaN,NaN,NaN,NaN,NaN,0.0022713,14.016,154.28,83,0,NaN,7.0635,875.24,335.58,2e-3,0.1238
0.246,1.8405,17.744,87.53,17.877,88.187,0.22599,0,0.22599,0,2.1787,10.747,28.61,-80.6,9.7884,0,0,0,0,25630,3403.8,37.87,0.10981,NaN,220.36,NaN,0.053272,3777284,2510.8,1.5767,0.58776,0.58776,0.36829,0.099101,0.12037,NaN,NaN,NaN,NaN,NaN,NaN,NaN,NaN,0.0022939,14.016,154.28,83,0,NaN,7.0632,875.23,335.58,2e-3,0.12514
0.248,1.8762,17.919,87.571,18.053,88.228,0.23037,0,0.23037,0,2.2002,10.752,28.61,-80.6,9.7884,0,0,0,0,25628,3401.4,37.868,0.10981,NaN,220.35,NaN,0.053798,3814542,2511.7,1.608,0.58776,0.58776,0.36828,0.099103,0.12038,NaN,NaN,NaN,NaN,NaN,NaN,NaN,NaN,0.0023166,14.016,154.28,83,0,NaN,7.063,875.23,335.58,2e-3,0.12646
0.25,1.9122,18.094,87.612,18.23,88.27,0.23479,0,0.23479,0,2.2217,10.757,28.61,-80.6,9.7884,0,0,0,0,25625,3398.9,37.866,0.1098,NaN,220.35,NaN,0.054324,3851818,2512.6,1.6396,0.58777,0.58777,0.36828,0.099105,0.12038,NaN,NaN,NaN,NaN,NaN,NaN,NaN,NaN,0.0023392,14.016,154.28,83,0,NaN,7.0628,875.23,335.58,2e-3,0.12785
0.252,1.9486,18.269,87.653,18.407,88.311,0.23925,0,0.23925,0,2.2432,10.762,28.61,-80.6,9.7884,0,0,0,0,25623,3396.5,37.864,0.1098,NaN,220.34,NaN,0.05485,3889111,2513.4,1.6715,0.58778,0.58778,0.36828,0.099107,0.12039,NaN,NaN,NaN,NaN,NaN,NaN,NaN,NaN,0.0023619,14.016,154.28,83,0,NaN,7.0625,875.22,335.58,2e-3,0.12921
0.254,1.9853,18.445,87.694,18.583,88.352,0.24376,0,0.24376,0,2.2647,10.767,28.61,-80.6,9.7884,0,0,0,0,25620,3394.1,37.862,0.1098,NaN,220.33,NaN,0.055376,3926421,2514.3,1.7038,0.58778,0.58778,0.36828,0.099109,0.1204,NaN,NaN,NaN,NaN,NaN,NaN,NaN,NaN,0.0023845,14.016,154.28,83,0,NaN,7.0623,875.22,335.58,2e-3,0.13046
0.256,2.0223,18.62,87.735,18.76,88.394,0.24831,0,0.24831,0,2.2863,10.772,28.61,-80.6,9.7884,0,0,0,0,25618,3391.7,37.859,0.10979,NaN,220.32,NaN,0.055903,3963748,2515.1,1.7364,0.58779,0.58779,0.36827,0.099111,0.12041,NaN,NaN,NaN,NaN,NaN,NaN,NaN,NaN,0.0024072,14.016,154.28,83,0,NaN,7.0621,875.21,335.58,2e-3,0.13181
0.258,2.0598,18.796,87.776,18.937,88.435,0.25291,0,0.25291,0,2.3078,10.778,28.61,-80.6,9.7884,0,0,0,0,25616,3389.3,37.857,0.10979,NaN,220.31,NaN,0.05643,4001092,2516,1.7693,0.5878,0.5878,0.36827,0.099113,0.12041,NaN,NaN,NaN,NaN,NaN,NaN,NaN,NaN,0.0024299,14.016,154.28,83,0,NaN,7.0618,875.21,335.58,2e-3,0.13322
0.26,2.0975,18.971,87.817,19.114,88.476,0.25754,0,0.25754,0,2.3294,10.783,28.61,-80.6,9.7884,0,0,0,0,25613,3386.8,37.855,0.10979,NaN,220.3,NaN,0.056957,4038453,2516.8,1.8025,0.58781,0.58781,0.36827,0.099115,0.12042,NaN,NaN,NaN,NaN,NaN,NaN,NaN,NaN,0.0024526,14.016,154.28,83,0,NaN,7.0616,875.21,335.58,2e-3,0.13446
0.262,2.1356,19.147,87.858,19.291,88.518,0.26222,0,0.26222,0,2.3509,10.788,28.61,-80.6,9.7884,0,0,0,0,25611,3384.4,37.853,0.10978,NaN,220.29,NaN,0.057484,4075832,2517.7,1.836,0.58782,0.58782,0.36827,0.099117,0.12043,NaN,NaN,NaN,NaN,NaN,NaN,NaN,NaN,0.0024753,14.016,154.28,83,0,NaN,7.0613,875.2,335.58,2e-3,0.13614
0.264,2.1741,19.322,87.899,19.468,88.559,0.26695,0,0.26695,0,2.3725,10.793,28.61,-80.6,9.7884,0,0,0,0,25608,3382,37.851,0.10978,NaN,220.28,NaN,0.058012,4113227,2518.5,1.8699,0.58782,0.58782,0.36827,0.09912,0.12044,NaN,NaN,NaN,NaN,NaN,NaN,NaN,NaN,0.002498,14.016,154.28,83,0,NaN,7.0611,875.2,335.58,2e-3,0.13745
0.266,2.2129,19.498,87.94,19.645,88.6,0.27171,0,0.27171,0,2.3941,10.798,28.61,-80.6,9.7884,0,0,0,0,25606,3379.6,37.848,0.10978,NaN,220.27,NaN,0.05854,4150640,2519.4,1.9041,0.58783,0.58783,0.36826,0.099122,0.12045,NaN,NaN,NaN,NaN,NaN,NaN,NaN,NaN,0.0025208,14.016,154.28,83,0,NaN,7.0608,875.19,335.58,2e-3,0.13872
0.268,2.2521,19.674,87.981,19.822,88.642,0.27652,0,0.27652,0,2.4157,10.803,28.61,-80.6,9.7884,0,0,0,0,25604,3377.2,37.846,0.10978,NaN,220.27,NaN,0.059068,4188070,2520.2,1.9386,0.58784,0.58784,0.36826,0.099124,0.12045,NaN,NaN,NaN,NaN,NaN,NaN,NaN,NaN,0.0025435,14.016,154.28,83,0,NaN,7.0606,875.19,335.58,2e-3,0.13988
0.27,2.2916,19.85,88.022,19.999,88.683,0.28138,0,0.28138,0,2.4373,10.808,28.61,-80.6,9.7884,0,0,0,0,25601,3374.7,37.844,0.10977,NaN,220.26,NaN,0.059596,4225516,2521.1,1.9735,0.58785,0.58785,0.36826,0.099126,0.12046,NaN,NaN,NaN,NaN,NaN,NaN,NaN,NaN,0.0025662,14.016,154.28,83,0,NaN,7.0603,875.19,335.58,2e-3,0.14086
0.272,2.3315,20.026,88.063,20.177,88.724,0.28627,0,0.28627,0,2.4589,10.813,28.61,-80.6,9.7884,0,0,0,0,25599,3372.3,37.842,0.10977,NaN,220.25,NaN,0.060125,4262980,2522,2.0087,0.58785,0.58785,0.36826,0.099128,0.12047,NaN,NaN,NaN,NaN,NaN,NaN,NaN,NaN,0.002589,14.016,154.28,83,0,NaN,7.06,875.18,335.58,2e-3,0.14163
0.274,2.3717,20.202,88.104,20.354,88.766,0.29121,0,0.29121,0,2.4805,10.818,28.61,-80.6,9.7884,0,0,0,0,25596,3369.9,37.839,0.10977,NaN,220.24,NaN,0.060654,4300462,2522.8,2.0442,0.58786,0.58786,0.36825,0.099131,0.12048,NaN,NaN,NaN,NaN,NaN,NaN,NaN,NaN,0.0026118,14.016,154.28,83,0,NaN,7.0598,875.18,335.58,2e-3,0.14233
0.276,2.4123,20.379,88.145,20.532,88.807,0.2962,0,0.2962,0,2.5022,10.823,28.61,-80.6,9.7884,0,0,0,0,25594,3367.5,37.837,0.10976,NaN,220.23,NaN,0.061183,4337960,2523.7,2.08,0.58787,0.58787,0.36825,0.099133,0.12049,NaN,NaN,NaN,NaN,NaN,NaN,NaN,NaN,0.0026346,14.016,154.28,83,0,NaN,7.0595,875.17,335.58,2e-3,0.14311
0.278,2.4533,20.555,88.041,20.709,88.856,0.30122,0,0.30122,0,2.5238,12.009,28.61,-80.6,9.7884,0,0,0,0,25591,3365.1,37.835,0.10976,265.58,220.22,3.2364,0.061712,4375475,2524.7,2.1162,0.58788,0.58788,0.36825,0.099135,0.1205,0,4.7165e-4,-1.705e-4,0,0,0,0,0,0.0026574,14.016,154.28,83,0,NaN,7.0593,875.17,335.58,3e-3,0.14408
0.281,2.5153,20.819,88.108,20.976,88.924,0.30885,0,0.30885,1.4783e-7,2.5599,12.017,28.61,-80.6,9.7884,0.0097531,0,7.2558e-6,0,25588,3362,37.832,0.10976,265.54,220.21,3.234,0.062507,4431779,2526.3,2.1711,0.58789,0.58789,0.36825,0.099139,0.12051,0.0017019,0.005336,-7.9169e-5,0,0,0,0,0,0.0026916,14.016,154.28,83,0,NaN,7.0589,875.16,335.58,0.0045,0.14487
0.2855,2.6099,21.216,88.209,21.376,89.026,0.32049,5.0152e-9,0.32049,8.9661e-7,2.6139,12.029,28.61,-80.6,9.7884,0.023922,0,4.0939e-5,-1.1647e-6,25584,3357.5,37.828,0.10975,265.47,220.19,3.2306,0.0637,4516305,2528.7,2.2548,0.58791,0.58791,0.36824,0.099144,0.12053,0.0041776,0.013003,-4.6569e-4,0,0,0,0,0,0.002743,14.016,154.28,83,0,NaN,7.0582,875.15,335.58,0.00675,0.14581
0.29225,2.7551,21.811,88.361,21.977,89.179,0.33841,1.8294e-8,0.33841,3.0973e-6,2.6952,12.047,28.61,-80.6,9.7884,0.044197,0,1.5049e-4,-5.7653e-7,25577,3350.7,37.822,0.10974,265.38,220.17,3.2259,0.065491,4643253,2532.3,2.3834,0.58794,0.58794,0.36823,0.099152,0.12056,0.007727,0.025297,-2.7342e-4,0,0,0,0,0,0.0028201,14.016,154.28,83,0,NaN,7.0573,875.14,335.58,0.01,0.14661
0.30225,2.9776,22.695,88.585,22.869,89.404,0.36596,5.3789e-8,0.36596,8.4213e-6,2.8157,12.074,28.61,-80.6,9.7884,0.072247,0,4.4792e-4,0,25567,3340.6,37.813,0.10973,265.26,220.13,3.2196,0.06815,4831675,2536.6,2.5811,0.58799,0.588,0.36822,0.099164,0.1206,0.012651,0.040976,3.6213e-4,0,0,0,0,0,0.0029347,14.016,154.28,83,0,NaN,7.0558,875.11,335.57,0.01,0.14735
0.31225,3.209,23.582,88.79,23.764,89.61,0.39472,1.0891e-7,0.39472,1.5809e-5,2.9365,12.098,28.61,-80.6,9.7884,0.098155,0,9.1363e-4,-2.0312e-6,25555,3328.5,37.801,0.10972,265.14,220.09,3.2145,0.070815,5020530,2540.9,2.7871,0.58803,0.58805,0.36821,0.099177,0.12065,0.017212,0.05486,-3.5378e-4,0,0,0,0,0,0.0030495,14.016,154.28,83,0,NaN,7.0543,875.09,335.57,0.01,0.14809
0.32225,3.4493,24.47,88.994,24.66,89.816,0.42469,1.8449e-7,0.42469,2.489e-5,3.0575,12.122,28.61,-80.6,9.7884,0.12215,0,0.0015632,-3.8991e-7,25543,3316.4,37.79,0.1097,265.03,220.04,3.21,0.073487,5209810,2545.1,3.0015,0.58808,0.58811,0.36819,0.099191,0.1207,0.021448,0.069241,-1.4248e-4,0,0,0,0,1.1367e-8,0.0031646,14.016,154.28,83,0,NaN,7.0528,875.06,335.57,0.01,0.14884
0.33225,3.6984,25.36,89.199,25.559,90.022,0.45587,2.8136e-7,0.45587,3.5362e-5,3.1787,12.145,28.61,-80.6,9.7884,0.14442,0,0.0024099,-1.1523e-6,25531,3304.3,37.779,0.10969,264.93,220,3.2062,0.076164,5399515,2549.4,3.2245,0.58814,0.58817,0.36818,0.099205,0.12075,0.02539,0.081304,3.4696e-4,0,0,0,0,2.5151e-8,0.0032799,14.016,154.28,83,0,NaN,7.0512,875.04,335.57,0.01,0.14968
0.34225,3.9565,26.252,89.403,26.459,90.227,0.48827,4.0033e-7,0.48827,4.6976e-5,3.3002,12.169,28.61,-80.6,9.7884,0.16513,0,0.0034629,-2.3381e-6,25519,3292.2,37.768,0.10967,264.84,219.95,3.2028,0.078848,5589643,2553.7,3.456,0.58819,0.58824,0.36816,0.099219,0.12081,0.029066,0.092906,1.1918e-4,0,0,0,0,4.8456e-8,0.0033955,14.016,154.28,83,0,NaN,7.0495,875.01,335.57,0.01,0.15059
0.35225,4.2235,27.147,89.589,27.362,90.415,0.52188,5.4223e-7,0.52188,5.953e-5,3.422,12.191,28.61,-80.6,9.7884,0.18444,0,0.0047351,-3.9987e-6,25506,3280.1,37.757,0.10966,264.76,219.91,3.2,0.081538,5780194,2557.5,3.6962,0.58824,0.58831,0.36814,0.099235,0.12086,0.0325,0.10388,-4.371e-4,0,0,0,0,8.4722e-8,0.0035114,14.016,154.28,83,0,NaN,7.0477,874.98,335.57,0.01,0.15139
0.36225,4.4994,28.043,89.752,28.266,90.579,0.55671,7.0789e-7,0.55671,7.2856e-5,3.5439,12.209,28.61,-80.6,9.7884,0.20247,0,0.0062419,-3.7249e-6,25494,3267.9,37.746,0.10964,264.68,219.86,3.1976,0.084233,5971131,2560.7,3.9449,0.5883,0.58838,0.36813,0.09925,0.12092,0.035714,0.11402,1.4673e-4,0,0,0,0,1.3795e-7,0.0036275,14.016,154.28,83,0,NaN,7.046,874.95,335.57,0.01,0.15208
0.37225,4.7844,28.941,89.915,29.172,90.743,0.59276,8.9814e-7,0.59276,8.6814e-5,3.666,12.228,28.61,-80.6,9.7884,0.21927,0,0.0079946,-4.5284e-6,25482,3255.5,37.734,0.10963,264.61,219.82,3.1956,0.086934,6162401,2563.9,4.2023,0.58836,0.58845,0.36811,0.099266,0.12098,0.038714,0.12418,1.4679e-4,0,0,0,0,2.1246e-7,0.0037438,14.016,154.28,83,4.7106e-7,NaN,7.0441,874.92,335.57,0.01,0.15291
0.38225,5.0783,29.84,90.078,30.08,90.907,0.63003,1.1138e-6,0.63003,1.0129e-4,3.7883,12.246,28.61,-80.6,9.7884,0.235,0,0.010006,0,25470,3243.2,37.723,0.10962,264.54,219.77,3.194,0.089639,6354006,2567.1,4.4683,0.58842,0.58852,0.36809,0.099283,0.12104,0.041527,0.13222,-2.775e-4,0,0,0,0,3.13e-7,0.0038604,14.016,154.28,83,8.6089e-7,NaN,7.0422,874.89,335.57,0.01,0.15375
0.39225,5.3812,30.742,90.241,30.989,91.07,0.66852,1.3557e-6,0.66852,1.1619e-4,3.9108,12.265,28.61,-80.6,9.7884,0.24974,0,0.012282,1.3167e-6,25457,3230.8,37.711,0.1096,264.47,219.73,3.1928,0.09235,6545943,2570.3,4.743,0.58848,0.5886,0.36808,0.0993,0.12111,0.044168,0.14144,-9.2995e-5,0,0,0,0,4.4438e-7,0.0039771,14.016,154.28,83,9.3586e-7,NaN,7.0402,874.86,335.57,0.01,0.15501
0.40225,5.6931,31.644,90.403,31.9,91.234,0.70825,1.6247e-6,0.70825,1.3143e-4,4.0335,12.283,28.61,-80.6,9.7884,0.26356,0,0.014845,3.0788e-6,25445,3218.5,37.7,0.10959,264.41,219.68,3.1918,0.095065,6738212,2573.5,5.0265,0.58855,0.58868,0.36806,0.099318,0.12117,0.04665,0.14902,3.286e-4,0,0,0,0,6.1264e-7,0.0040941,14.016,154.28,83,9.9585e-7,NaN,7.0382,874.82,335.56,0.01,0.15623
0.41225,6.0141,32.549,90.566,32.813,91.397,0.7492,1.9215e-6,0.7492,1.4695e-4,4.1564,12.301,28.61,-80.6,9.7884,0.27654,0,0.017702,5.4337e-6,25432,3206.1,37.689,0.10957,264.36,219.63,3.1911,0.097785,6930812,2576.7,5.3188,0.58862,0.58876,0.36804,0.099337,0.12124,0.048984,0.15661,-2.7038e-4,0,0,0,0,8.2332e-7,0.0042112,14.016,154.28,82.999,9.2254e-7,NaN,7.0361,874.79,335.56,0.01,0.15772
0.42225,6.3441,33.455,90.728,33.727,91.561,0.79137,2.2471e-6,0.79137,1.6269e-4,4.2794,12.32,28.61,-80.6,9.7884,0.28874,0,0.020871,6.265e-6,25420,3193.8,37.677,0.10956,264.31,219.59,3.1907,0.10051,7123743,2579.9,5.6199,0.58869,0.58884,0.36802,0.099355,0.12131,0.051181,0.16285,-4.0091e-4,0,0,0,0,1.0833e-6,0.0043286,14.016,154.28,82.999,7.8234e-7,NaN,7.034,874.75,335.56,0.01,0.1589
0.43225,6.6832,34.362,90.89,34.643,91.723,0.83479,2.6021e-6,0.83479,1.786e-4,4.4027,12.338,28.61,-80.6,9.7884,0.30021,0,0.02436,1.1792e-5,25408,3181.4,37.666,0.10954,264.26,219.54,3.1906,0.10324,7317002,2583.1,5.93,0.58876,0.58892,0.368,0.099375,0.12139,0.053249,0.16972,4.8569e-4,0,0,0,0,1.3987e-6,0.0044462,14.016,154.28,82.999,3.8114e-7,NaN,7.0318,874.72,335.56,0.01,0.16021
0.44225,7.0313,35.272,91.052,35.561,91.886,0.87943,2.9875e-6,0.87943,1.9464e-4,4.5261,12.356,28.61,-80.6,9.7884,0.311,0,0.028175,1.3607e-5,25395,3169.1,37.654,0.10953,264.21,219.5,3.1906,0.10597,7510590,2586.3,6.2489,0.58883,0.58901,0.36798,0.099395,0.12146,0.055198,0.17587,-1.927e-4,0,0,0,0,1.7758e-6,0.004564,14.016,154.28,82.999,-1.3087e-7,NaN,7.0295,874.68,335.56,0.01,0.16147
0.45225,7.3886,36.182,91.213,36.48,92.049,0.92531,3.4041e-6,0.92531,2.1078e-4,4.6497,12.374,28.61,-80.6,9.7884,0.32116,0,0.032334,1.5615e-5,25383,3156.7,37.643,0.10951,264.17,219.45,3.1909,0.10871,7704505,2589.5,6.5769,0.58891,0.58909,0.36795,0.099416,0.12154,0.057034,0.18226,2.2364e-4,0,0,0,0,2.2225e-6,0.004682,14.016,154.28,82.998,-9.1212e-7,NaN,7.0272,874.64,335.56,0.01,0.16253
0.46225,7.755,37.095,91.375,37.401,92.211,0.97242,3.8525e-6,0.97242,2.2699e-4,4.7734,12.393,28.61,-80.6,9.7884,0.33072,0,0.036853,1.9502e-5,25371,3144.4,37.631,0.1095,264.13,219.4,3.1914,0.11146,7898747,2592.7,6.9139,0.58898,0.58918,0.36793,0.099437,0.12162,0.058765,0.18796,-1.1166e-4,0,0,0,0,2.7466e-6,0.0048002,14.016,154.28,82.998,-1.7592e-6,NaN,7.0248,874.6,335.56,0.01,0.16367
0.47225,8.1305,38.009,91.536,38.323,92.373,1.0208,4.3337e-6,1.0208,2.4325e-4,4.8974,12.411,28.61,-80.6,9.7884,0.33972,0,0.041742,1.7435e-5,25358,3132,37.62,0.10948,264.1,219.36,3.192,0.11421,8093315,2595.9,7.26,0.58906,0.58927,0.36791,0.099458,0.1217,0.060396,0.19281,1.4686e-4,0,0,0,0,3.3561e-6,0.0049186,14.016,154.28,82.998,-2.525e-6,NaN,7.0224,874.56,335.55,0.01,0.16504
0.48225,8.5152,38.925,91.697,39.247,92.535,1.0704,4.8483e-6,1.0704,2.5953e-4,5.0215,12.429,28.61,-80.6,9.7884,0.34819,0,0.047008,1.7451e-5,25346,3119.7,37.608,0.10947,264.06,219.31,3.1929,0.11696,8288207,2599.1,7.6152,0.58915,0.58936,0.36789,0.099481,0.12178,0.061933,0.19725,4.9672e-4,0,0,0,0,4.0583e-6,0.0050372,14.016,154.28,82.997,-3.0473e-6,NaN,7.0199,874.52,335.55,0.01,0.16617
0.49225,8.909,39.842,91.851,40.173,92.691,1.1212,5.3973e-6,1.1212,2.7581e-4,5.1459,12.446,28.61,-80.6,9.7884,0.35616,0,0.052669,1.1063e-5,25334,3107.3,37.597,0.10945,264.03,219.26,3.1939,0.11972,8483424,2602.1,7.9796,0.58923,0.58946,0.36786,0.099504,0.12186,0.06338,0.20265,-1.2361e-4,0,0,0,0,4.8624e-6,0.0051561,14.016,154.28,82.997,-3.1732e-6,NaN,7.0173,874.48,335.55,0.01,0.16737
0.50225,9.312,40.761,91.988,41.1,92.828,1.1733,5.9813e-6,1.1733,2.9209e-4,5.2704,12.462,28.61,-80.6,9.7884,0.36365,0,0.058722,1.3729e-5,25321,3094.9,37.585,0.10944,264,219.22,3.195,0.12249,8678949,2604.7,8.3533,0.58931,0.58955,0.36784,0.099527,0.12195,0.064743,0.20684,-4.0079e-4,0,0,0,0,5.7746e-6,0.0052751,14.016,154.28,82.996,-3.0702e-6,NaN,7.0147,874.44,335.55,0.01,0.16882
0.51225,9.7242,41.681,92.123,42.029,92.965,1.2266,6.6013e-6,1.2266,3.0835e-4,5.395,12.477,28.61,-80.6,9.7884,0.3707,0,0.065198,1.7099e-5,25309,3082.4,37.573,0.10942,263.97,219.17,3.1964,0.12525,8874746,2607.3,8.7361,0.5894,0.58965,0.36781,0.099551,0.12204,0.066026,0.21069,4.9887e-4,0,0,0,0,6.8077e-6,0.0053943,14.016,154.28,82.996,-3.2441e-6,NaN,7.012,874.39,335.55,0.01,0.1702
0.52225,10.146,42.603,92.259,42.959,93.101,1.2812,7.2579e-6,1.2812,3.2458e-4,5.5198,12.492,28.61,-80.6,9.7884,0.37731,0,0.072095,1.9368e-5,25296,3069.8,37.562,0.10941,263.94,219.12,3.1979,0.12803,9070812,2609.8,9.1281,0.58949,0.58975,0.36779,0.099576,0.12213,0.067231,0.21506,1.0274e-4,0,0,0,0,7.9676e-6,0.0055137,14.016,154.28,82.995,-3.1993e-6,NaN,7.0093,874.35,335.55,0.01,0.17137
0.53225,10.576,43.526,92.394,43.89,93.237,1.337,7.9521e-6,1.337,3.4077e-4,5.6448,12.508,28.61,-80.6,9.7884,0.38352,0,0.079434,1.5167e-5,25284,3057.3,37.55,0.10939,263.92,219.08,3.1996,0.1308,9267146,2612.4,9.5294,0.58958,0.58985,0.36776,0.099601,0.12222,0.068363,0.21825,-1.0049e-4,0,0,0,0,9.2662e-6,0.0056333,14.016,154.28,82.994,-3.0928e-6,NaN,7.0065,874.3,335.54,0.01,0.17245
0.54225,11.016,44.45,92.53,44.823,93.373,1.3941,8.6845e-6,1.3941,3.5693e-4,5.7699,12.523,28.61,-80.6,9.7884,0.38933,0,0.087226,1.3487e-5,25271,3044.7,37.538,0.10938,263.9,219.03,3.2013,0.13358,9463747,2615,9.94,0.58968,0.58995,0.36773,0.099627,0.12232,0.069425,0.22196,1.7536e-5,0,0,0,0,1.0713e-5,0.005753,14.016,154.28,82.993,-2.5983e-6,NaN,7.0036,874.26,335.54,0.01,0.17382
0.55225,11.465,45.376,92.665,45.757,93.509,1.4524,9.456e-6,1.4524,3.7303e-4,5.8952,12.538,28.61,-80.6,9.7884,0.39476,0,0.095468,1.2569e-5,25259,3032.2,37.526,0.10936,263.88,218.98,3.2033,0.13637,9660614,2617.5,10.36,0.58978,0.59006,0.3677,0.099653,0.12242,0.070418,0.22529,-1.1969e-4,0,0,0,0,1.2315e-5,0.0058729,14.016,154.28,82.992,-1.7784e-6,NaN,7.0007,874.21,335.54,0.01,0.17506
0.56225,11.924,46.303,92.799,46.692,93.645,1.512,1.0267e-5,1.512,3.8908e-4,6.0206,12.554,28.61,-80.6,9.7884,0.39983,0,0.10418,1.6372e-5,25246,3019.6,37.515,0.10935,263.86,218.93,3.2053,0.13916,9857746,2620.1,10.789,0.58987,0.59016,0.36768,0.09968,0.12252,0.071346,0.22834,-3.4459e-4,0,0,0,0,1.4084e-5,0.005993,14.016,154.28,82.991,-9.1363e-7,NaN,6.9977,874.16,335.54,0.01,0.17626
0.57225,12.391,47.231,92.934,47.629,93.78,1.5728,1.112e-5,1.5728,4.0507e-4,6.1462,12.57,28.61,-80.6,9.7884,0.40455,0,0.11336,1.8905e-5,25233,3007.1,37.503,0.10933,263.84,218.89,3.2074,0.14195,10055142,2622.6,11.228,0.58997,0.59027,0.36765,0.099707,0.12262,0.072211,0.23144,-4.3658e-4,0,0,0,0,1.6026e-5,0.0061133,14.016,154.28,82.99,-1.3495e-7,NaN,6.9947,874.11,335.54,0.01,0.17739
0.58225,12.868,48.161,93.068,48.567,93.915,1.6349,1.2013e-5,1.6349,4.21e-4,6.2719,12.585,28.61,-80.6,9.7884,0.40893,0,0.12305,2.623e-5,25221,2994.6,37.491,0.10932,263.83,218.84,3.2097,0.14475,10252802,2625.2,11.676,0.59008,0.59038,0.36762,0.099736,0.12272,0.073014,0.23398,3.6317e-4,0,0,0,0,1.816e-5,0.0062337,14.016,154.28,82.989,5.5185e-7,NaN,6.9916,874.06,335.54,0.01,0.1784
0.59225,13.355,49.092,93.202,49.507,94.05,1.6983,1.2949e-5,1.6983,4.3687e-4,6.3978,12.601,28.61,-80.6,9.7884,0.41298,0,0.13323,2.3764e-5,25208,2982,37.479,0.1093,263.81,218.79,3.2121,0.14755,10450723,2627.7,12.134,0.59018,0.59049,0.36759,0.099764,0.12283,0.073758,0.2365,-4.2034e-4,0,0,0,0,2.0487e-5,0.0063543,14.016,154.28,82.988,1.2812e-6,NaN,6.9884,874.01,335.53,0.01,0.17969
0.60225,13.85,50.024,93.335,50.448,94.184,1.7629,1.3928e-5,1.7629,4.5268e-4,6.5238,12.617,28.61,-80.6,9.7884,0.41671,0,0.14392,2.4662e-5,25196,2969.5,37.467,0.10929,263.8,218.74,3.2146,0.15035,10648905,2630.3,12.602,0.59029,0.5906,0.36756,0.099794,0.12294,0.074443,0.23944,2.9121e-4,0,0,0,0,2.3024e-5,0.0064751,14.016,154.28,82.986,2.2256e-6,NaN,6.9852,873.96,335.53,0.01,0.18099
0.61225,14.355,50.958,93.469,51.39,94.319,1.8287,1.4951e-5,1.8287,4.6843e-4,6.65,12.633,28.61,-80.6,9.7884,0.42013,0,0.15513,2.0319e-5,25183,2956.9,37.455,0.10927,263.79,218.7,3.2172,0.15316,10847347,2632.9,13.079,0.5904,0.59072,0.36753,0.099824,0.12305,0.075072,0.24173,-4.5788e-4,0,0,0,0,2.5778e-5,0.006596,14.016,154.28,82.985,3.6885e-6,NaN,6.9819,873.9,335.53,0.01,0.18206
0.62225,14.869,51.893,93.602,52.333,94.453,1.8959,1.6019e-5,1.8959,4.841e-4,6.7764,12.649,28.61,-80.6,9.7884,0.42324,0,0.16686,2.2069e-5,25171,2944.4,37.444,0.10926,263.78,218.65,3.2199,0.15597,11046048,2635.4,13.565,0.59051,0.59083,0.36749,0.099854,0.12316,0.075645,0.24403,-3.0274e-4,0,0,0,0,2.8759e-5,0.0067172,14.016,154.28,82.983,5.5141e-6,NaN,6.9785,873.85,335.53,0.01,0.18338
0.63225,15.393,52.829,93.728,53.278,94.579,1.9643,1.7132e-5,1.9643,4.9972e-4,6.9029,12.665,28.61,-80.6,9.7884,0.42605,0,0.17913,1.6645e-5,25158,2931.8,37.432,0.10924,263.77,218.6,3.2227,0.15879,11245008,2637.8,14.062,0.59062,0.59095,0.36746,0.099885,0.12328,0.076164,0.24554,3.0507e-4,0,0,0,0,3.1979e-5,0.0068385,14.016,154.28,82.982,7.7073e-6,NaN,6.9751,873.79,335.53,0.01,0.18474
0.64225,15.926,53.767,93.826,54.224,94.679,2.0339,1.8291e-5,2.0339,5.1526e-4,7.0296,12.677,28.61,-80.6,9.7884,0.42857,0,0.19194,5.5769e-6,25146,2919.2,37.42,0.10923,263.76,218.55,3.2256,0.16161,11444209,2639.5,14.568,0.59074,0.59107,0.36743,0.099917,0.1234,0.07663,0.24738,2.8527e-4,0,0,0,0,3.5447e-5,0.0069599,14.016,154.28,82.98,1.1191e-5,NaN,6.9717,873.74,335.52,0.01,0.18589
