# Time (s),Altitude (ft),Vertical velocity (ft/s),Vertical acceleration (ft/s²),Total velocity (ft/s),Total acceleration (ft/s²),Position East of launch (ft),Position North of launch (ft),Lateral distance (ft),Lateral direction (°),Lateral velocity (ft/s),Lateral acceleration (ft/s²),Latitude (°),Longitude (°),Gravitational acceleration (ft/s²),Angle of attack (°),Roll rate (r/s),Pitch rate (r/s),Yaw rate (r/s),Mass (oz),Propellant mass (oz),Longitudinal moment of inertia (lb·ft²),Rotational moment of inertia (lb·ft²),CP location (in),CG location (in),Stability margin calibers (?),Mach number (?),Reynolds number (?),Thrust (N),Drag force (N),Drag coefficient (?),Axial drag coefficient (?),Friction drag coefficient (?),Pressure drag coefficient (?),Base drag coefficient (?),Normal force coefficient (?),Pitch moment coefficient (?),Yaw moment coefficient (?),Side force coefficient (?),Roll moment coefficient (?),Roll forcing coefficient (?),Roll damping coefficient (?),Pitch damping coefficient (?),Coriolis acceleration (ft/s²),Reference length (in),Reference area (in²),Vertical orientation (zenith) (°),Lateral orientation (azimuth) (°),Wind velocity (ft/s),Air temperature (°F),Air pressure (mbar),Speed of sound (ft/s),Simulation time step (s),Computation time (s)
0,0,0,34.446,0,34.704,0,0,0,0,0,4.2294,33,107,32.137,83,0,0,0,71.957,4.0372,8.1953,0.058685,NaN,27.825,NaN,0.011873,337748,41.412,7.2505e-5,0.67003,0.0028511,0.55,8.1885e-6,0.12002,NaN,NaN,NaN,NaN,NaN,NaN,NaN,NaN,0,2.25,3.9761,83,0,NaN,58.098,1004.2,1115.8,0.01,0.0017509
0.01,0.0017223,0.34446,166.66,0.34704,167.91,2.1147e-4,0,2.1147e-4,0,0.042294,20.463,33,107,32.137,81.514,0,0,0,71.957,4.0372,8.1953,0.058685,NaN,27.825,NaN,0.011905,338672,124.23,1.2768e-4,0.66969,0.0049934,0.54967,8.2334e-6,0.12002,NaN,NaN,NaN,NaN,NaN,NaN,NaN,NaN,4.2581e-5,2.25,3.9761,83,0,NaN,58.098,1004.2,1115.8,0.01,0.0020161
0.02,0.013501,2.0114,283.6,2.0265,285.73,0.0016577,0,0.0016577,0,0.24697,34.822,33,107,32.137,74.509,0,0,0,71.94,4.0207,8.193,0.058683,NaN,27.821,NaN,0.012209,347315,197.45,7.4903e-4,0.66663,0.027854,0.5466,8.6591e-6,0.12002,NaN,NaN,NaN,NaN,NaN,NaN,NaN,NaN,2.4865e-4,2.25,3.9761,83,0,NaN,58.098,1004.2,1115.8,0.01,0.0022579
0.03,0.047798,4.8482,308.52,4.8846,310.84,0.0058689,0,0.0058689,0,0.59528,37.882,33,107,32.137,63.657,0,0,0,71.919,3.9994,8.1899,0.05868,NaN,27.816,NaN,0.013118,373186,213,0.0036412,0.65803,0.11728,0.538,9.9973e-6,0.12002,NaN,NaN,NaN,NaN,NaN,NaN,NaN,NaN,5.9932e-4,2.25,3.9761,83,0,NaN,58.098,1004.2,1115.8,0.01,0.0026574
0.04,0.11171,7.9346,318.15,7.9941,320.54,0.013716,0,0.013716,0,0.97424,39.064,33,107,32.137,53.769,0,0,0,71.888,3.9685,8.1854,0.058676,NaN,27.808,NaN,0.014562,414267,218.94,0.009862,0.64589,0.25777,0.52585,1.232e-5,0.12003,NaN,NaN,NaN,NaN,NaN,NaN,NaN,NaN,9.8085e-4,2.25,3.9761,83,0,NaN,58.097,1004.2,1115.8,0.01,0.0029168
0.05,0.20697,11.117,327.8,11.201,330.26,0.025413,0,0.025413,0,1.365,40.249,33,107,32.137,45.635,0,0,0,71.853,3.933,8.1803,0.058672,NaN,27.799,NaN,0.016418,467054,224.88,0.019536,0.63246,0.40173,0.51241,1.566e-5,0.12004,NaN,NaN,NaN,NaN,NaN,NaN,NaN,NaN,0.0013743,2.25,3.9761,83,0,NaN,58.097,1004.2,1115.8,0.01,0.0031664
0.06,0.33454,14.397,337.46,14.505,339.99,0.041076,0,0.041076,0,1.7677,41.434,33,107,32.137,39.291,0,0,0,71.817,3.8974,8.1751,0.058668,NaN,27.79,NaN,0.018673,531206,230.81,0.03249,0.6186,0.51648,0.49854,2.0259e-5,0.12005,NaN,NaN,NaN,NaN,NaN,NaN,NaN,NaN,0.0017797,2.25,3.9761,83,0,NaN,58.097,1004.2,1115.8,0.01,0.0035265
0.07,0.49539,17.773,346.72,17.906,349.32,0.060826,0,0.060826,0,2.1822,42.572,33,107,32.137,34.227,0,0,0,71.781,3.8618,8.17,0.058663,NaN,27.781,NaN,0.021179,602489,236.51,0.048526,0.60559,0.59965,0.48551,2.6063e-5,0.12006,NaN,NaN,NaN,NaN,NaN,NaN,NaN,NaN,0.002197,2.25,3.9761,83,0,NaN,58.096,1004.2,1115.8,0.01,0.0037867
0.08,0.69045,21.241,349.73,21.401,352.35,0.084777,0,0.084777,0,2.6081,42.941,33,107,32.137,30.158,0,0,0,71.745,3.8258,8.1648,0.058659,NaN,27.772,NaN,0.023887,679525,238.28,0.067427,0.59363,0.655,0.47353,3.3157e-5,0.12007,NaN,NaN,NaN,NaN,NaN,NaN,NaN,NaN,0.0026258,2.25,3.9761,83,0,NaN,58.095,1004.2,1115.8,0.01,0.0040265
0.09,0.92036,24.74,350.58,24.926,353.21,0.11301,0,0.11301,0,3.0377,43.046,33,107,32.137,26.903,0,0,0,71.708,3.7885,8.1593,0.058654,NaN,27.763,NaN,0.026715,759975,238.71,0.088647,0.58291,0.68847,0.46278,4.1478e-5,0.12009,NaN,NaN,NaN,NaN,NaN,NaN,NaN,NaN,0.0030583,2.25,3.9761,83,0,NaN,58.094,1004.2,1115.8,0.01,0.0045524
0.1,1.1853,28.247,351.43,28.46,354.07,0.14554,0,0.14554,0,3.4684,43.151,33,107,32.137,24.272,0,0,0,71.67,3.7503,8.1538,0.05865,NaN,27.753,NaN,0.02962,842602,239.14,0.11185,0.57335,0.70664,0.45318,5.0994e-5,0.12011,NaN,NaN,NaN,NaN,NaN,NaN,NaN,NaN,0.0034919,2.25,3.9761,83,0,NaN,58.094,1004.2,1115.8,0.01,0.0048566
0.11,1.4854,31.763,352.29,32.002,354.93,0.18238,0,0.18238,0,3.9,43.255,33,107,32.137,22.001,0,0,0,71.632,3.7121,8.1482,0.058645,NaN,27.743,NaN,0.032549,925912,239.57,0.13675,0.56487,0.7155,0.44467,6.1585e-5,0.12014,NaN,NaN,NaN,NaN,NaN,NaN,NaN,NaN,0.0039265,2.25,3.9761,83,0,NaN,58.092,1004.2,1115.8,0.01,0.0051468
0.12,1.8206,35.288,353.13,35.553,355.79,0.22354,0,0.22354,0,4.3328,43.359,33,107,32.137,20.103,0,0,0,71.593,3.6738,8.1427,0.058641,NaN,27.733,NaN,0.035528,1010640,240,0.16384,0.55921,0.71953,0.43898,7.3384e-5,0.12016,NaN,NaN,NaN,NaN,NaN,NaN,NaN,NaN,0.0043622,2.25,3.9761,83,0,NaN,58.091,1004.1,1115.8,0.01,0.0054284
0.13,2.1911,38.82,353.89,39.112,356.55,0.26904,0,0.26904,0,4.7666,43.452,33,107,32.137,18.497,0,0,0,71.555,3.6356,8.1371,0.058636,NaN,27.724,NaN,0.038547,1096508,240.37,0.1944,0.55925,0.72524,0.43897,8.6399e-5,0.12019,NaN,NaN,NaN,NaN,NaN,NaN,NaN,NaN,0.0047989,2.25,3.9761,83,0,NaN,58.09,1004.1,1115.8,0.01,0.00566
0.14,2.597,42.361,354.58,42.679,357.24,0.31888,0,0.31888,0,5.2013,43.537,33,107,32.137,17.121,0,0,0,71.517,3.5972,8.1315,0.058631,NaN,27.714,NaN,0.041598,1183295,240.7,0.22696,0.55928,0.72705,0.43895,1.0064e-4,0.12022,NaN,NaN,NaN,NaN,NaN,NaN,NaN,NaN,0.0052365,2.25,3.9761,83,0,NaN,58.089,1004.1,1115.8,0.01,0.0059042
0.15,3.0384,45.908,355.27,46.253,357.94,0.37307,0,0.37307,0,5.6368,43.621,33,107,32.137,15.933,0,0,0,71.478,3.5587,8.1258,0.058627,NaN,27.704,NaN,0.044676,1270838,241.04,0.26112,0.55932,0.72521,0.43894,1.161e-4,0.12026,NaN,NaN,NaN,NaN,NaN,NaN,NaN,NaN,0.005675,2.25,3.9761,83,0,NaN,58.087,1004.1,1115.8,0.01,0.0061514
0.16,3.5152,49.462,355.95,49.834,358.63,0.43162,0,0.43162,0,6.0732,43.706,33,107,32.137,15.111,0,0,0,71.44,3.5201,8.1202,0.058622,NaN,27.694,NaN,0.04785,1361086,241.37,0.29796,0.55936,0.72141,0.43893,1.3321e-4,0.1203,NaN,NaN,NaN,NaN,NaN,NaN,NaN,NaN,0.0061144,2.25,3.9761,83,0,NaN,58.085,1004.1,1115.8,0.01,0.0063965
0.17,4.0277,53.023,356.64,53.421,359.32,0.49454,0,0.49454,0,6.5104,43.79,33,107,32.137,14.389,0,0,0,71.401,3.4816,8.1146,0.058617,NaN,27.684,NaN,0.051038,1451746,241.71,0.3367,0.55941,0.71657,0.43892,1.5158e-4,0.12034,NaN,NaN,NaN,NaN,NaN,NaN,NaN,NaN,0.0065546,2.25,3.9761,83,0,NaN,58.083,1004.1,1115.7,0.01,0.0066182
0.18,4.5757,56.591,357.66,57.016,360.34,0.56183,0,0.56183,0,6.9485,43.915,33,107,32.137,13.751,0,0,0,71.363,3.443,8.1089,0.058613,NaN,27.674,NaN,0.054239,1542776,242.25,0.37743,0.55946,0.71124,0.4389,1.7124e-4,0.12038,NaN,NaN,NaN,NaN,NaN,NaN,NaN,NaN,0.0069956,2.25,3.9761,83,0,NaN,58.081,1004,1115.7,0.01,0.0068772
0.19,5.1595,60.169,359.17,60.621,361.87,0.63351,0,0.63351,0,7.3878,44.1,33,107,32.137,13.182,0,0,0,71.324,3.4043,8.1032,0.058608,NaN,27.664,NaN,0.057455,1634227,243.1,0.42024,0.55951,0.70576,0.43889,1.9219e-4,0.12043,NaN,NaN,NaN,NaN,NaN,NaN,NaN,NaN,0.0074379,2.25,3.9761,83,0,NaN,58.079,1004,1115.7,0.01,0.0071301
0.2,5.7792,63.762,360.68,64.241,363.39,0.7096,0,0.7096,0,7.829,44.286,33,107,32.137,12.67,0,0,0,71.285,3.3652,8.0975,0.058603,NaN,27.654,NaN,0.060689,1726197,243.95,0.46525,0.55956,0.70031,0.43887,2.145e-4,0.12048,NaN,NaN,NaN,NaN,NaN,NaN,NaN,NaN,0.0078821,2.25,3.9761,83,0,NaN,58.077,1004,1115.7,0.01,0.0073596
0.21,6.4348,67.37,362.2,67.876,364.92,0.7901,0,0.7901,0,8.272,44.473,33,107,32.137,12.093,0,0,0,71.246,3.3262,8.0918,0.058598,NaN,27.644,NaN,0.063897,1817405,244.8,0.5108,0.55962,0.69362,0.43885,2.3784e-4,0.12053,NaN,NaN,NaN,NaN,NaN,NaN,NaN,NaN,0.0083282,2.25,3.9761,83,0,NaN,58.075,1004,1115.7,0.01,0.0079002
0.22,7.1267,70.994,363.71,71.527,366.45,0.87504,0,0.87504,0,8.7169,44.658,33,107,32.137,11.569,0,0,0,71.207,3.2871,8.086,0.058594,NaN,27.634,NaN,0.067124,1909156,245.66,0.5584,0.55968,0.68713,0.43883,2.6255e-4,0.12059,NaN,NaN,NaN,NaN,NaN,NaN,NaN,NaN,0.0087761,2.25,3.9761,83,0,NaN,58.072,1004,1115.7,0.01,0.0083198
0.23,7.8548,74.632,364.95,75.193,367.7,0.96445,0,0.96445,0,9.1637,44.811,33,107,32.137,11.091,0,0,0,71.168,3.2481,8.0803,0.058589,NaN,27.624,NaN,0.07037,2001429,246.34,0.60814,0.55975,0.68091,0.43881,2.8865e-4,0.12064,NaN,NaN,NaN,NaN,NaN,NaN,NaN,NaN,0.0092259,2.25,3.9761,83,0,NaN,58.07,1003.9,1115.7,0.01,0.0086088
0.24,8.6194,78.283,365.07,78.871,367.81,1.0583,0,1.0583,0,9.612,44.825,33,107,32.137,10.654,0,0,0,71.129,3.209,8.0745,0.058584,NaN,27.614,NaN,0.073631,2094137,246.33,0.66003,0.55981,0.67502,0.43879,3.1613e-4,0.1207,NaN,NaN,NaN,NaN,NaN,NaN,NaN,NaN,0.0096772,2.25,3.9761,83,0,NaN,58.067,1003.9,1115.7,0.01,0.0088465
0.25,9.4205,81.935,365.07,82.551,367.81,1.1567,0,1.1567,0,10.06,44.824,33,107,32.137,10.253,0,0,0,71.089,3.1697,8.0687,0.058579,NaN,27.604,NaN,0.076897,2186981,246.25,0.71396,0.55988,0.66948,0.43877,3.4491e-4,0.12077,NaN,NaN,NaN,NaN,NaN,NaN,NaN,NaN,0.010129,2.25,3.9761,83,0,NaN,58.064,1003.9,1115.7,0.01,0.0090711
0.26,10.258,85.587,365.06,86.23,367.8,1.2595,0,1.2595,0,10.509,44.823,33,107,32.137,9.8402,0,0,0,71.05,3.1303,8.0629,0.058575,NaN,27.594,NaN,0.080147,2279372,246.16,0.76882,0.55996,0.66365,0.43875,3.7482e-4,0.12084,NaN,NaN,NaN,NaN,NaN,NaN,NaN,NaN,0.01058,2.25,3.9761,83,0,NaN,58.061,1003.8,1115.7,0.01,0.0095239
0.27,11.132,89.239,365.05,89.91,367.79,1.3669,0,1.3669,0,10.957,44.822,33,107,32.137,9.4594,0,0,0,71.011,3.0909,8.057,0.05857,NaN,27.584,NaN,0.083401,2371865,246.07,0.82565,0.56004,0.6582,0.43873,4.0603e-4,0.1209,NaN,NaN,NaN,NaN,NaN,NaN,NaN,NaN,0.011032,2.25,3.9761,83,0,NaN,58.058,1003.8,1115.7,0.01,0.0097784
0.28,12.043,92.891,365.06,93.589,367.8,1.4787,0,1.4787,0,11.406,44.823,33,107,32.137,9.1073,0,0,0,70.971,3.0516,8.0512,0.058565,NaN,27.574,NaN,0.086659,2464445,246,0.8845,0.56012,0.65312,0.4387,4.3854e-4,0.12098,NaN,NaN,NaN,NaN,NaN,NaN,NaN,NaN,0.011483,2.25,3.9761,83,0,NaN,58.055,1003.8,1115.7,0.01,0.010017
0.29,12.99,96.543,365.43,97.268,368.17,1.595,0,1.595,0,11.854,44.869,33,107,32.137,8.7807,0,0,0,70.932,3.0122,8.0454,0.05856,NaN,27.563,NaN,0.089919,2557108,246.16,0.94538,0.5602,0.64839,0.43868,4.7236e-4,0.12105,NaN,NaN,NaN,NaN,NaN,NaN,NaN,NaN,0.011934,2.25,3.9761,83,0,NaN,58.051,1003.7,1115.7,0.01,0.010269
0.3,13.974,100.2,365.93,100.95,368.68,1.7158,0,1.7158,0,12.303,44.93,33,107,32.137,8.4767,0,0,0,70.892,2.9728,8.0395,0.058555,NaN,27.553,NaN,0.093186,2649936,246.39,1.0084,0.56029,0.64398,0.43865,5.0752e-4,0.12113,NaN,NaN,NaN,NaN,NaN,NaN,NaN,NaN,0.012386,2.25,3.9761,83,0,NaN,58.048,1003.7,1115.7,0.01,0.010505
0.31,14.994,103.86,366.42,104.64,369.17,1.841,0,1.841,0,12.752,44.991,33,107,32.137,8.1981,0,0,0,70.853,2.9333,8.0336,0.058551,NaN,27.543,NaN,0.096462,2743022,246.63,1.0737,0.56038,0.63996,0.43862,5.4408e-4,0.12121,NaN,NaN,NaN,NaN,NaN,NaN,NaN,NaN,0.012839,2.25,3.9761,83,0,NaN,58.044,1003.7,1115.7,0.01,0.010687
0.32,16.051,107.52,366.91,108.33,369.67,1.9708,0,1.9708,0,13.202,45.051,33,107,32.137,7.9375,0,0,0,70.814,2.8939,8.0278,0.058546,NaN,27.533,NaN,0.099745,2836287,246.86,1.1413,0.56047,0.63621,0.43859,5.82e-4,0.12129,NaN,NaN,NaN,NaN,NaN,NaN,NaN,NaN,0.013292,2.25,3.9761,83,0,NaN,58.041,1003.6,1115.7,0.01,0.01092
0.33,17.145,111.2,367.4,112.03,370.16,2.1051,0,2.1051,0,13.653,45.111,33,107,32.137,7.6932,0,0,0,70.774,2.8545,8.0219,0.058541,NaN,27.522,NaN,0.10303,2929724,247.09,1.2111,0.56057,0.63271,0.43856,6.2131e-4,0.12138,NaN,NaN,NaN,NaN,NaN,NaN,NaN,NaN,0.013746,2.25,3.9761,83,0,NaN,58.037,1003.6,1115.7,0.01,0.011153
0.34,18.275,114.87,368.01,115.73,370.36,2.2439,0,2.2439,0,14.104,41.734,33,107,32.137,7.4637,0,0,0,70.735,2.815,8.016,0.058536,35.804,27.512,3.6855,0.10633,3023328,247.11,1.2831,0.56067,0.62946,0.43853,6.6202e-4,0.12147,2.1975,8.0992,1.6687e-4,0,0,0,0,0,0.0142,2.25,3.9761,83,0,NaN,58.033,1003.6,1115.7,0.015,0.011433
0.355,20.039,120.39,367.74,121.29,370.08,2.4601,1.2765e-7,2.4601,2.9729e-6,14.729,41.557,33,107,32.137,7.1295,0,0.0068368,5.3755e-9,70.685,2.7657,8.0087,0.05853,35.901,27.499,3.7343,0.11128,3164075,246.86,1.3949,0.56082,0.62478,0.43849,7.2572e-4,0.12161,2.079,7.762,-1.5113e-4,0,0,0,0,0.001438,0.014881,2.25,3.9761,82.982,1.8101e-6,NaN,58.026,1003.5,1115.7,0.0225,0.01165
0.3775,22.841,128.67,367.28,129.62,369.64,2.8021,8.1211e-7,2.8021,1.6606e-5,15.666,41.78,33,107,32.137,6.6831,0,0.017756,5.6674e-9,70.611,2.6917,7.9976,0.058521,36.034,27.48,3.802,0.11876,3376294,246.56,1.5728,0.56107,0.61866,0.43841,8.2748e-4,0.12183,1.9236,7.305,1.331e-4,0,0,0,0,0.0085175,0.015903,2.25,3.9761,82.883,1.3853e-6,NaN,58.016,1003.4,1115.7,0.022168,0.011902
0.39967,25.784,136.82,366.84,137.82,369.33,3.1597,2.0933e-6,3.1597,3.7959e-5,16.603,42.779,33,107,32.137,6.2005,0,0.029189,1.4131e-7,70.523,2.6036,7.9844,0.058511,36.182,27.457,3.8781,0.12612,3585322,246.24,1.7552,0.56133,0.6122,0.43833,9.3446e-4,0.12207,1.7593,6.8027,3.7553e-4,0,0,0,0,0.020408,0.016909,2.25,3.9761,82.696,1.4523e-6,NaN,58.006,1003.3,1115.7,0.021074,0.012138
0.42074,28.749,144.55,366.31,145.61,369.04,3.5192,3.8943e-6,3.5192,6.3402e-5,17.526,44.793,33,107,32.137,5.5303,0,0.040323,2.9203e-7,70.438,2.5184,7.9716,0.0585,36.395,27.434,3.9827,0.13303,3781396,245.92,1.9247,0.5616,0.60348,0.43825,0.001041,0.1223,1.5376,6.089,-2.2682e-4,0,0,0,0,0.03501,0.017864,2.25,3.9761,82.432,2.5248e-6,NaN,57.995,1003.2,1115.7,0.021131,0.012302
0.44187,31.885,152.29,365.62,153.41,368.71,3.8998,6.2962e-6,3.8998,9.2504e-5,18.502,47.59,33,107,32.137,4.831,0,0.051311,3.9792e-7,70.355,2.4354,7.9591,0.05849,36.628,27.412,4.0957,0.13996,3978048,245.59,2.1002,0.56187,0.59497,0.43817,0.0011538,0.12255,1.3142,5.3317,4.7077e-4,0,0,0,0,0.051215,0.018822,2.25,3.9761,82.083,-1.0804e-8,NaN,57.984,1003.1,1115.6,0.02177,0.012451
0.46364,35.287,160.25,364.77,161.44,368.33,4.3141,9.4263e-6,4.3141,1.2519e-4,19.576,51.119,33,107,32.137,4.1636,0,0.062177,9.5708e-7,70.271,2.3511,7.9463,0.05848,36.86,27.39,4.209,0.14715,4181996,245.24,2.2923,0.56217,0.58757,0.43808,0.0012773,0.12281,1.1089,4.5988,3.5572e-4,0,0,0,0,0.068036,0.019808,2.25,3.9761,81.638,2.7707e-6,NaN,57.972,1002.9,1115.6,0.0228,0.012668
0.48644,39.035,168.57,363.6,169.85,367.82,4.7741,1.3449e-5,4.7741,1.6141e-4,20.793,55.555,33,107,32.137,3.4758,0,0.072917,1.3692e-6,70.183,2.2636,7.9331,0.058469,37.111,27.367,4.3308,0.1547,4396351,244.8,2.5042,0.56251,0.58078,0.43798,0.0014142,0.12311,0.90523,3.8355,-1.6249e-6,0,0,0,0,0.084652,0.02084,2.25,3.9761,81.083,3.7004e-6,NaN,57.959,1002.8,1115.6,0.024693,0.012889
0.51114,43.309,177.54,361.44,178.93,366.58,5.3051,1.8707e-5,5.3051,2.0204e-4,22.235,61.216,33,107,32.137,2.6706,0,0.083284,1.8309e-6,70.09,2.1706,7.919,0.058458,37.421,27.342,4.4794,0.16287,4627976,243.88,2.7432,0.56289,0.57408,0.43787,0.0015705,0.12345,0.67704,2.9331,4.447e-4,0,0,0,0,0.099637,0.021956,2.25,3.9761,80.388,1.419e-5,NaN,57.943,1002.7,1115.6,0.029085,0.013047
0.54022,48.625,188.04,358.22,189.58,364.79,5.9788,2.6199e-5,5.9788,2.5107e-4,24.131,68.917,33,107,32.137,1.6635,0,0.092763,3.8663e-6,69.985,2.0656,7.903,0.058445,37.834,27.314,4.6752,0.17245,4899484,242.44,3.0417,0.56336,0.56789,0.43773,0.0017648,0.12387,0.40731,1.7939,-1.8173e-4,0,0,0,0,0.11026,0.023267,2.25,3.9761,79.463,4.2584e-5,NaN,57.924,1002.5,1115.6,0.04234,0.013204
0.58256,56.907,203.15,351.34,204.98,360.63,7.0661,3.9861e-5,7.0661,3.2321e-4,27.325,81.337,33,107,32.137,0.08926,0,0.098683,9.7223e-5,69.847,1.9269,7.8818,0.058428,38.543,27.277,5.0068,0.18624,5290094,239.77,3.5228,0.56408,0.5641,0.43751,0.0020657,0.12451,0.020644,-0.0037105,-6.1388e-5,0,0,0,0,0.107,0.025165,2.25,3.9761,77.99,5.8561e-5,NaN,57.895,1002.2,1115.5,0.05,0.013353
0.63256,67.502,220.61,339.09,222.89,352.28,8.5409,6.0781e-5,8.5409,4.0775e-4,31.796,95.498,33,107,32.137,1.5686,0,-0.089219,6.1585e-6,69.669,1.7492,7.8545,0.058407,37.883,27.23,4.7349,0.20231,5744826,236.05,4.1919,0.565,0.56907,0.43723,0.0024487,0.12532,0.38331,1.8893,4.1363e-4,0,0,0,0,-0.074123,0.027379,2.25,3.9761,76.271,1.0362e-4,NaN,57.857,1001.8,1115.5,0.029052,0.013508
0.66161,74.055,230.48,333.76,233.08,349.36,9.5064,7.5594e-5,9.5064,4.5562e-4,34.711,103.23,33,107,32.137,2.3041,0,-0.074832,3.5567e-6,69.518,1.5985,7.8313,0.058389,37.582,27.189,4.6192,0.21147,6003864,233.54,4.6193,0.56556,0.57407,0.43707,0.0026829,0.12581,0.57805,2.7179,-8.9066e-5,0,0,0,0,-0.047728,0.028642,2.25,3.9761,75.407,1.065e-4,NaN,57.834,1001.6,1115.5,0.018433,0.013699
0.68005,78.36,236.64,330.17,239.46,347.15,10.164,8.6122e-5,10.164,4.8548e-4,36.663,107.26,33,107,32.137,2.6527,0,-0.062521,3.8451e-6,69.429,1.5093,7.8175,0.058378,37.446,27.165,4.5693,0.21721,6166199,231.69,4.898,0.56593,0.57704,0.43696,0.0028358,0.12613,0.67375,3.1105,-4.3124e-4,0,0,0,0,-0.031579,0.029434,2.25,3.9761,74.95,1.1662e-4,NaN,57.818,1001.4,1115.5,0.015242,0.013848
0.69529,82.005,241.67,326.78,244.69,344.74,10.735,9.5521e-5,10.735,5.098e-4,38.324,109.81,33,107,32.137,2.8646,0,-0.050688,4.283e-6,69.366,1.4467,7.8078,0.05837,37.365,27.148,4.5409,0.22192,6299142,230.11,5.1299,0.56624,0.57908,0.43687,0.0029645,0.1264,0.73302,3.3485,-2.501e-4,0,0,0,0,-0.019886,0.030083,2.25,3.9761,74.639,1.5562e-4,NaN,57.805,1001.3,1115.4,0.01355,0.013999
0.70884,85.31,246.1,323.63,249.3,342.24,11.265,1.0444e-4,11.265,5.3123e-4,39.829,111.32,33,107,32.137,2.9673,0,-0.03912,4.3073e-6,69.313,1.3933,7.7995,0.058364,37.327,27.133,4.5305,0.22609,6416913,228.56,5.3345,0.56651,0.58024,0.43679,0.0030812,0.12664,0.76212,3.4645,-4.0223e-4,0,0,0,0,-0.011413,0.030656,2.25,3.9761,74.42,2.0484e-4,NaN,57.794,1001.2,1115.4,0.012606,0.014188
0.72144,88.438,250.18,320.66,253.55,339.68,11.776,1.1326e-4,11.776,5.5108e-4,41.242,112.08,33,107,32.137,2.9981,0,-0.027732,4.5998e-6,69.265,1.3453,7.7921,0.058358,37.317,27.12,4.5317,0.22994,6525878,227,5.5226,0.56677,0.58077,0.43671,0.0031914,0.12687,0.77098,3.4994,1.0108e-4,0,0,0,0,-0.0055444,0.031185,2.25,3.9761,74.268,2.5911e-4,NaN,57.782,1001,1115.4,0.012054,0.014345
0.7335,91.477,254.04,317.92,257.59,337.17,12.281,1.2219e-4,12.281,5.7007e-4,42.599,112.27,33,107,32.137,2.979,0,-0.016449,4.3155e-6,69.22,1.3008,7.7851,0.058352,37.326,27.108,4.541,0.23361,6629238,225.49,5.7001,0.56703,0.58087,0.43663,0.003298,0.12709,0.76574,3.4791,-3.7598e-4,0,0,0,0,-0.00189,0.031687,2.25,3.9761,74.172,3.164e-4,NaN,57.772,1000.9,1115.4,0.011738,0.014508
0.74524,94.481,257.77,315.39,261.49,334.67,12.789,1.3139e-4,12.789,5.8865e-4,43.92,111.95,33,107,32.137,2.915,0,-0.0052578,4.383e-6,69.177,1.2577,7.7784,0.058347,37.352,27.097,4.5578,0.23714,6729108,224.01,5.8705,0.56728,0.58057,0.43656,0.0034029,0.12731,0.74781,3.4085,1.0921e-4,0,0,0,0,-1.8739e-4,0.032173,2.25,3.9761,74.126,3.7975e-4,NaN,57.761,1000.8,1115.4,0.011618,0.014663
0.75685,97.497,261.44,313.03,265.32,332.17,13.307,1.4102e-4,13.307,6.072e-4,45.221,111.13,33,107,32.137,2.8108,0,0.005848,4.1677e-6,69.135,1.2155,7.7718,0.058342,37.393,27.085,4.5815,0.24062,6827133,222.54,6.0366,0.56752,0.57995,0.43649,0.0035077,0.12753,0.71868,3.2922,4.1032e-4,0,0,0,0,2.2517e-4,0.03265,2.25,3.9761,74.127,4.4451e-4,NaN,57.75,1000.7,1115.4,0.011675,0.014812
0.76853,100.57,265.09,310.82,269.14,329.65,13.842,1.5125e-4,13.842,6.2606e-4,46.515,109.82,33,107,32.137,2.6656,0,0.016861,3.2988e-6,69.093,1.1738,7.7653,0.058337,37.452,27.074,4.6124,0.24408,6924850,221.07,6.2011,0.56777,0.57902,0.43642,0.003614,0.12774,0.67832,3.1267,4.6141e-4,0,0,0,0,0.0018192,0.033126,2.25,3.9761,74.175,5.0554e-4,NaN,57.739,1000.6,1115.4,0.011938,0.014963
0.78047,103.76,268.8,308.68,273.03,327.02,14.405,1.6232e-4,14.405,6.4562e-4,47.82,107.96,33,107,32.137,2.4753,0,0.02776,3.1876e-6,69.052,1.1322,7.7588,0.058332,37.528,27.062,4.6515,0.2476,7024016,219.55,6.3671,0.56803,0.57782,0.43634,0.0037237,0.12797,0.62595,2.9068,2.4002e-4,0,0,0,0,0.0047921,0.03361,2.25,3.9761,74.271,5.6524e-4,NaN,57.728,1000.5,1115.4,0.01247,0.015118
0.79294,107.13,272.66,306.58,277.05,324.22,15.01,1.7458e-4,15.01,6.6639e-4,49.156,105.48,33,107,32.137,2.2349,0,0.038516,2.8857e-6,69.009,1.0894,7.7521,0.058327,37.626,27.05,4.7003,0.25124,7126802,217.94,6.5387,0.5683,0.57637,0.43626,0.0038394,0.12821,0.56058,2.6256,-2.689e-4,0,0,0,0,0.0089595,0.034111,2.25,3.9761,74.42,6.3222e-4,NaN,57.716,1000.4,1115.3,0.013397,0.015287
0.80633,110.81,276.77,304.31,281.35,321,15.678,1.8858e-4,15.678,6.8916e-4,50.553,102.15,33,107,32.137,1.9222,0,0.049055,2.2874e-6,68.964,1.0439,7.745,0.058321,37.756,27.038,4.7634,0.25514,7236685,216.05,6.7222,0.5686,0.57465,0.43617,0.0039654,0.12846,0.47703,2.2583,3.4873e-4,0,0,0,0,0.014093,0.034646,2.25,3.9761,74.632,7.0542e-4,NaN,57.703,1000.2,1115.3,0.015092,0.015444
0.82143,115.02,281.37,300.81,286.14,316.19,16.452,2.0543e-4,16.452,7.154e-4,52.068,97.423,33,107,32.137,1.5121,0,0.05917,1.8789e-6,68.914,0.99447,7.7372,0.058315,37.93,27.024,4.8468,0.25951,7359728,213.17,6.9303,0.56894,0.57275,0.43607,0.0041092,0.12875,0.36998,1.7737,-4.7733e-4,0,0,0,0,0.01982,0.035243,2.25,3.9761,74.927,7.7859e-4,NaN,57.688,1000.1,1115.3,0.018558,0.015615
0.83998,120.3,286.95,296.25,291.96,309.86,17.435,2.2779e-4,17.435,7.4856e-4,53.829,90.84,33,107,32.137,0.96376,0,0.068448,1.3992e-7,68.857,0.93711,7.7282,0.058308,38.17,27.009,4.9608,0.2648,7508772,209.08,7.1917,0.56936,0.57094,0.43595,0.0042876,0.12912,0.23128,1.1218,4.069e-4,0,0,0,0,0.025475,0.035966,2.25,3.9761,75.355,8.7192e-4,NaN,57.669,999.91,1115.3,0.027837,0.015867
0.86782,128.4,295.2,287.65,300.51,298.61,18.968,2.6487e-4,18.968,8.0009e-4,56.238,80.187,33,107,32.137,0.17955,0,0.074854,-2.0065e-5,68.778,0.85876,7.7158,0.058299,38.532,26.987,5.1311,0.27249,7724973,202.03,7.6009,0.56998,0.57003,0.43577,0.0045542,0.12965,0.041884,0.1866,-8.3049e-5,0,0,0,0,0.028774,0.037027,2.25,3.9761,76.081,9.1313e-4,NaN,57.64,999.62,1115.3,0.041755,0.016024
0.90957,140.98,307.18,272.58,312.85,280.02,21.382,3.2849e-4,21.382,8.8024e-4,59.315,64.112,33,107,32.137,0.8743,0,-0.067313,-6.2618e-6,68.664,0.74464,7.6978,0.058285,38.219,26.956,5.0059,0.28351,8034758,194.73,8.256,0.5709,0.57222,0.4355,0.0049532,0.13045,0.20941,1.07,-4.4676e-4,0,0,0,0,-0.021496,0.038555,2.25,3.9761,77.175,9.8741e-4,NaN,57.595,999.17,1115.2,0.025667,0.016229
0.93524,148.95,314.26,267.48,320.1,273.31,22.925,3.7242e-4,22.925,9.3078e-4,60.887,56.181,33,107,32.137,1.4018,0,-0.052381,-3.8747e-6,68.557,0.63765,7.6808,0.058272,37.991,26.926,4.9179,0.29001,8217254,190.29,8.6752,0.57147,0.57477,0.43534,0.0051978,0.13093,0.34236,1.6959,-2.8256e-4,0,0,0,0,-0.012441,0.03945,2.25,3.9761,77.733,0.0010454,NaN,57.567,998.88,1115.2,0.015447,0.016521
0.95069,153.84,318.42,264.28,324.35,269.4,23.872,4.006e-4,23.872,9.6149e-4,61.735,52.28,33,107,32.137,1.6289,0,-0.040152,-4.7488e-6,68.494,0.57439,7.6708,0.058264,37.896,26.908,4.8836,0.29382,8323990,187.23,8.9254,0.57181,0.57623,0.43524,0.0053443,0.13122,0.40116,1.966,4.7878e-4,0,0,0,0,-0.0071219,0.039974,2.25,3.9761,77.992,0.0010922,NaN,57.549,998.71,1115.2,0.012967,0.016779
0.96366,157.99,321.85,260.37,327.84,265.03,24.677,4.2527e-4,24.677,9.8741e-4,62.401,49.486,33,107,32.137,1.7513,0,-0.028458,-5.1046e-6,68.451,0.53126,7.6639,0.058259,37.847,26.896,4.8668,0.29694,8411588,184.59,9.1299,0.57209,0.57718,0.43516,0.0054663,0.13146,0.43328,2.1119,-2.6097e-6,0,0,0,0,-0.0035029,0.040405,2.25,3.9761,78.152,0.0011752,NaN,57.534,998.56,1115.1,0.01181,0.017023
0.97547,161.81,324.93,256.86,330.98,261.22,25.417,4.4855e-4,25.417,0.0010111,62.979,47.571,33,107,32.137,1.8113,0,-0.017011,-4.7425e-6,68.414,0.49402,7.658,0.058254,37.823,26.886,4.8609,0.29974,8.49e6,182.36,9.311,0.57234,0.57778,0.43509,0.005577,0.13168,0.44915,2.1842,6.1819e-5,0,0,0,0,-0.0012284,0.040791,2.25,3.9761,78.249,0.0012616,NaN,57.521,998.42,1115.1,0.0112,0.017256
0.98667,165.46,327.81,253.43,333.9,257.63,26.126,4.7137e-4,26.126,0.0010338,63.508,46.319,33,107,32.137,1.8215,0,-0.0057341,-4.138e-6,68.38,0.4604,7.6526,0.05825,37.82,26.876,4.8638,0.30235,8563129,180.29,9.4778,0.57258,0.57808,0.43502,0.0056815,0.13188,0.45194,2.1981,4.4754e-4,0,0,0,0,-1.3717e-4,0.041151,2.25,3.9761,78.295,0.0013424,NaN,57.508,998.29,1115.1,0.010931,0.017513
0.9976,169.06,330.58,249.93,336.72,254.06,26.823,4.9435e-4,26.823,0.001056,64.014,45.627,33,107,32.137,1.7876,0,0.0054018,-3.8884e-6,68.348,0.42867,7.6476,0.058246,37.836,26.868,4.8746,0.30487,8633521,178.23,9.6355,0.57282,0.57812,0.43495,0.0057833,0.13208,0.44309,2.1595,5.3646e-5,0,0,0,0,1.1974e-4,0.041498,2.25,3.9761,78.296,0.0014266,NaN,57.495,998.16,1115.1,0.010937,0.017745
1.0085,172.69,333.31,246.32,339.5,250.45,27.525,5.1807e-4,27.525,0.0010784,64.515,45.297,33,107,32.137,1.7331,0,0.016457,-2.4197e-6,68.317,0.3973,7.6425,0.058243,37.86,26.859,4.8892,0.30738,8703738,176.17,9.7924,0.57305,0.57805,0.43488,0.0058859,0.13228,0.42883,2.0959,2.4746e-5,0,0,0,0,0.0010933,0.04184,2.25,3.9761,78.252,0.0014928,NaN,57.482,998.03,1115.1,0.01108,0.017898
1.0196,176.4,336.04,243,342.27,247.24,28.243,5.4285e-4,28.243,0.0011013,65.021,45.543,33,107,32.137,1.6416,0,0.027395,-1.3105e-6,68.285,0.36573,7.6375,0.058239,37.899,26.85,4.9108,0.30989,8774069,174.34,9.9475,0.57329,0.57779,0.43481,0.0059898,0.13248,0.40497,1.9853,3.1499e-4,0,0,0,0,0.0029807,0.042182,2.25,3.9761,78.165,0.0015343,NaN,57.469,997.9,1115.1,0.011502,0.018052
1.0311,180.28,338.83,240.87,345.11,245.35,28.994,5.6939e-4,28.994,0.0011252,65.553,46.643,33,107,32.137,1.5042,0,0.038162,-1.3798e-6,68.253,0.3338,7.6324,0.058235,37.959,26.841,4.9413,0.31247,8846136,173.3,10.104,0.57353,0.57734,0.43474,0.0060975,0.13269,0.36934,1.8197,4.0137e-4,0,0,0,0,0.0056894,0.042532,2.25,3.9761,78.029,0.0015734,NaN,57.455,997.76,1115.1,0.012337,0.018203
1.0435,184.48,341.8,238.54,348.14,243.4,29.806,5.9879e-4,29.806,0.001151,66.141,48.406,33,107,32.137,1.3132,0,0.048687,-1.5017e-6,68.22,0.30077,7.6271,0.058231,38.042,26.832,4.9824,0.31522,8922835,172.2,10.27,0.5738,0.57672,0.43467,0.0062134,0.13292,0.32033,1.5873,1.0328e-4,0,0,0,0,0.0091,0.042905,2.25,3.9761,77.836,0.001622,NaN,57.44,997.61,1115,0.01389,0.01835
1.0573,189.25,345.11,235.69,351.52,241.17,30.73,6.3307e-4,30.73,0.0011804,66.834,51.121,33,107,32.137,1.0354,0,0.058785,3.4002e-7,68.184,0.26465,7.6213,0.058227,38.165,26.822,5.0415,0.31826,9007856,170.9,10.453,0.5741,0.57593,0.43458,0.0063435,0.13317,0.25013,1.2482,-2.8462e-4,0,0,0,0,0.013014,0.043322,2.25,3.9761,77.566,0.0016624,NaN,57.423,997.44,1115,0.017317,0.018508
1.0747,195.26,349.18,216.6,355.69,222.71,31.895,6.7762e-4,31.895,0.0012173,67.759,51.823,33,107,32.137,0.62171,0,0.067786,1.998e-6,68.141,0.22166,7.6144,0.058221,38.352,26.81,5.13,0.322,9112117,154.53,10.683,0.57446,0.57514,0.43448,0.0065055,0.13348,0.14799,0.74183,-8.9268e-5,0,0,0,0,0.016906,0.043837,2.25,3.9761,77.169,0.001681,NaN,57.401,997.23,1115,0.025975,0.018735
1.1006,204.4,354.57,147.97,361.25,154.24,33.673,7.4822e-4,33.673,0.0012731,69.156,43.508,33,107,32.137,0.041634,0,-0.072459,5.9118e-5,68.089,0.16941,7.606,0.058215,38.624,26.795,5.2573,0.32699,9250963,111.26,11.01,0.57496,0.57496,0.43434,0.0067256,0.1339,0.0097042,0.070149,1.2133e-4,0,0,0,0,-0.018734,0.044526,2.25,3.9761,76.505,0.0017568,NaN,57.369,996.9,1115,0.038963,0.019033
1.1396,218.32,359.81,67.673,366.73,75.81,36.401,8.6271e-4,36.401,0.0013579,70.945,34.168,33,107,32.137,1.0174,0,-0.057488,3.8191e-6,67.981,0.061392,7.5886,0.058202,38.18,26.764,5.0738,0.33178,9383117,73.168,11.374,0.57545,0.57723,0.4342,0.0069415,0.13431,0.24589,1.2594,-1.1032e-4,0,0,0,0,-0.011455,0.045209,2.25,3.9761,75.564,0.0019039,NaN,57.319,996.4,1114.9,0.015782,0.019393
1.1554,224.01,360.87,29.602,367.88,40.217,37.525,9.1204e-4,37.525,0.0013925,71.508,27.223,33,107,32.137,1.2958,0,-0.044707,5.4353e-6,67.981,0.061392,7.5886,0.058202,38.06,26.764,5.0201,0.33278,9.41e6,53.063,11.464,0.57555,0.57841,0.43417,0.0069872,0.1344,0.31636,1.595,-2.3274e-5,0,0,0,0,-0.0068862,0.045354,2.25,3.9761,75.273,0.0019691,NaN,57.299,996.2,1114.9,0.012357,0.020143
1.1677,228.47,361.27,4.1173,368.35,22.318,38.411,9.518e-4,38.411,0.0014197,71.864,21.935,33,107,32.137,1.4356,0,-0.032952,3.868e-6,67.967,0.047346,7.5863,0.0582,38,26.76,4.9952,0.33321,9420901,36.27,11.505,0.5756,0.57908,0.43416,0.0070066,0.13443,0.35224,1.7636,-2.9108e-4,0,0,0,0,-0.0037316,0.045414,2.25,3.9761,75.099,0.0020304,NaN,57.283,996.04,1114.9,0.011146,0.020398
1.1789,232.5,361.33,-13.739,368.46,22.603,39.214,9.8849e-4,39.214,0.0014443,72.117,17.948,33,107,32.137,1.5142,0,-0.021509,3.6311e-6,67.955,0.035613,7.5844,0.058199,37.966,26.757,4.9819,0.33331,9422728,24.775,11.518,0.57561,0.57947,0.43415,0.0070112,0.13444,0.37257,1.8576,-1.098e-4,0,0,0,0,-0.001589,0.045429,2.25,3.9761,74.99,0.0020813,NaN,57.269,995.89,1114.8,0.010574,0.020639
1.1895,236.32,361.18,-18.259,368.35,24.97,39.977,0.001024,39.977,0.0014676,72.309,17.033,33,107,32.136,1.5455,0,-0.010262,4.0854e-6,67.947,0.027704,7.5831,0.058198,37.953,26.755,4.9769,0.33322,9419266,22.017,11.513,0.5756,0.57962,0.43416,0.0070072,0.13443,0.38069,1.8949,2.1001e-4,0,0,0,0,-3.6188e-4,0.045419,2.25,3.9761,74.929,0.002134,NaN,57.255,995.76,1114.8,0.010371,0.020869
1.1998,240.06,361,-22.257,368.2,27.323,40.728,0.0010595,40.728,0.0014906,72.485,15.848,33,107,32.136,1.5344,0,8.2961e-4,4.0644e-6,67.943,0.023778,7.5825,0.058197,37.958,26.754,4.9795,0.33309,9414645,19.525,11.501,0.57558,0.57955,0.43416,0.0070013,0.13442,0.3778,1.881,-2.0399e-4,0,0,0,0,2.3672e-6,0.045402,2.25,3.9761,74.912,0.0021877,NaN,57.242,995.62,1114.8,0.010457,0.021102
1.2103,243.84,360.76,-26.258,368.01,29.946,41.487,0.001096,41.487,0.0015137,72.649,14.397,33,107,32.136,1.4955,0,0.011821,5.0255e-6,67.94,0.020604,7.582,0.058197,37.974,26.753,4.9872,0.3329,9408344,16.989,11.482,0.57556,0.57934,0.43417,0.0069926,0.13441,0.36772,1.8331,3.1523e-4,0,0,0,0,4.8114e-4,0.04538,2.25,3.9761,74.936,0.0022529,NaN,57.228,995.49,1114.8,0.010743,0.02133
1.221,247.71,360.48,-30.297,367.76,32.795,42.268,0.0011342,42.268,0.0015375,72.8,12.555,33,107,32.136,1.4146,0,0.022648,4.0634e-6,67.937,0.017373,7.5815,0.058197,38.008,26.752,5.0029,0.33267,9400706,14.342,11.456,0.57554,0.57893,0.43417,0.0069819,0.13439,0.34683,1.7331,-3.5647e-4,0,0,0,0,0.0017688,0.045352,2.25,3.9761,75.003,0.0023238,NaN,57.214,995.35,1114.8,0.01138,0.021552
1.2324,251.81,360.14,-33.326,367.45,34.963,43.097,0.0011755,43.097,0.0015628,72.937,10.574,33,107,32.136,1.2867,0,0.033271,3.6043e-6,67.934,0.014002,7.5809,0.058196,38.063,26.751,5.0277,0.33237,9391347,12.298,11.423,0.57551,0.57833,0.43418,0.0069685,0.13436,0.31401,1.5752,3.7274e-4,0,0,0,0,0.003824,0.045316,2.25,3.9761,75.118,0.0023909,NaN,57.2,995.2,1114.8,0.012544,0.021893
1.245,256.33,359.72,-34.889,367.07,35.909,44.013,0.0012219,44.013,0.0015906,73.06,8.4983,33,107,32.136,1.1009,0,0.043591,4.3037e-6,67.931,0.011193,7.5805,0.058196,38.144,26.75,5.0638,0.33201,9.38e6,10.991,11.38,0.57547,0.57755,0.43419,0.006952,0.13433,0.26688,1.3445,-3.25e-4,0,0,0,0,0.0065787,0.04527,2.25,3.9761,75.292,0.002455,NaN,57.184,995.04,1114.8,0.014729,0.022232
1.2597,261.62,359.21,-36.607,366.59,36.992,45.09,0.0012776,45.09,0.0016235,73.168,5.3276,33,107,32.136,0.78682,0,0.05321,7.4357e-6,67.929,0.0089044,7.5801,0.058196,38.283,26.75,5.1259,0.33162,9367705,9.2948,11.331,0.57543,0.57651,0.4342,0.0069344,0.1343,0.18858,0.95721,2.9394e-4,0,0,0,0,0.0098257,0.045213,2.25,3.9761,75.55,0.002573,NaN,57.165,994.85,1114.7,0.02074,0.022626
1.2804,269.06,358.46,-40.832,365.86,40.832,46.608,0.0013584,46.608,0.0016698,73.234,0.15013,33,107,32.136,0.2552,0,0.060548,1.8725e-5,67.923,0.0030211,7.5791,0.058195,38.526,26.748,5.2345,0.33108,9350446,6.3098,11.271,0.57538,0.57549,0.43422,0.0069097,0.13425,0.05998,0.30086,-1.6002e-4,0,0,0,0,0.012765,0.045126,2.25,3.9761,75.979,0.0027794,NaN,57.138,994.59,1114.7,0.03111,0.022904
1.3115,280.2,357.21,-46.693,364.62,47.303,48.886,0.0014845,48.886,0.0017399,73.136,7.5754,33,107,32.136,0.5049,0,-0.057257,6.6635e-6,67.923,0.0030211,7.5791,0.058195,38.41,26.748,5.183,0.33006,9318937,1.8373,11.202,0.57527,0.57572,0.43425,0.0068637,0.13416,0.11975,0.63185,-1.0805e-4,0,0,0,0,-0.011486,0.044975,2.25,3.9761,76.654,0.0031093,NaN,57.099,994.19,1114.7,0.031735,0.023158
1.3433,291.51,355.74,-48.778,363.12,50.343,51.202,0.0016193,51.202,0.001812,72.825,12.456,33,107,32.136,1.0594,0,-0.039903,-2.9133e-6,67.921,8.8423e-4,7.5788,0.058195,38.16,26.747,5.0724,0.32871,9277765,0,11.132,0.57514,0.57706,0.43429,0.0068026,0.13405,0.25636,1.3056,-3.7626e-4,0,0,0,0,-0.0056254,0.04479,2.25,3.9761,77.219,0.0033886,NaN,57.058,993.78,1114.6,0.015491,0.023438
1.3588,297.01,354.99,-48.417,362.34,50.38,52.328,0.0016874,52.328,0.0018475,72.621,13.925,33,107,32.136,1.254,0,-0.027799,-2.4202e-6,67.92,0,7.5787,0.058194,38.075,26.747,5.0346,0.32802,9257131,0,11.096,0.57507,0.57774,0.43431,0.006772,0.13399,0.30558,1.5415,1.4926e-4,0,0,0,0,-0.0027417,0.044693,2.25,3.9761,77.409,0.0035651,NaN,57.039,993.59,1114.6,0.013177,0.025348
1.3719,301.69,354.36,-48.187,361.68,50.41,53.284,0.0017464,53.284,0.0018779,72.431,14.805,33,107,32.136,1.3717,0,-0.016157,-2.6882e-6,67.92,0,7.5787,0.058194,38.024,26.747,5.0119,0.32746,9.24e6,0,11.065,0.57501,0.5782,0.43432,0.0067468,0.13394,0.33563,1.6827,1.2454e-4,0,0,0,0,-9.2944e-4,0.044611,2.25,3.9761,77.514,0.0036783,NaN,57.022,993.42,1114.6,0.012115,0.025866
1.384,305.98,353.77,-48.05,361.07,50.398,54.161,0.0018016,54.161,0.0019059,72.249,15.206,33,107,32.136,1.4283,0,-0.0048064,-6.6421e-7,67.92,0,7.5787,0.058194,37.999,26.747,5.001,0.32694,9224325,0,11.032,0.57496,0.57841,0.43434,0.0067236,0.1339,0.35017,1.7512,-2.0799e-4,0,0,0,0,-8.2509e-5,0.044535,2.25,3.9761,77.56,0.0037415,NaN,57.007,993.27,1114.6,0.01168,0.026123
1.3957,310.1,353.21,-47.985,360.49,50.339,55.003,0.0018557,55.003,0.0019331,72.071,15.212,33,107,32.136,1.435,0,0.0063422,-9.9338e-7,67.92,0,7.5787,0.058194,37.996,26.747,4.9996,0.32644,9209201,0,10.996,0.57491,0.57839,0.43435,0.0067014,0.13385,0.35189,1.7593,-1.9892e-4,0,0,0,0,1.4411e-4,0.044463,2.25,3.9761,77.556,0.0037513,NaN,56.992,993.12,1114.5,0.011663,0.026362
1.4074,314.22,352.65,-48.004,359.91,50.22,55.843,0.0019106,55.843,0.0019603,71.895,14.754,33,107,32.136,1.3833,0,0.017279,6.3153e-7,67.92,0,7.5787,0.058194,38.018,26.747,5.0093,0.32593,9193636,0,10.955,0.57486,0.57809,0.43437,0.0066785,0.13381,0.33856,1.695,-1.1323e-4,0,0,0,0,0.001073,0.04439,2.25,3.9761,77.507,0.00373,NaN,56.977,992.97,1114.5,0.012146,0.026614
1.4195,318.5,352.07,-48.099,359.3,50.057,56.715,0.0019685,56.715,0.0019887,71.721,13.862,33,107,32.136,1.2758,0,0.027963,4.8926e-7,67.92,0,7.5787,0.058194,38.064,26.747,5.0298,0.32538,9177170,0,10.906,0.5748,0.57757,0.43438,0.0066543,0.13376,0.31106,1.5618,-2.6127e-4,0,0,0,0,0.0028199,0.044315,2.25,3.9761,77.407,0.0036677,NaN,56.962,992.82,1114.5,0.013229,0.026848
1.4328,323.15,351.43,-48.274,358.64,49.876,57.663,0.0020326,57.663,0.0020197,71.546,12.539,33,107,32.136,1.1107,0,0.038361,1.0616e-6,67.92,0,7.5787,0.058194,38.136,26.747,5.0615,0.32479,9159288,0,10.851,0.57474,0.57685,0.4344,0.006628,0.13371,0.26918,1.3568,-3.5754e-4,0,0,0,0,0.0053266,0.044233,2.25,3.9761,77.249,0.0035888,NaN,56.945,992.65,1114.5,0.015286,0.027084
1.4481,328.52,350.69,-48.56,357.88,49.715,58.755,0.0021079,58.755,0.0020556,71.369,10.654,33,107,32.136,0.86742,0,0.048264,5.4484e-6,67.92,0,7.5787,0.058194,38.243,26.747,5.1091,0.3241,9138693,0,10.787,0.57467,0.57597,0.43442,0.0065979,0.13366,0.20837,1.0558,-2.7514e-4,0,0,0,0,0.0084675,0.044139,2.25,3.9761,77.009,0.0034448,NaN,56.926,992.46,1114.5,0.01973,0.027448
1.4678,335.43,349.73,-49.112,356.9,49.684,60.161,0.0022069,60.161,0.0021018,71.189,7.5199,33,107,32.136,0.44681,0,0.056701,1.3749e-5,67.92,0,7.5787,0.058194,38.433,26.747,5.1936,0.32316,9110355,0,10.702,0.57458,0.57493,0.43445,0.0065564,0.13358,0.10569,0.53749,-1.1389e-4,0,0,0,0,0.011756,0.044018,2.25,3.9761,76.633,0.0031831,NaN,56.902,992.21,1114.4,0.029594,0.0277
1.4974,345.76,348.26,-50.084,355.43,50.158,62.265,0.0023589,62.265,0.0021707,71.038,2.7301,33,107,32.136,0.23453,0,-0.058547,3.241e-5,67.92,0,7.5787,0.058194,38.53,26.747,5.237,0.32174,9067736,0,10.597,0.57444,0.57453,0.43449,0.0064942,0.13346,0.055033,0.30082,-2.5005e-4,0,0,0,0,-0.012645,0.043838,2.25,3.9761,76.008,0.0028758,NaN,56.865,991.85,1114.4,0.044392,0.027922
1.5418,361.17,346.01,-51.088,353.23,51.116,65.418,0.0025943,65.418,0.0022722,71.023,1.6658,33,107,32.136,0.87076,0,-0.041748,1.1252e-5,67.92,0,7.5787,0.058194,38.239,26.747,5.1075,0.31994,9013208,0,10.492,0.57426,0.57557,0.43454,0.0064159,0.13331,0.20913,1.0749,2.1436e-4,0,0,0,0,-0.0065029,0.043571,2.25,3.9761,75.184,0.0028078,NaN,56.81,991.29,1114.3,0.019911,0.028146
1.5617,368.05,344.99,-51.44,352.24,51.538,66.833,0.0027026,66.833,0.0023169,71.071,3.1792,33,107,32.136,1.0875,0,-0.029403,7.0371e-6,67.92,0,7.5787,0.058194,38.143,26.747,5.0647,0.31906,8986716,0,10.443,0.57417,0.5762,0.43456,0.0063778,0.13323,0.26321,1.3358,4.3457e-4,0,0,0,0,-0.0032437,0.043451,2.25,3.9761,74.928,0.0028597,NaN,56.785,991.05,1114.3,0.016114,0.028343
1.5778,373.6,344.16,-51.641,351.44,51.806,67.978,0.0027915,67.978,0.0023528,71.13,4.1292,33,107,32.136,1.223,0,-0.017579,5.9891e-6,67.92,0,7.5787,0.058194,38.083,26.747,5.0382,0.3183,8963949,0,10.399,0.5741,0.57664,0.43458,0.0063451,0.13317,0.29745,1.5002,3.2076e-4,0,0,0,0,-0.001165,0.043355,2.25,3.9761,74.791,0.0029116,NaN,56.765,990.85,1114.3,0.01442,0.028536
1.5922,378.56,343.42,-51.685,350.72,51.883,69.004,0.002872,69.004,0.0023847,71.193,4.5316,33,107,32.136,1.2821,0,-0.0061887,6.0429e-6,67.92,0,7.5787,0.058194,38.057,26.747,5.0266,0.31762,8943598,0,10.356,0.57403,0.57682,0.4346,0.0063158,0.13311,0.31247,1.5712,-1.1802e-4,0,0,0,0,-1.4502e-4,0.043268,2.25,3.9761,74.729,0.0029865,NaN,56.748,990.67,1114.3,0.01383,0.028729
1.606,383.3,342.7,-51.532,350.03,51.707,69.989,0.0029501,69.989,0.0024151,71.256,4.2574,33,107,32.136,1.2479,0,0.0048854,5.0636e-6,67.92,0,7.5787,0.058194,38.071,26.747,5.0331,0.31701,8925445,0,10.311,0.57397,0.57662,0.43462,0.00629,0.13306,0.30374,1.5287,-1.1368e-6,0,0,0,0,9.0717e-5,0.043186,2.25,3.9761,74.726,0.0030891,NaN,56.731,990.5,1114.3,0.014271,0.02893
1.6203,388.19,341.97,-51.166,349.33,51.27,71.007,0.0030316,71.007,0.0024462,71.31,3.2604,33,107,32.136,1.1126,0,0.015411,7.5095e-6,67.92,0,7.5787,0.058194,38.13,26.747,5.0592,0.31646,8908544,0,10.263,0.57392,0.57603,0.43463,0.0062661,0.13302,0.26947,1.3629,4.5667e-4,0,0,0,0,9.0598e-4,0.043101,2.25,3.9761,74.778,0.0032329,NaN,56.713,990.33,1114.2,0.016067,0.029141
1.6364,393.68,341.15,-50.645,348.53,50.676,72.153,0.0031246,72.153,0.0024812,71.35,1.7643,33,107,32.136,0.90328,0,0.025496,8.3138e-6,67.92,0,7.5787,0.058194,38.222,26.747,5.1001,0.31583,8889597,0,10.207,0.57386,0.57526,0.43465,0.0062394,0.13297,0.21712,1.1053,3.2109e-4,0,0,0,0,0.0024895,0.043005,2.25,3.9761,74.898,0.0034617,NaN,56.694,990.13,1114.2,0.019894,0.029379
1.6563,400.45,340.15,-49.939,347.56,49.94,73.572,0.0032415,73.572,0.0025244,71.364,0.33853,33,107,32.136,0.5993,0,0.03468,1.1584e-5,67.92,0,7.5787,0.058194,38.358,26.747,5.1606,0.31503,8865491,0,10.137,0.57378,0.57441,0.43467,0.0062055,0.1329,0.14246,0.73067,-1.1429e-5,0,0,0,0,0.0046296,0.042887,2.25,3.9761,75.115,0.0038028,NaN,56.67,989.89,1114.2,0.029841,0.02978
1.6861,410.58,338.68,-48.933,346.1,49.054,75.701,0.0034209,75.701,0.0025892,71.308,3.4425,33,107,32.136,0.12941,0,0.041362,3.6796e-5,67.92,0,7.5787,0.058194,38.575,26.747,5.257,0.31375,8827035,0,10.039,0.57366,0.57369,0.43471,0.0061513,0.1328,0.030227,0.15202,4.9335e-4,0,0,0,0,0.0066397,0.04271,2.25,3.9761,75.531,0.0043393,NaN,56.634,989.53,1114.1,0.044761,0.030019
1.7309,425.69,336.52,-47.652,343.94,48.273,78.888,0.0037,78.888,0.0026873,71.054,7.7178,33,107,32.136,0.53707,0,-0.035278,4.3327e-6,67.92,0,7.5787,0.058194,38.385,26.747,5.1725,0.3118,8768601,0,9.9142,0.57347,0.57397,0.43476,0.0060694,0.13264,0.12734,0.66391,-9.6868e-5,0,0,0,0,-0.0048914,0.042444,2.25,3.9761,76.172,0.0049827,NaN,56.58,988.99,1114.1,0.03402,0.030487
1.7649,437.11,334.91,-46.955,342.3,48.033,81.301,0.0039204,81.301,0.0027628,70.75,10.118,33,107,32.136,0.90622,-5.943e-9,-0.020373,1.7538e-6,67.92,0,7.5787,0.058194,38.218,26.747,5.0982,0.31035,8725135,0,9.8314,0.57333,0.57475,0.4348,0.0060089,0.13252,0.21775,1.1114,-1.145e-4,0,0,0,0,-0.0016467,0.042243,2.25,3.9761,76.52,0.0052457,NaN,56.539,988.58,1114,0.020522,0.030765
1.7854,443.98,333.95,-46.672,341.31,47.95,82.75,0.0040568,82.75,0.0028089,70.532,10.999,33,107,32.136,1.0433,-5.0841e-9,-0.0083717,1.1701e-6,67.92,0,7.5787,0.058194,38.157,26.747,5.071,0.30951,8699860,0,9.7821,0.57325,0.57512,0.43482,0.005974,0.13245,0.25192,1.2774,-2.229e-4,0,0,0,0,-2.7957e-4,0.042121,2.25,3.9761,76.627,0.0052889,NaN,56.514,988.33,1114,0.017956,0.030992
1.8034,449.96,333.11,-46.542,340.45,47.871,84.015,0.0041782,84.015,0.0028494,70.332,11.202,33,107,32.136,1.0805,0,0.0029939,2.2629e-6,67.92,0,7.5787,0.058194,38.14,26.747,5.0636,0.30877,8677593,0,9.7342,0.57318,0.57518,0.43484,0.0059433,0.13239,0.26125,1.3224,-2.6246e-4,0,0,0,0,3.593e-5,0.042015,2.25,3.9761,76.645,0.0052601,NaN,56.493,988.12,1114,0.017433,0.031228
1.8208,455.76,332.3,-46.542,339.62,47.774,85.239,0.0042979,85.239,0.002889,70.14,10.777,33,107,32.136,1.0263,0,0.013856,1.5957e-6,67.92,0,7.5787,0.058194,38.164,26.747,5.074,0.30802,8655224,0,9.6807,0.57311,0.57492,0.43487,0.0059124,0.13233,0.24763,1.2554,-1.7985e-4,0,0,0,0,7.7333e-4,0.041912,2.25,3.9761,76.592,0.0051737,NaN,56.472,987.91,1114,0.018455,0.031463
1.8393,461.89,331.44,-46.639,338.74,47.672,86.532,0.0044265,86.532,0.0029309,69.948,9.8715,33,107,32.136,0.89954,0,0.02431,1.179e-6,67.92,0,7.5787,0.058194,38.219,26.747,5.0988,0.30724,8631607,0,9.6208,0.57304,0.57443,0.43489,0.00588,0.13227,0.21604,1.099,4.1571e-5,0,0,0,0,0.0023928,0.041803,2.25,3.9761,76.464,0.0050646,NaN,56.451,987.69,1113.9,0.021195,0.031885
1.8605,468.9,330.45,-46.866,337.73,47.601,88.012,0.0045763,88.012,0.0029792,69.754,8.3347,33,107,32.136,0.6742,0,0.034084,4.8139e-6,67.92,0,7.5787,0.058194,38.32,26.747,5.1435,0.30632,8604342,0,9.5499,0.57295,0.57374,0.43491,0.0058426,0.1322,0.16059,0.82103,-2.1778e-4,0,0,0,0,0.004732,0.041678,2.25,3.9761,76.24,0.0048983,NaN,56.426,987.44,1113.9,0.028547,0.032144
1.889,478.32,329.1,-47.319,336.37,47.669,90.001,0.0047816,90.001,0.0030441,69.553,5.7638,33,107,32.136,0.27849,0,0.041962,1.4339e-5,67.92,0,7.5787,0.058194,38.501,26.747,5.224,0.30509,8567448,0,9.4572,0.57284,0.57297,0.43494,0.0057922,0.1321,0.065365,0.33383,9.962e-5,0,0,0,0,0.0072308,0.041512,2.25,3.9761,75.843,0.0046538,NaN,56.392,987.11,1113.9,0.042821,0.03297
1.9318,492.37,327.06,-48.041,334.34,48.09,92.975,0.0050967,92.975,0.0031408,69.385,2.18,33,107,32.136,0.30583,0,-0.041258,1.8811e-5,67.92,0,7.5787,0.058194,38.487,26.747,5.218,0.30331,8514314,0,9.3404,0.57267,0.57284,0.43499,0.0057202,0.13196,0.071845,0.38227,-2.1328e-4,0,0,0,0,-0.0070731,0.041264,2.25,3.9761,75.184,0.004612,NaN,56.342,986.6,1113.8,0.05,0.033233
1.9818,508.66,324.64,-48.816,331.97,48.834,96.443,0.0054756,96.443,0.003253,69.367,1.3374,33,107,32.136,0.87776,-8.0854e-9,-0.024215,1.0212e-5,67.92,0,7.5787,0.058194,38.226,26.747,5.1017,0.30114,8449500,0,9.2169,0.57247,0.5738,0.43505,0.0056327,0.13179,0.21054,1.0766,2.5715e-4,0,0,0,0,-0.0024721,0.040976,2.25,3.9761,74.572,0.0051091,NaN,56.284,986.02,1113.8,0.02256,0.033482
2.0044,515.97,323.54,-48.964,330.9,49.012,98.008,0.0056508,98.008,0.0033035,69.408,2.1806,33,107,32.136,1.0157,-6.9221e-9,-0.012142,8.9444e-6,67.92,0,7.5787,0.058194,38.164,26.747,5.0743,0.30014,8419721,0,9.1588,0.57238,0.57415,0.43508,0.0055928,0.13171,0.24485,1.2434,-4.1054e-4,0,0,0,0,-6.2573e-4,0.040847,2.25,3.9761,74.424,0.005378,NaN,56.258,985.76,1113.7,0.019669,0.033729
2.0241,522.32,322.57,-48.868,329.97,48.915,99.374,0.0058059,99.374,0.0033475,69.451,2.1553,33,107,32.136,1.0158,-7.3386e-9,-9.9707e-4,7.7846e-6,67.92,0,7.5787,0.058194,38.164,26.747,5.0741,0.29931,8395171,0,9.1054,0.5723,0.57407,0.4351,0.00556,0.13165,0.24486,1.2429,3.1241e-4,0,0,0,0,-4.2429e-6,0.040734,2.25,3.9761,74.377,0.0056139,NaN,56.235,985.53,1113.7,0.019791,0.033973
2.0438,528.7,321.61,-48.622,329.03,48.65,100.75,0.0059644,100.75,0.0033919,69.49,1.654,33,107,32.136,0.93832,-6.6722e-9,0.0097245,8.3435e-6,67.92,0,7.5787,0.058194,38.198,26.747,5.0891,0.29849,8370534,0,9.0479,0.57223,0.57374,0.43512,0.0055273,0.13158,0.22552,1.1475,-2.3667e-4,0,0,0,0,4.0585e-4,0.040621,2.25,3.9761,74.409,0.0058076,NaN,56.212,985.31,1113.7,0.021558,0.03424
2.0654,535.62,320.57,-48.143,328.02,48.145,102.25,0.0061398,102.25,0.0034405,69.513,0.37413,33,107,32.136,0.73246,-7.1228e-9,0.019719,1.062e-5,67.92,0,7.5787,0.058194,38.289,26.747,5.1299,0.29765,8345434,0,8.9845,0.57215,0.57308,0.43514,0.0054941,0.13152,0.17472,0.8944,1.0154e-4,0,0,0,0,0.0016783,0.040498,2.25,3.9761,74.525,0.0060291,NaN,56.188,985.06,1113.7,0.027823,0.034474
2.0932,544.52,319.24,-47.374,326.71,47.41,104.18,0.0063705,104.18,0.0035035,69.493,1.868,33,107,32.136,0.35851,-6.6068e-9,0.028044,2.0162e-5,67.92,0,7.5787,0.058194,38.46,26.747,5.2056,0.2966,8314056,0,8.9061,0.57206,0.57228,0.43517,0.0054529,0.13144,0.084341,0.43523,3.0888e-4,0,0,0,0,0.0034187,0.04034,2.25,3.9761,74.769,0.0063015,NaN,56.156,984.74,1113.6,0.041734,0.034706
2.135,557.8,317.28,-46.317,324.77,46.596,107.08,0.0067256,107.08,0.0035987,69.347,5.0876,33,107,32.136,0.20638,-6.4004e-9,-0.029595,2.3626e-5,67.92,0,7.5787,0.058194,38.53,26.747,5.2368,0.29496,8265009,0,8.7989,0.57191,0.57199,0.43521,0.0053887,0.13131,0.048273,0.25674,-2.4054e-4,0,0,0,0,-0.0038503,0.040104,2.25,3.9761,75.217,0.0065262,NaN,56.109,984.27,1113.6,0.05,0.034948
2.185,573.61,314.99,-45.35,322.46,46.075,110.54,0.0071648,110.54,0.0037138,69.01,8.1399,33,107,32.135,0.74214,-9.4183e-9,-0.016358,2.8785e-6,67.92,0,7.5787,0.058194,38.283,26.747,5.1269,0.29299,8206192,0,8.6873,0.57173,0.57269,0.43526,0.0053121,0.13116,0.17703,0.90849,1.9053e-4,0,0,0,0,-0.0011923,0.03982,2.25,3.9761,75.651,0.006584,NaN,56.052,983.7,1113.5,0.028309,0.035368
2.2133,582.51,313.71,-45.132,321.16,45.93,112.49,0.0074197,112.49,0.0037792,68.768,8.5258,33,107,32.135,0.82078,-9.4975e-9,-0.0041778,4.9222e-6,67.92,0,7.5787,0.058194,38.247,26.747,5.1109,0.29177,8170090,0,8.6139,0.57163,0.57279,0.43529,0.0052652,0.13107,0.19633,1.004,1.5658e-4,0,0,0,0,-7.8426e-5,0.03966,2.25,3.9761,75.756,0.0065235,NaN,56.02,983.38,1113.5,0.025839,0.037174
2.2391,590.6,312.55,-45.183,319.98,45.846,114.26,0.0076559,114.26,0.0038389,68.556,7.764,33,107,32.135,0.70689,-8.5354e-9,0.0062179,5.1763e-6,67.92,0,7.5787,0.058194,38.297,26.747,5.1334,0.29055,8134203,0,8.5337,0.57152,0.57238,0.43532,0.0052185,0.13097,0.16837,0.86382,2.987e-4,0,0,0,0,1.7519e-4,0.039514,2.25,3.9761,75.745,0.006337,NaN,55.992,983.09,1113.4,0.030293,0.038003
2.2694,600.05,311.18,-45.245,318.59,45.77,116.34,0.0079367,116.34,0.0039088,68.336,6.9076,33,107,32.135,0.57019,-7.1354e-9,0.016031,6.4337e-6,67.92,0,7.5787,0.058194,38.359,26.747,5.1608,0.28927,8096207,0,8.4495,0.5714,0.57197,0.43536,0.0051696,0.13088,0.13512,0.69592,1.1211e-5,0,0,0,0,0.001175,0.039344,2.25,3.9761,75.622,0.0061214,NaN,55.958,982.76,1113.4,0.037948,0.038251
2.3073,611.82,309.46,-45.424,316.86,45.754,118.92,0.0082938,118.92,0.0039958,68.098,5.4826,33,107,32.135,0.32597,-6.3538e-9,0.025018,1.7318e-5,67.92,0,7.5787,0.058194,38.471,26.747,5.2104,0.28774,8050759,0,8.3493,0.57127,0.57146,0.4354,0.0051116,0.13076,0.07654,0.39592,3.3761e-4,0,0,0,0,0.0028923,0.039131,2.25,3.9761,75.336,0.0059052,NaN,55.916,982.33,1113.4,0.05,0.03846
2.3573,627.24,307.17,-45.931,314.59,46.009,122.32,0.008773,122.32,0.0041092,67.896,2.6823,33,107,32.135,0.18341,-7.2528e-9,-0.026619,3.6076e-5,67.92,0,7.5787,0.058194,38.536,26.747,5.2396,0.2856,7987412,0,8.2162,0.57108,0.57114,0.43545,0.005031,0.1306,0.04283,0.22822,1.7783e-4,0,0,0,0,-0.0033241,0.038854,2.25,3.9761,74.853,0.0057838,NaN,55.861,981.78,1113.3,0.05,0.038699
2.4073,642.54,304.87,-46.213,312.32,46.223,125.72,0.0092614,125.72,0.004221,67.809,0.95757,33,107,32.135,0.50576,-5.281e-9,-0.017648,1.4624e-5,67.92,0,7.5787,0.058194,38.386,26.747,5.1727,0.28359,7927807,0,8.0994,0.57091,0.57136,0.4355,0.0049561,0.13045,0.11951,0.61989,1.3893e-4,0,0,0,0,-0.0014821,0.038578,2.25,3.9761,74.443,0.0059414,NaN,55.806,981.24,1113.2,0.044397,0.039065
2.4517,656.03,302.82,-46.178,310.31,46.181,128.73,0.0097034,128.73,0.004319,67.782,0.45504,33,107,32.135,0.60242,-8.8917e-9,-0.0051932,1.1437e-5,67.92,0,7.5787,0.058194,38.341,26.747,5.1527,0.28181,7875159,0,7.9946,0.57076,0.57139,0.43554,0.0048903,0.13032,0.14284,0.73591,-3.889e-4,0,0,0,0,-1.2997e-4,0.038334,2.25,3.9761,74.258,0.006414,NaN,55.758,980.75,1113.2,0.03789,0.039515
2.4896,667.47,301.07,-45.795,308.6,45.812,131.29,0.010087,131.29,0.0044021,67.751,1.2574,33,107,32.135,0.45461,-9.6793e-9,0.0046997,1.2292e-5,67.92,0,7.5787,0.058194,38.408,26.747,5.1824,0.2804,7833175,0,7.9059,0.57064,0.571,0.43558,0.0048384,0.13022,0.1072,0.55497,-9.8804e-5,0,0,0,0,1.0752e-4,0.038127,2.25,3.9761,74.258,0.007027,NaN,55.717,980.35,1113.1,0.05,0.039732
2.5396,682.47,298.8,-45.063,306.36,45.172,134.68,0.010606,134.68,0.0045119,67.644,3.1354,33,107,32.135,0.089754,-8.5314e-9,0.011458,2.9354e-5,67.92,0,7.5787,0.058194,38.577,26.747,5.2578,0.27857,7778973,0,7.7922,0.57048,0.5705,0.43562,0.004772,0.13009,0.020876,0.10939,-4.9434e-4,0,0,0,0,6.476e-4,0.037855,2.25,3.9761,74.416,0.0078489,NaN,55.664,979.81,1113.1,0.05,0.039961
2.5896,697.35,296.56,-44.536,304.14,44.741,138.06,0.011138,138.06,0.0046225,67.454,4.2792,33,107,32.135,0.15053,-8.4403e-9,-0.010331,7.9691e-6,67.92,0,7.5787,0.058194,38.547,26.747,5.2446,0.27655,7719271,0,7.6732,0.57031,0.57035,0.43567,0.0046988,0.12994,0.035086,0.18452,-1.45e-4,0,0,0,0,-5.3426e-4,0.037583,2.25,3.9761,74.621,0.0085938,NaN,55.611,979.28,1113,0.05,0.040188
2.6396,712.12,294.35,-44.027,301.92,44.363,141.42,0.011686,141.42,0.0047345,67.211,5.4535,33,107,32.135,0.39567,-7.7249e-9,-0.0040034,2.1683e-6,67.92,0,7.5787,0.058194,38.432,26.747,5.1934,0.27464,7662945,0,7.5647,0.57016,0.57043,0.43572,0.0046306,0.12981,0.093058,0.48365,1.1172e-4,0,0,0,0,-8.1357e-5,0.037313,2.25,3.9761,74.758,0.0090272,NaN,55.558,978.75,1113,0.05,0.040409
2.6896,726.79,292.16,-43.763,299.72,44.133,144.78,0.01225,144.78,0.004848,66.927,5.7024,33,107,32.135,0.45886,-7.5701e-9,0.0062231,2.3263e-6,67.92,0,7.5787,0.058194,38.402,26.747,5.18,0.27272,7606189,0,7.4543,0.57,0.57036,0.43577,0.0045623,0.12967,0.10816,0.5603,-1.4607e-4,0,0,0,0,1.9938e-4,0.037043,2.25,3.9761,74.739,0.008912,NaN,55.506,978.22,1112.9,0.05,0.040683
2.7396,741.34,289.97,-43.876,297.53,44.103,148.12,0.012828,148.12,0.0049623,66.667,4.4743,33,107,32.135,0.22495,-6.4583e-9,0.014397,9.4719e-6,67.92,0,7.5787,0.058194,38.51,26.747,5.2279,0.27063,7545039,0,7.3311,0.56983,0.56991,0.43582,0.004489,0.12952,0.052557,0.27357,-2.7359e-4,0,0,0,0,0.0010837,0.036774,2.25,3.9761,74.546,0.008287,NaN,55.454,977.7,1112.8,0.05,0.040918
2.7896,755.78,287.76,-44.239,295.35,44.302,151.44,0.013418,151.44,0.0050764,66.495,2.3649,33,107,32.135,0.20618,-6.1864e-9,-0.014764,1.137e-5,67.92,0,7.5787,0.058194,38.518,26.747,5.2314,0.26839,7479477,0,7.2037,0.56964,0.56972,0.43587,0.0044108,0.12936,0.04813,0.25297,3.9139e-4,0,0,0,0,-0.0011589,0.036508,2.25,3.9761,74.269,0.0076657,NaN,55.403,977.19,1112.8,0.05,0.041139
2.8396,770.12,285.55,-44.198,293.17,44.237,154.77,0.014018,154.77,0.0051894,66.398,1.8576,33,107,32.135,0.31331,0,-0.0083462,8.6699e-6,67.92,0,7.5787,0.058194,38.467,26.747,5.2087,0.26647,7423134,0,7.0968,0.56949,0.56966,0.43591,0.0043447,0.12923,0.07342,0.38292,3.6094e-4,0,0,0,0,-3.7575e-4,0.036243,2.25,3.9761,74.058,0.0074316,NaN,55.351,976.68,1112.7,0.05,0.041357
2.8896,784.34,283.35,-44.005,291,44.045,158.08,0.014626,158.08,0.0053009,66.305,1.8731,33,107,32.135,0.30802,0,-0.0016122,6.867e-6,67.92,0,7.5787,0.058194,38.468,26.747,5.2095,0.26455,7366681,0,6.9891,0.56934,0.5695,0.43596,0.0042789,0.1291,0.072156,0.37622,-4.5694e-4,0,0,0,0,-1.4227e-5,0.03598,2.25,3.9761,73.969,0.0075949,NaN,55.301,976.17,1112.7,0.05,0.041585
2.9396,798.45,281.16,-43.339,288.84,43.493,161.4,0.015243,161.4,0.0054111,66.174,3.65,33,107,32.135,0.080305,0,-0.0014581,-1.1999e-5,67.92,0,7.5787,0.058194,38.575,26.747,5.2567,0.26302,7321106,0,6.9014,0.56921,0.56922,0.43599,0.0042269,0.12899,0.018651,0.097989,-4.165e-4,0,0,0,0,-1.1773e-5,0.035717,2.25,3.9761,73.98,0.0081131,NaN,55.25,975.66,1112.6,0.05,0.041829
2.9896,812.46,279,-43.101,286.7,43.27,164.7,0.015869,164.7,0.0055206,65.977,3.8227,33,107,32.135,0.13045,0,0.0015873,-6.2739e-6,67.92,0,7.5787,0.058194,38.55,26.747,5.2458,0.26108,7264267,0,6.7948,0.56906,0.56909,0.43604,0.0041615,0.12886,0.03035,0.15911,3.3528e-4,0,0,0,0,1.4163e-5,0.035455,2.25,3.9761,73.98,0.0085683,NaN,55.2,975.16,1112.6,0.05,0.042066
3.0396,826.35,276.85,-43,284.56,43.141,168,0.016506,168,0.0056296,65.795,3.4913,33,107,32.135,0.068276,0,0.003614,-7.7548e-6,67.92,0,7.5787,0.058194,38.579,26.747,5.2585,0.25906,7205305,0,6.6846,0.5689,0.56891,0.43608,0.0040942,0.12872,0.015845,0.083297,3.8023e-5,0,0,0,0,7.4575e-5,0.035195,2.25,3.9761,73.931,0.0091198,NaN,55.151,974.67,1112.5,0.05,0.042294
3.0896,840.14,274.7,-42.861,282.43,42.99,171.28,0.017155,171.28,0.0057385,65.625,3.3294,33,107,32.135,0.040629,0,0.0046537,-1.5306e-5,67.92,0,7.5787,0.058194,38.591,26.747,5.264,0.25712,7148764,0,6.58,0.56875,0.56876,0.43613,0.0040302,0.12859,0.0094182,0.049495,3.91e-5,0,0,0,0,1.2554e-4,0.034935,2.25,3.9761,73.856,0.0096486,NaN,55.102,974.17,1112.5,0.05,0.042521
3.1396,853.82,272.56,-42.81,280.31,42.904,174.56,0.017815,174.56,0.0058476,65.469,2.8473,33,107,32.135,0.062129,0,-0.004575,-4.0287e-6,67.92,0,7.5787,0.058194,38.58,26.747,5.2591,0.25511,7090082,0,6.4724,0.5686,0.56861,0.43617,0.0039643,0.12846,0.014412,0.075714,1.386e-4,0,0,0,0,-1.2326e-4,0.034677,2.25,3.9761,73.77,0.010065,NaN,55.053,973.68,1112.4,0.05,0.04274
3.1896,867.4,270.42,-42.636,278.2,42.73,177.83,0.018489,177.83,0.0059572,65.33,2.8313,33,107,32.135,0.058545,0,-0.0031606,-1.0013e-6,67.92,0,7.5787,0.058194,38.581,26.747,5.2595,0.25322,7034783,0,6.3718,0.56845,0.56846,0.43622,0.0039028,0.12834,0.013577,0.07168,-1.0983e-4,0,0,0,0,-5.9715e-5,0.03442,2.25,3.9761,73.701,0.01035,NaN,55.004,973.2,1112.3,0.05,0.042958
3.2396,880.86,268.3,-42.368,276.1,42.486,181.09,0.019176,181.09,0.0060672,65.18,3.1725,33,107,32.135,0.030783,0,0.0028153,-1.5227e-5,67.92,0,7.5787,0.058194,38.593,26.747,5.265,0.25142,6982222,0,6.277,0.56832,0.56832,0.43626,0.0038449,0.12822,0.0071303,0.037197,4.398e-4,0,0,0,0,4.8065e-5,0.034165,2.25,3.9761,73.649,0.010597,NaN,54.956,972.72,1112.3,0.05,0.043253
3.2896,894.23,266.19,-41.994,274.01,42.177,184.35,0.019876,184.35,0.0061776,65.004,3.9281,33,107,32.134,0.21996,0,0.0050862,-4.0325e-6,67.92,0,7.5787,0.058194,38.503,26.747,5.225,0.24978,6934220,0,6.1921,0.5682,0.56828,0.43629,0.0037928,0.12811,0.051307,0.26794,-2.6557e-4,0,0,0,0,1.5896e-4,0.03391,2.25,3.9761,73.583,0.01068,NaN,54.909,972.24,1112.2,0.05,0.043496
3.3396,907.48,264.09,-41.937,271.93,42.084,187.59,0.020589,187.59,0.0062884,64.813,3.5166,33,107,32.134,0.12967,0,0.008861,2.0832e-6,67.92,0,7.5787,0.058194,38.545,26.747,5.2435,0.24788,6878739,0,6.0928,0.56805,0.56808,0.43633,0.0037324,0.12799,0.03014,0.15769,1.827e-4,0,0,0,0,4.8996e-4,0.033656,2.25,3.9761,73.455,0.010555,NaN,54.862,971.77,1112.2,0.05,0.043728
3.3896,920.64,262,-41.842,269.85,41.97,190.83,0.021313,190.83,0.0063992,64.645,3.2804,33,107,32.134,0.076704,0,0.010568,1.9512e-5,67.92,0,7.5787,0.058194,38.569,26.747,5.2544,0.24608,6826401,0,6.0004,0.56792,0.56793,0.43637,0.0036761,0.12787,0.017792,0.093123,9.9513e-5,0,0,0,0,7.0718e-4,0.033403,2.25,3.9761,73.279,0.010241,NaN,54.815,971.29,1112.1,0.05,0.04397
3.4396,933.68,259.91,-41.713,267.79,41.835,194.06,0.022048,194.06,0.0065096,64.483,3.1858,33,107,32.134,0.056293,0,0.011766,5.8681e-5,67.92,0,7.5787,0.058194,38.578,26.747,5.2584,0.24436,6776323,0,5.9127,0.56779,0.5678,0.43641,0.0036227,0.12776,0.013046,0.067397,-4.8327e-4,0,0,0,0,8.8909e-4,0.033151,2.25,3.9761,73.077,0.0098404,NaN,54.768,970.83,1112.1,0.05,0.044264
3.4896,946.63,257.83,-41.584,265.73,41.7,197.28,0.022791,197.28,0.0066193,64.326,3.1081,33,107,32.134,0.038739,0,0.012602,1.1944e-4,67.92,0,7.5787,0.058194,38.586,26.747,5.2618,0.24268,6727200,0,5.8275,0.56767,0.56767,0.43645,0.0035708,0.12766,0.0089708,0.046646,1.9189e-4,0,0,0,0,0.0010342,0.0329,2.25,3.9761,72.858,0.0095233,NaN,54.722,970.37,1112,0.05,0.044509
3.5396,959.47,255.75,-41.548,263.68,41.637,200.49,0.023543,200.49,0.0067281,64.179,2.7125,33,107,32.134,0.062462,0,-0.0125,7.4305e-5,67.92,0,7.5787,0.058194,38.574,26.747,5.2565,0.2409,6675495,0,5.7384,0.56754,0.56755,0.43648,0.0035163,0.12754,0.014476,0.076712,-1.0271e-4,0,0,0,0,-0.0010327,0.032651,2.25,3.9761,72.629,0.0097672,NaN,54.676,969.91,1112,0.05,0.044764
3.5896,972.2,253.67,-41.437,261.63,41.518,203.69,0.024303,203.69,0.006836,64.048,2.5874,33,107,32.134,0.094185,0,-0.010975,3.0223e-5,67.92,0,7.5787,0.058194,38.558,26.747,5.2495,0.23919,6625801,0,5.6535,0.56742,0.56744,0.43652,0.0034645,0.12744,0.021851,0.11508,3.2034e-4,0,0,0,0,-8.0756e-4,0.032402,2.25,3.9761,72.417,0.010444,NaN,54.631,969.45,1111.9,0.05,0.045006
3.6396,984.83,251.6,-41.475,259.6,41.52,206.89,0.025073,206.89,0.0069435,63.933,1.9493,33,107,32.134,0.26159,0,-0.0081331,1.4822e-5,67.92,0,7.5787,0.058194,38.479,26.747,5.2141,0.23726,6.57e6,0,5.5596,0.56728,0.5674,0.43656,0.0034064,0.12732,0.061063,0.31873,1.5918e-4,0,0,0,0,-4.5077e-4,0.032155,2.25,3.9761,72.241,0.011213,NaN,54.586,969,1111.9,0.05,0.045271
3.6896,997.36,249.53,-41.47,257.57,41.495,210.09,0.025854,210.09,0.0070511,63.85,1.4392,33,107,32.134,0.39482,0,-0.0024605,1.5781e-5,67.92,0,7.5787,0.058194,38.416,26.747,5.1862,0.23527,6512559,0,5.4643,0.56714,0.56741,0.4366,0.0033472,0.1272,0.092612,0.48035,2.4382e-4,0,0,0,0,-4.1959e-5,0.031908,2.25,3.9761,72.142,0.012127,NaN,54.541,968.55,1111.8,0.05,0.045507
3.7396,1009.8,247.45,-41.466,255.54,41.475,213.28,0.02665,213.28,0.0071592,63.791,0.8854,33,107,32.134,0.53781,0,0.0052349,1.5336e-5,67.92,0,7.5787,0.058194,38.349,26.747,5.1566,0.23312,6450670,0,5.3629,0.56699,0.56749,0.43664,0.0032837,0.12706,0.12681,0.6534,-2.344e-4,0,0,0,0,1.9348e-4,0.031663,2.25,3.9761,72.164,0.012987,NaN,54.497,968.11,1111.8,0.05,0.045735
3.7896,1022.1,245.39,-40.981,253.53,41.025,216.47,0.02746,216.47,0.0072683,63.729,1.892,33,107,32.134,0.24591,0,0.012218,2.7686e-5,67.92,0,7.5787,0.058194,38.484,26.747,5.2164,0.23134,6399410,0,5.2745,0.56687,0.56698,0.43668,0.003232,0.12696,0.057351,0.29833,-5.308e-5,0,0,0,0,0.0010703,0.031419,2.25,3.9761,72.329,0.013574,NaN,54.453,967.67,1111.7,0.05,0.046319
3.8396,1034.3,243.36,-40.398,251.53,40.531,219.65,0.028286,219.65,0.0073784,63.599,3.2814,33,107,32.134,0.17302,0,-0.012766,3.185e-5,67.92,0,7.5787,0.058194,38.518,26.747,5.2313,0.22967,6350904,0,5.1945,0.56676,0.56681,0.43671,0.0031835,0.12686,0.040237,0.21179,-2.6667e-4,0,0,0,0,-0.0011856,0.031176,2.25,3.9761,72.563,0.013838,NaN,54.409,967.23,1111.7,0.05,0.04653
3.8896,1046.4,241.35,-39.951,249.54,40.179,222.83,0.029126,222.83,0.0074893,63.407,4.2756,33,107,32.134,0.48104,0,-0.0074014,8.7133e-6,67.92,0,7.5787,0.058194,38.373,26.747,5.1673,0.22794,6300818,0,5.1161,0.56664,0.56704,0.43675,0.0031338,0.12675,0.11315,0.58548,3.398e-4,0,0,0,0,-4.0465e-4,0.030933,2.25,3.9761,72.752,0.013759,NaN,54.366,966.8,1111.6,0.05,0.046746
3.9396,1058.5,239.36,-39.66,247.56,39.946,225.99,0.02998,225.99,0.0076008,63.179,4.7741,33,107,32.134,0.64525,0,0.0015203,8.9518e-6,67.92,0,7.5787,0.058194,38.298,26.747,5.1336,0.2262,6250805,0,5.0381,0.56652,0.56724,0.43678,0.0030845,0.12665,0.15268,0.78401,-2.666e-4,0,0,0,0,1.7336e-5,0.030691,2.25,3.9761,72.808,0.013407,NaN,54.323,966.37,1111.6,0.05,0.046982
3.9896,1070.4,237.38,-39.43,245.58,39.757,229.14,0.030845,229.14,0.0077126,62.932,5.0903,33,107,32.134,0.75151,-5.4707e-9,0.012245,1.2783e-5,67.92,0,7.5787,0.058194,38.249,26.747,5.1119,0.22463,6205360,0,4.9675,0.56642,0.56738,0.43682,0.0030402,0.12656,0.1785,0.91177,3.8436e-4,0,0,0,0,0.0011407,0.03045,2.25,3.9761,72.686,0.012718,NaN,54.281,965.94,1111.5,0.048872,0.047222
