# Time (s),Altitude (ft),Vertical velocity (ft/s),Vertical acceleration (ft/s²),Total velocity (ft/s),Total acceleration (ft/s²),Position East of launch (ft),Position North of launch (ft),Lateral distance (ft),Lateral direction (°),Lateral velocity (ft/s),Lateral acceleration (ft/s²),Latitude (°),Longitude (°),Gravitational acceleration (ft/s²),Angle of attack (°),Roll rate (r/s),Pitch rate (r/s),Yaw rate (r/s),Mass (oz),Propellant mass (oz),Longitudinal moment of inertia (lb·ft²),Rotational moment of inertia (lb·ft²),CP location (in),CG location (in),Stability margin calibers (?),Mach number (?),Reynolds number (?),Thrust (N),Drag force (N),Drag coefficient (?),Axial drag coefficient (?),Friction drag coefficient (?),Pressure drag coefficient (?),Base drag coefficient (?),Normal force coefficient (?),Pitch moment coefficient (?),Yaw moment coefficient (?),Side force coefficient (?),Roll moment coefficient (?),Roll forcing coefficient (?),Roll damping coefficient (?),Pitch damping coefficient (?),Coriolis acceleration (ft/s²),Reference length (in),Reference area (in²),Vertical orientation (zenith) (°),Lateral orientation (azimuth) (°),Wind velocity (ft/s),Air temperature (°F),Air pressure (mbar),Speed of sound (ft/s),Simulation time step (s),Computation time (s)
0,0,0,436.68,0,439.96,0,0,0,0,0,53.618,33,107,32.137,83,0,0,0,101.78,19.629,10.147,0.067153,NaN,31.93,NaN,0.0064511,183519,415,2.41E-05,0.75293,0.0032038,0.63292,2.42E-06,0.12001,NaN,NaN,NaN,NaN,NaN,NaN,NaN,NaN,0,2.25,3.9761,83,0,NaN,58.097,1004.2,1115.8,0.01,0.036313
0.01,0.021834,4.3668,1405,4.3996,1415.5,0.0026809,0,0.0026809,0,0.53618,172.51,33,107,32.137,53.428,0,0,0,101.78,19.629,10.147,0.067153,NaN,31.93,NaN,0.0079304,225599,1273,0.0033478,0.72289,0.29506,0.60288,3.65E-06,0.12001,NaN,NaN,NaN,NaN,NaN,NaN,NaN,NaN,5.40E-04,2.25,3.9761,83,0,NaN,58.097,1004.2,1115.8,0.01,0.036808
0.02,0.13581,18.432,1947.5,18.57,1962.1,0.016676,0,0.016676,0,2.2632,239.12,33,107,32.137,19.983,0,0,0,101.65,19.496,10.139,0.067121,NaN,31.916,NaN,0.018537,527342,1751.5,0.049445,0.61937,0.79756,0.49931,2.00E-05,0.12004,NaN,NaN,NaN,NaN,NaN,NaN,NaN,NaN,0.0022785,2.25,3.9761,83,0,NaN,58.097,1004.2,1115.8,0.01,0.03712
0.03,0.41766,37.945,2040.9,38.23,2056.3,0.051282,0,0.051282,0,4.6591,250.6,33,107,32.137,10.195,0,0,0,101.41,19.259,10.125,0.067063,NaN,31.891,NaN,0.035599,1012699,1830,0.15269,0.55921,0.66785,0.43898,7.37E-05,0.12016,NaN,NaN,NaN,NaN,NaN,NaN,NaN,NaN,0.0046907,2.25,3.9761,83,0,NaN,58.096,1004.2,1115.8,0.01,0.037463
0.04,0.89935,58.402,2108.4,58.84,2124.3,0.11043,0,0.11043,0,7.1708,258.88,33,107,32.137,6.6803,0,0,0,101.13,18.977,10.109,0.066994,NaN,31.86,NaN,0.053871,1532452,1884.5,0.32294,0.55945,0.61683,0.4389,1.69E-04,0.12038,NaN,NaN,NaN,NaN,NaN,NaN,NaN,NaN,0.0072195,2.25,3.9761,83,0,NaN,58.094,1004.2,1115.8,0.01,0.037928
0.05,1.589,79.536,2140,80.133,2156,0.1951,0,0.1951,0,9.7658,262.75,33,107,32.137,4.9078,0,0,0,100.84,18.685,10.092,0.066922,NaN,31.828,NaN,0.072852,2072374,1907,0.56845,0.5598,0.59371,0.4388,3.09E-04,0.12069,NaN,NaN,NaN,NaN,NaN,NaN,NaN,NaN,0.0098321,2.25,3.9761,83,0,NaN,58.091,1004.1,1115.8,0.01,0.038362
0.06,2.4916,100.99,2196.3,101.75,2212.8,0.30592,0,0.30592,0,12.4,269.67,33,107,32.137,3.9144,0,0,0,100.54,18.387,10.075,0.066849,NaN,31.796,NaN,0.092178,2622063,1951,0.89344,0.56026,0.58289,0.43866,4.97E-04,0.1211,NaN,NaN,NaN,NaN,NaN,NaN,NaN,NaN,0.012484,2.25,3.9761,83,0,NaN,58.088,1004.1,1115.8,0.01,0.038865
0.07,3.6115,123,2253.6,123.93,2270.5,0.44343,0,0.44343,0,15.103,276.7,33,107,32.137,3.2507,0,0,0,100.24,18.083,10.057,0.066774,NaN,31.762,NaN,0.11203,3186727,1995.5,1.3063,0.56085,0.57695,0.43848,7.36E-04,0.12163,NaN,NaN,NaN,NaN,NaN,NaN,NaN,NaN,0.015206,2.25,3.9761,83,0,NaN,58.084,1004.1,1115.7,0.01,0.039343
0.08,4.9544,145.6,2298.6,146.69,2315.8,0.60833,0,0.60833,0,17.877,282.23,33,107,32.137,2.7759,0,0,0,99.927,17.773,10.039,0.066698,NaN,31.728,NaN,0.13242,3766392,2029,1.8141,0.56157,0.57358,0.43826,0.0010313,0.12228,NaN,NaN,NaN,NaN,NaN,NaN,NaN,NaN,0.017998,2.25,3.9761,83,0,NaN,58.079,1004,1115.7,0.01,0.039807
0.09,6.5255,168.64,2334.7,169.91,2352.2,0.80124,0,0.80124,0,20.706,286.66,33,107,32.137,2.4213,0,0,0,99.61,17.457,10.02,0.066621,NaN,31.693,NaN,0.15321,4357791,2054.5,2.4207,0.56244,0.57173,0.438,0.0013867,0.12305,NaN,NaN,NaN,NaN,NaN,NaN,NaN,NaN,0.020847,2.25,3.9761,83,0,NaN,58.074,1004,1115.7,0.01,0.040242
0.1,8.3289,192.05,2354.8,193.49,2372.5,1.0227,0,1.0227,0,23.58,289.14,33,107,32.137,2.1474,0,0,0,99.289,17.136,10.001,0.066542,NaN,31.657,NaN,0.17434,4958552,2065.4,3.1295,0.56345,0.57086,0.4377,0.0018045,0.12395,NaN,NaN,NaN,NaN,NaN,NaN,NaN,NaN,0.02374,2.25,3.9761,83,0,NaN,58.067,1003.9,1115.7,0.0093028,0.040755
0.1093,10.218,214,2378.1,215.61,2396,1.2546,0,1.2546,0,26.276,292,33,107,32.137,1.9254,0,0,0,98.976,16.822,9.9823,0.066465,NaN,31.622,NaN,0.19416,5521800,2079.6,3.8789,0.56453,0.57055,0.43738,0.00225,0.1249,NaN,NaN,NaN,NaN,NaN,NaN,NaN,NaN,0.026455,2.25,3.9761,83,0,NaN,58.061,1003.8,1115.7,0.0083484,0.04121
0.11765,12.087,233.9,2395.9,235.65,2413.9,1.4841,0,1.4841,0,28.719,294.18,33,107,32.137,1.7601,0,0,0,98.688,16.535,9.965,0.066395,NaN,31.589,NaN,0.21211,6032108,2090.2,4.6302,0.5656,0.57068,0.43706,0.0026998,0.12585,NaN,NaN,NaN,NaN,NaN,NaN,NaN,NaN,0.028914,2.25,3.9761,83,0,NaN,58.054,1003.8,1115.7,0.0076384,0.041704
0.12529,13.944,252.23,2405.4,254.13,2423.4,1.7121,0,1.7121,0,30.97,295.34,33,107,32.137,1.6307,0,0,0,98.426,16.273,9.9491,0.06633,NaN,31.559,NaN,0.22866,6502498,2093.5,5.3844,0.56669,0.57108,0.43674,0.0031546,0.1268,NaN,NaN,NaN,NaN,NaN,NaN,NaN,NaN,0.031181,2.25,3.9761,83,0,NaN,58.047,1003.7,1115.7,0.007083,0.042122
0.13237,15.791,269.3,2413.7,271.33,2431.8,1.9389,0,1.9389,0,33.066,296.36,33,107,32.137,1.526,0,0,0,98.184,16.031,9.9344,0.066271,NaN,31.531,NaN,0.24407,6940319,2096.3,6.1402,0.56777,0.57164,0.43642,0.0036137,0.12774,NaN,NaN,NaN,NaN,NaN,NaN,NaN,NaN,0.033291,2.25,3.9761,83,0,NaN,58.041,1003.6,1115.7,0.0066341,0.04256
0.13901,17.631,285.34,2425.5,287.49,2443.7,2.1648,0,2.1648,0,35.036,297.82,33,107,32.137,1.439,0,0,0,97.959,15.805,9.9206,0.066216,NaN,31.505,NaN,0.25855,7351720,2102.1,6.8981,0.56886,0.57233,0.4361,0.0040774,0.12869,NaN,NaN,NaN,NaN,NaN,NaN,NaN,NaN,0.035273,2.25,3.9761,83,0,NaN,58.034,1003.6,1115.7,0.0062612,0.043006
0.14527,19.465,300.55,2443.2,302.81,2461.4,2.39,0,2.39,0,36.903,298.6,33,107,32.137,1.3651,0,0,0,97.745,15.592,9.9075,0.066163,37.998,31.481,2.8968,0.27228,7741784,2116.4,7.66,0.56996,0.57309,0.43578,0.0045471,0.12964,0.33254,0.96301,-3.21E-04,0,0,0,0,0,0.037154,2.25,3.9761,83,0,NaN,58.028,1003.5,1115.7,0.0093918,0.043738
0.15466,22.395,323.57,2470.5,326,2488.9,2.7498,1.32E-07,2.7498,2.74E-06,39.715,301.79,33,107,32.137,1.2593,0,0.0027499,5.12E-07,97.485,15.332,9.8915,0.0661,38.054,31.45,2.935,0.29307,8331973,2133.5,8.8936,0.57174,0.57442,0.43526,0.0053151,0.13117,0.30606,0.89872,3.22E-04,0,0,0,0,3.35E-05,0.039999,2.25,3.9761,82.995,-5.52E-06,NaN,58.017,1003.4,1115.7,0.014088,0.044269
0.16875,27.2,358.49,2484.1,361.18,2502.7,3.3393,8.47E-07,3.3393,1.45E-05,43.984,304.13,33,107,32.137,1.1056,0,0.0072566,-1.10E-06,97.093,14.94,9.8672,0.066003,38.138,31.404,2.9926,0.3246,9227210,2138,10.954,0.57472,0.57681,0.4344,0.0066195,0.1337,0.2679,0.80115,-3.75E-04,0,0,0,0,1.90E-04,0.044315,2.25,3.9761,82.97,7.56E-06,NaN,58,1003.2,1115.7,0.021131,0.044917
0.18988,35.332,411.22,2500.1,414.31,2519.1,4.3371,3.23E-06,4.3371,4.26E-05,50.471,309.55,33,107,32.137,0.87548,0,0.014634,-1.36E-06,96.502,14.349,9.8302,0.065859,38.268,31.334,3.0813,0.37221,10578571,2142.2,14.509,0.5799,0.58123,0.43295,0.0089374,0.13801,0.2113,0.65027,-2.54E-04,0,0,0,0,5.89E-04,0.050834,2.25,3.9761,82.887,5.59E-05,NaN,57.971,1002.9,1115.6,0.031174,0.045422
0.22105,49.372,489.65,2518.2,493.35,2538.8,6.0632,1.02E-05,6.0632,9.61E-05,60.338,323.13,33,107,32.137,0.50836,0,0.025378,5.28E-06,95.622,13.468,9.7744,0.065643,38.482,31.229,3.2238,0.44307,12587544,2145.1,20.848,0.58922,0.58969,0.43041,0.013291,0.14552,0.12202,0.39245,-3.48E-04,0,0,0,0,0.0012502,0.060533,2.25,3.9761,82.661,-6.32E-05,NaN,57.921,1002.4,1115.6,0.036265,0.045894
0.25732,68.796,581.66,2538.6,586.16,2562.3,8.4696,2.27E-05,8.4696,1.54E-04,72.522,347.89,33,107,32.137,0.058209,0,0.032651,5.89E-05,94.485,12.331,9.7009,0.065364,38.762,31.089,3.41,0.52629,14943991,2148.5,30.061,0.60305,0.60306,0.42687,0.020171,0.15601,0.013903,0.045704,3.94E-04,0,0,0,0,0.001467,0.071927,2.25,3.9761,82.273,-4.50E-04,NaN,57.852,1001.7,1115.5,0.05,0.04681
0.30732,101.08,709.68,2552.8,715.48,2581.5,12.55,4.35E-05,12.55,1.99E-04,90.945,383.57,33,107,32.137,0.40066,0,-0.020056,1.03E-05,93.029,10.875,9.6044,0.065007,38.774,30.906,3.4968,0.64228,18221847,2148.6,46.677,0.62914,0.62945,0.42092,0.034592,0.17363,0.098874,0.34646,-5.74E-05,0,0,0,0,-3.72E-04,0.087811,2.25,3.9761,81.758,3.34E-05,NaN,57.737,1000.6,1115.4,0.019244,0.047292
0.32656,115.21,759.26,2574.6,765.62,2604.5,14.372,5.41E-05,14.372,2.16E-04,98.473,394.02,33,107,32.137,0.44897,0,-0.0067769,6.86E-06,91.859,9.706,9.5248,0.06472,38.839,30.754,3.5933,0.68726,19490516,2147.3,54.536,0.64225,0.64265,0.41829,0.042553,0.1814,0.11203,0.4026,-3.56E-05,0,0,0,0,-3.71E-05,0.093971,2.25,3.9761,81.663,4.40E-04,NaN,57.686,1000.1,1115.3,0.014351,0.047732
0.34091,126.37,796.34,2581.2,803.13,2611.4,15.826,6.46E-05,15.826,2.34E-04,104.16,395.73,33,107,32.137,0.4192,0,0.0048411,7.28E-06,91.292,9.1386,9.4855,0.064581,38.925,30.679,3.6647,0.72092,20438928,2146.1,61.041,0.65361,0.65396,0.41621,0.049832,0.18756,0.1053,0.38586,1.06E-04,0,0,0,0,1.72E-05,0.098581,2.25,3.9761,81.657,7.09E-04,NaN,57.646,999.68,1115.3,0.013558,0.048197
0.35447,137.41,831.44,2584.5,838.62,2614.1,17.274,7.71E-05,17.274,2.56E-04,109.52,392.5,33,107,32.137,0.33993,0,0.015632,8.49E-06,90.821,8.6674,9.4526,0.064465,39.033,30.616,3.741,0.75277,21335676,2144.1,67.771,0.66594,0.66618,0.41415,0.058121,0.19367,0.085822,0.3213,-3.49E-04,0,0,0,0,1.64E-04,0.10294,2.25,3.9761,81.708,9.20E-04,NaN,57.607,999.29,1115.2,0.014887,0.048668
0.36936,150.07,870.02,2586.1,877.63,2614.5,18.948,9.45E-05,18.948,2.86E-04,115.32,383.84,33,107,32.137,0.20587,0,0.02522,1.53E-05,90.341,8.188,9.4187,0.064348,39.179,30.551,3.8347,0.78778,2.23E+07,2141.2,75.94,0.68183,0.68192,0.41178,0.069371,0.20068,0.052219,0.20025,-3.56E-04,0,0,0,0,3.91E-04,0.10774,2.25,3.9761,81.819,0.0011875,NaN,57.562,998.83,1115.2,0.021741,0.049111
0.3911,169.6,926.4,2580.7,934.59,2606.2,21.545,1.28E-04,21.545,3.41E-04,123.48,363.74,33,107,32.137,0.030997,0,-0.030245,8.91E-05,89.724,7.5711,9.3747,0.064197,39.393,30.467,3.967,0.83892,23756552,2131,89.814,0.71168,0.71168,0.40813,0.092056,0.21149,0.0079338,0.031922,-1.75E-04,0,0,0,0,-4.96E-04,0.11473,2.25,3.9761,82.044,0.001422,NaN,57.492,998.14,1115.1,0.032612,0.049567
0.42371,201.19,1010.7,2537.7,1019.6,2559.4,25.76,1.97E-04,25.76,4.39E-04,134.9,332.5,33,107,32.137,0.27661,-7.70E-09,-0.010576,8.12E-06,88.814,6.6604,9.3086,0.063973,39.501,30.34,4.0713,0.9153,25897397,2113.6,114.76,0.76458,0.76477,0.40018,0.13549,0.22891,0.073259,0.29791,-2.16E-05,0,0,0,0,-5.09E-05,0.12517,2.25,3.9761,82.308,4.86E-04,NaN,57.38,997.01,1115,0.010719,0.050021
0.43443,212.17,1038.1,2553.6,1047.3,2575.1,27.225,2.24E-04,27.225,4.71E-04,138.48,332.39,33,107,32.137,0.28316,-5.80E-09,0.0014195,5.90E-06,88.091,5.9374,9.2552,0.063796,39.572,30.238,4.1483,0.94019,26593768,2105.1,120.16,0.75905,0.75924,0.39484,0.1293,0.23491,0.075686,0.31421,-4.63E-04,0,0,0,0,8.70E-07,0.12858,2.25,3.9761,82.326,2.44E-04,NaN,57.34,996.61,1114.9,0.0095808,0.050506
0.44401,222.23,1062.7,2544.7,1072.1,2566.4,28.567,2.48E-04,28.567,4.98E-04,141.68,333.35,33,107,32.137,0.24942,-6.47E-09,0.012366,1.29E-05,87.753,5.5995,9.23,0.063713,39.65,30.189,4.2048,0.9624,27214712,2095.4,125.73,0.75829,0.75843,0.39007,0.12781,0.24041,0.06711,0.28213,-4.53E-04,0,0,0,0,6.30E-05,0.13161,2.25,3.9761,82.303,5.83E-05,NaN,57.305,996.25,1114.9,0.010159,0.051063
0.45417,233.16,1088.5,2514.5,1098.2,2536.8,30.024,2.74E-04,30.024,5.24E-04,145.1,335.83,33,107,32.137,0.17746,-6.03E-09,0.022353,2.22E-05,87.427,5.2736,9.2055,0.063633,39.745,30.142,4.2678,0.98586,2.79E+07,2069.6,132.93,0.76443,0.7645,0.38503,0.13305,0.24635,0.047991,0.20454,3.31E-04,0,0,0,0,1.96E-04,0.13481,2.25,3.9761,82.238,-9.35E-05,NaN,57.266,995.86,1114.8,0.013324,0.052071
0.46749,247.88,1122,2462,1131.9,2485.7,31.987,3.09E-04,31.987,5.54E-04,149.66,342.39,33,107,32.136,0.046492,-6.26E-09,0.029776,3.78E-05,87.047,4.894,9.1768,0.06354,39.874,30.087,4.3499,1.0162,28716435,2028.9,143.39,0.77652,0.77652,0.37851,0.152,0.24601,0.012621,0.054329,4.61E-04,0,0,0,0,3.28E-04,0.13896,2.25,3.9761,82.11,2.81E-04,NaN,57.213,995.34,1114.8,0.019986,0.052644
0.48748,270.8,1171.1,2379.4,1181.5,2405.5,35.048,3.65E-04,35.048,5.97E-04,156.71,353.48,33,107,32.136,0.14314,0,-0.02366,1.70E-06,86.514,4.361,9.1361,0.063409,39.91,30.009,4.4005,1.0608,29956537,1988.1,158.43,0.78801,0.78806,0.36894,0.18339,0.23568,0.039258,0.17316,-1.24E-04,0,0,0,0,-1.90E-04,0.14505,2.25,3.9761,81.906,0.0015979,NaN,57.131,994.52,1114.7,0.013511,0.053408
0.50099,286.84,1203.4,2350.8,1214.2,2378,37.198,4.10E-04,37.198,6.31E-04,161.59,358.58,33,107,32.136,0.20612,0,-0.0090486,4.85E-07,85.979,3.826,9.0947,0.063278,39.913,29.929,4.4374,1.0902,30773759,1962.2,166.63,0.7851,0.7852,0.36262,0.19315,0.22932,0.056705,0.25118,2.41E-04,0,0,0,0,-2.63E-05,0.14907,2.25,3.9761,81.824,0.0019542,NaN,57.074,993.94,1114.6,0.0087832,0.053891
0.50977,297.5,1224.1,2334.5,1235.2,2361.7,38.631,4.42E-04,38.631,6.55E-04,164.76,357.31,33,107,32.136,0.20631,0,0.002519,6.72E-06,85.632,3.4782,9.0676,0.063193,39.923,29.877,4.465,1.109,31296977,1943.3,171.82,0.78255,0.78265,0.35945,0.19767,0.22542,0.056693,0.25318,-8.47E-05,0,0,0,0,1.97E-06,0.15164,2.25,3.9761,81.814,0.0020647,NaN,57.036,993.56,1114.6,0.0083982,0.054391
0.51817,307.86,1243.8,2311.6,1255,2338,40.027,4.75E-04,40.027,6.80E-04,167.75,350.73,33,107,32.136,0.17335,0,0.013074,1.31E-06,85.372,3.2189,9.0472,0.063129,39.939,29.837,4.4895,1.1269,31791895,1923.4,176.6,0.77936,0.77944,0.35735,0.20016,0.22185,0.047468,0.21331,1.01E-04,0,0,0,0,5.14E-05,0.15408,2.25,3.9761,81.838,0.0020977,NaN,56.999,993.19,1114.6,0.0096365,0.054901
0.52781,319.96,1266.1,2282.5,1277.6,2307.4,41.66,5.16E-04,41.66,7.09E-04,171.1,338.31,33,107,32.136,0.10333,0,0.02226,6.35E-06,85.1,2.9468,9.0257,0.063063,39.962,29.796,4.5182,1.1471,32353008,1896.9,182.09,0.77583,0.77586,0.35495,0.20295,0.21793,0.028103,0.12728,3.32E-05,0,0,0,0,1.44E-04,0.15685,2.25,3.9761,81.9,0.0019035,NaN,56.956,992.76,1114.5,0.014455,0.055377
0.54226,338.49,1299,2234.4,1310.9,2256.4,44.168,5.82E-04,44.168,7.55E-04,175.86,314.33,33,107,32.136,0.03051,0,-0.025987,1.17E-05,84.737,2.5833,8.9968,0.062974,39.962,29.74,4.5432,1.1771,33180999,1859.2,190.33,0.77077,0.77077,0.35139,0.20698,0.21239,0.0081935,0.037562,3.16E-04,0,0,0,0,-1.86E-04,0.16095,2.25,3.9761,82.031,0.0015775,NaN,56.89,992.1,1114.4,0.021682,0.056003
0.56394,367.18,1347.4,2181.9,1359.7,2200.8,48.053,6.92E-04,48.053,8.25E-04,182.43,287.6,33,107,32.136,0.16977,6.83E-09,-0.007789,1.36E-05,84.199,2.0461,8.9536,0.062842,39.806,29.656,4.511,1.2211,34393461,1832.5,202.15,0.76146,0.76153,0.34614,0.21058,0.20474,0.044779,0.20154,-2.67E-04,0,0,0,0,-1.55E-05,0.16694,2.25,3.9761,82.176,0.001041,NaN,56.788,991.07,1114.3,0.0086149,0.057443
0.57256,378.87,1366.3,2184.5,1378.8,2203.3,49.635,7.37E-04,49.635,8.51E-04,184.91,287.02,33,107,32.136,0.17305,0,0.0038085,1.83E-05,83.756,1.6023,8.9175,0.062733,39.752,29.587,4.5178,1.2382,34866341,1824.3,206.58,0.75699,0.75706,0.34407,0.21102,0.2019,0.045128,0.20373,1.48E-04,0,0,0,0,3.61E-06,0.16928,2.25,3.9761,82.182,6.42E-04,NaN,56.746,990.65,1114.3,0.0082579,0.057929
0.58082,390.23,1384.4,2176.9,1397,2196.1,51.172,7.81E-04,51.172,8.75E-04,187.3,289.74,33,107,32.136,0.14354,5.35E-09,0.014215,1.22E-05,83.513,1.3594,8.8976,0.062673,39.706,29.548,4.5144,1.2547,35317466,1817.9,210.81,0.75277,0.75282,0.3421,0.21141,0.19926,0.036932,0.16628,3.36E-04,0,0,0,0,4.90E-05,0.17152,2.25,3.9761,82.155,5.54E-04,NaN,56.705,990.25,1114.2,0.0098364,0.058383
0.59065,403.95,1405.8,2129.9,1418.6,2149.9,53.029,8.34E-04,53.029,9.01E-04,190.19,292.55,33,107,32.136,0.076124,5.66E-09,0.022983,-6.78E-07,83.254,1.1004,8.8763,0.06261,39.654,29.507,4.5097,1.2741,35852276,1768.9,215.86,0.74781,0.74783,0.33975,0.21185,0.19621,0.019218,0.086267,-1.62E-04,0,0,0,0,1.24E-04,0.17417,2.25,3.9761,82.087,9.19E-04,NaN,56.656,989.76,1114.2,0.014755,0.059828
0.60541,424.93,1437,1418,1450.1,1433.4,55.867,9.15E-04,55.867,9.39E-04,194.6,209.9,33,107,32.136,0.048687,5.27E-09,-0.024549,8.06E-06,82.487,0.33359,8.8125,0.062422,39.524,29.383,4.507,1.3025,36629438,1267.6,223.25,0.74069,0.74069,0.33633,0.21242,0.19194,0.011948,0.053922,4.95E-04,0,0,0,0,-1.36E-04,0.17804,2.25,3.9761,81.955,0.0017835,NaN,56.582,989.01,1114.1,0.022132,0.060985
0.62754,457.08,1468.2,249.3,1481.7,255.51,60.227,0.0010469,60.227,9.96E-04,199.42,55.96,33,107,32.136,0.1474,-6.56E-09,-0.0042637,1.80E-05,82.236,0.083032,8.7914,0.06236,39.308,29.342,4.4292,1.331,37399455,434.32,230.67,0.73363,0.73368,0.33288,0.21293,0.18782,0.03521,0.15601,3.36E-04,0,0,0,0,-3.92E-06,0.18192,2.25,3.9761,81.832,0.0028015,NaN,56.467,987.86,1114,0.0092729,0.063428
0.63681,470.7,1470.5,-98.908,1484.1,99.005,62.079,0.0011064,62.079,0.0010212,199.94,4.4008,33,107,32.136,0.13263,-8.34E-09,0.0065608,1.27E-05,82.236,0.083032,8.7914,0.06236,39.3,29.342,4.4258,1.3332,37447111,178.17,231.14,0.73309,0.73313,0.33261,0.21296,0.18751,0.031583,0.13968,-4.11E-04,0,0,0,0,9.26E-06,0.18221,2.25,3.9761,81.836,0.0031058,NaN,56.418,987.37,1113.9,0.010276,0.063947
0.64709,485.81,1469.4,-272.84,1483,274.07,64.133,0.0011759,64.133,0.0010506,199.94,25.993,33,107,32.136,0.080132,-6.55E-09,0.015699,3.75E-05,82.163,0.0096361,8.7851,0.062342,39.33,29.33,4.4444,1.3323,37406866,59.025,230.77,0.73331,0.73332,0.33272,0.21295,0.18764,0.01906,0.08494,-3.23E-04,0,0,0,0,5.31E-05,0.18208,2.25,3.9761,81.878,0.0032405,NaN,56.365,986.83,1113.9,0.015414,0.064574
0.6625,508.43,1465.3,-346.73,1478.8,349.99,67.212,0.0012871,67.212,0.0010972,199.46,47.657,33,107,32.136,0.029783,-5.03E-09,-0.018903,1.13E-04,82.154,9.14E-04,8.7844,0.06234,39.377,29.329,4.4658,1.3287,37281041,3.7673,229.59,0.7342,0.73421,0.33316,0.21289,0.18816,0.0070988,0.031298,-1.20E-04,0,0,0,0,-7.74E-05,0.18157,2.25,3.9761,81.98,0.0031258,NaN,56.284,986.02,1113.8,0.023121,0.065701
0.68562,542.21,1457.3,-347.65,1470.7,352.36,71.809,0.001465,71.809,0.0011689,198.22,57.401,33,107,32.136,0.12553,-1.47E-08,-0.0017686,4.03E-05,82.154,9.14E-04,8.7844,0.06234,39.377,29.329,4.466,1.3216,37048596,0,227.43,0.73594,0.73598,0.33401,0.21277,0.18916,0.030279,0.13559,-2.81E-04,0,0,0,0,-6.85E-07,0.18058,2.25,3.9761,82.076,0.0013007,NaN,56.163,984.82,1113.6,0.010792,0.074265
0.69642,557.92,1453.6,-346.44,1466.9,350.88,73.945,0.0015496,73.945,0.0012007,197.61,55.652,33,107,32.136,0.11015,-1.59E-08,0.008929,4.69E-05,82.153,0,8.7843,0.06234,39.405,29.329,4.4782,1.3183,36939422,0,226.4,0.73676,0.73679,0.33442,0.21271,0.18964,0.026649,0.11891,4.91E-04,0,0,0,0,1.75E-05,0.18011,2.25,3.9761,82.061,3.37E-04,NaN,56.107,984.25,1113.6,0.012376,0.074789
0.70879,575.88,1449.3,-345.68,1462.6,349.15,76.387,0.0016452,76.387,0.0012341,196.96,49.091,33,107,32.135,0.046137,-1.93E-08,0.017155,1.00E-04,82.153,0,8.7843,0.06234,39.457,29.329,4.5013,1.3145,36814447,0,225.23,0.73771,0.73771,0.33488,0.21264,0.19019,0.011179,0.050416,2.12E-05,0,0,0,0,6.51E-05,0.17958,2.25,3.9761,82.001,7.55E-05,NaN,56.043,983.61,1113.5,0.018563,0.075259
0.72736,602.73,1442.9,-344.88,1456.1,346.89,80.035,0.0017855,80.035,0.0012782,196.16,37.311,33,107,32.135,0.07104,-2.30E-08,-0.01487,6.88E-05,82.153,0,8.7843,0.06234,39.478,29.329,4.511,1.3088,36627957,0,223.49,0.73912,0.73913,0.33557,0.21254,0.19101,0.017335,0.078446,2.77E-04,0,0,0,0,-4.94E-05,0.17879,2.25,3.9761,81.885,6.99E-04,NaN,55.948,982.65,1113.4,0.019064,0.075695
0.74642,630.17,1436.3,-343.05,1449.6,344.6,83.769,0.0019277,83.769,0.0013185,195.51,32.665,33,107,32.135,0.11565,-4.16E-08,0.0011343,3.97E-05,82.153,0,8.7843,0.06234,39.491,29.329,4.5165,1.303,36437917,0,221.73,0.74056,0.74059,0.33627,0.21243,0.19187,0.028442,0.12854,4.84E-04,0,0,0,0,2.90E-07,0.17798,2.25,3.9761,81.835,0.0021349,NaN,55.85,981.67,1113.3,0.01175,0.076372
0.75817,647.02,1432.3,-341.1,1445.5,342.93,86.064,0.0020167,86.064,0.0013426,195.12,35.455,33,107,32.135,0.085253,-4.16E-08,0.011086,3.34E-05,82.153,0,8.7843,0.06234,39.524,29.329,4.5312,1.2994,36321543,0,220.65,0.74145,0.74147,0.3367,0.21236,0.19239,0.021017,0.095596,-6.24E-05,0,0,0,0,2.79E-05,0.17748,2.25,3.9761,81.861,0.002952,NaN,55.79,981.07,1113.2,0.015896,0.076835
0.77407,669.75,1426.9,-337.87,1440.1,340.66,89.16,0.0021426,89.16,0.0013769,194.49,43.516,33,107,32.135,8.54E-04,-4.40E-08,-0.016202,0.0044294,82.153,0,8.7843,0.06234,39.588,29.329,4.5597,1.2946,36165022,0,219.19,0.74265,0.74265,0.33728,0.21227,0.1931,2.11E-04,0.0010824,-1.33E-04,0,0,0,0,-5.99E-05,0.17682,2.25,3.9761,81.946,0.0039332,NaN,55.709,980.26,1113.1,0.023844,0.077261
0.79791,703.67,1418.9,-333.57,1432,337.66,93.784,0.0023475,93.784,0.0014342,193.32,52.39,33,107,32.135,0.097897,-2.49E-08,-0.0052217,2.75E-05,82.153,0,8.7843,0.06234,39.58,29.329,4.5562,1.2875,35932154,0,217.04,0.74443,0.74446,0.33814,0.21213,0.19417,0.024431,0.11178,-3.54E-05,0,0,0,0,-6.30E-06,0.17582,2.25,3.9761,82.051,0.0031888,NaN,55.588,979.04,1113,0.013876,0.07769
0.81179,723.33,1414.3,-331.99,1427.3,335.89,96.462,0.0024723,96.462,0.0014685,192.6,51.08,33,107,32.135,0.087604,-1.86E-08,0.0057329,2.59E-05,82.153,0,8.7843,0.06234,39.605,29.329,4.5673,1.2834,35797520,0,215.79,0.74547,0.74549,0.33863,0.21204,0.1948,0.021939,0.1005,3.41E-04,0,0,0,0,7.64E-06,0.17525,2.25,3.9761,82.05,0.0022569,NaN,55.518,978.34,1112.9,0.015543,0.078133
0.82733,745.27,1409.1,-330.91,1422.1,333.91,99.449,0.0026139,99.449,0.0015059,191.85,44.618,33,107,32.135,0.023629,-1.81E-08,0.013151,-2.18E-05,82.153,0,8.7843,0.06234,39.656,29.329,4.59,1.2788,35647593,0,214.41,0.74663,0.74663,0.33919,0.21195,0.1955,0.005928,0.026844,1.68E-04,0,0,0,0,4.05E-05,0.17461,2.25,3.9761,81.993,0.0024751,NaN,55.439,977.56,1112.8,0.023315,0.078577
0.85064,778.04,1401.4,-329.38,1414.4,331.22,103.91,0.0028337,103.91,0.0015625,190.94,34.824,33,107,32.135,0.075047,-2.50E-08,-0.0070456,1.11E-05,82.153,0,8.7843,0.06234,39.664,29.329,4.5936,1.2719,35424503,0,212.36,0.74837,0.74838,0.34001,0.2118,0.19655,0.018982,0.087632,1.84E-04,0,0,0,0,-1.18E-05,0.17366,2.25,3.9761,81.897,0.0044591,NaN,55.322,976.39,1112.7,0.018185,0.079032
0.86883,803.47,1395.4,-327.17,1408.4,328.99,107.38,0.0030162,107.38,0.0016094,190.32,34.549,33,107,32.135,0.075339,-3.12E-08,0.0049009,2.71E-05,82.153,0,8.7843,0.06234,39.687,29.329,4.6038,1.2667,35252388,0,210.77,0.74971,0.74972,0.34065,0.21168,0.19737,0.019144,0.088024,-2.32E-04,0,0,0,0,5.74E-06,0.17292,2.25,3.9761,81.891,0.0053721,NaN,55.232,975.48,1112.6,0.018273,0.079468
0.8871,828.91,1389.5,-324.11,1402.4,326.6,110.85,0.0032134,110.85,0.0016609,189.64,40.276,33,107,32.135,0.011722,-2.96E-08,0.01175,9.69E-05,82.153,0,8.7843,0.06234,39.738,29.329,4.6264,1.2614,35080730,0,209.2,0.75105,0.75105,0.34129,0.21157,0.1982,0.0029847,0.013429,3.90E-04,0,0,0,0,3.33E-05,0.17219,2.25,3.9761,81.95,0.0043427,NaN,55.141,974.57,1112.5,0.027409,0.079901
0.91451,866.88,1380.7,-319.76,1393.5,323.3,116.03,0.0035183,116.03,0.0017373,188.41,47.708,33,107,32.135,0.072713,-1.67E-08,-0.0030596,1.38E-05,82.153,0,8.7843,0.06234,39.742,29.329,4.628,1.2535,34825917,0,206.87,0.75305,0.75307,0.34223,0.21139,0.19944,0.018676,0.086033,-4.52E-04,0,0,0,0,-2.28E-06,0.1711,2.25,3.9761,82.035,-3.45E-04,NaN,55.006,973.21,1112.3,0.019134,0.080333
0.93364,893.23,1374.6,-317.75,1387.3,321.02,119.63,0.0037187,119.63,0.0017811,187.51,45.731,33,107,32.134,0.055272,-9.42E-09,0.0075586,-6.27E-07,82.153,0,8.7843,0.06234,39.77,29.329,4.6406,1.2481,3.47E+07,0,205.26,0.75445,0.75445,0.34288,0.21126,0.2003,0.014247,0.065907,-4.74E-04,0,0,0,0,1.41E-05,0.17034,2.25,3.9761,82.017,1.10E-04,NaN,54.912,972.27,1112.2,0.025218,0.080792
0.95886,927.8,1366.6,-315.94,1379.3,318.15,124.34,0.0039715,124.34,0.00183,186.46,37.393,33,107,32.134,0.030637,-1.25E-08,-0.00986,2.03E-05,82.153,0,8.7843,0.06234,39.806,29.329,4.6567,1.241,3.44E+07,0,203.17,0.75627,0.75627,0.34374,0.21109,0.20144,0.0079319,0.036784,-4.15E-04,0,0,0,0,-2.42E-05,0.16935,2.25,3.9761,81.926,0.0039688,NaN,54.788,971.03,1112.1,0.037827,0.081239
0.99669,979.27,1354.7,-311.59,1367.3,313.79,131.37,0.0043981,131.37,0.0019182,185.12,37.111,33,107,32.134,0.02826,1.48E-08,0.0043834,-7.50E-05,82.153,0,8.7843,0.06234,39.842,29.329,4.6724,1.2305,34079303,0,200.08,0.75899,0.759,0.345,0.21083,0.20317,0.0073704,0.034783,4.28E-04,0,0,0,0,4.87E-06,0.16788,2.25,3.9761,81.912,0.0035723,NaN,54.605,969.19,1111.9,0.049317,0.081752
1.046,1045.7,1339.5,-305.77,1352,308.18,140.45,0.0049398,140.45,0.0020152,183.1,38.507,33,107,32.134,0.0043429,1.12E-08,-0.0026628,-1.78E-04,82.153,0,8.7843,0.06234,39.891,29.329,4.6945,1.217,33642002,0,196.13,0.76252,0.76252,0.34662,0.21048,0.20542,0.0011416,0.0048729,3.45E-05,0,0,0,0,-1.84E-06,0.166,2.25,3.9761,81.937,0.0061457,NaN,54.368,966.82,1111.6,0.05,0.082243
1.096,1112.3,1324.4,-300.17,1336.7,302.68,149.56,0.0055544,149.56,0.0021279,181.2,38.899,33,107,32.134,0.0082442,2.21E-08,1.42E-04,-4.58E-07,82.153,0,8.7843,0.06234,39.923,29.329,4.7085,1.2035,33207916,0,192.23,0.76606,0.76606,0.34823,0.21011,0.20772,0.0021844,0.010426,2.16E-04,0,0,0,0,5.35E-09,0.16413,2.25,3.9761,81.939,6.38E-04,NaN,54.13,964.44,1111.4,0.05,0.082683
1.146,1178.1,1309.5,-294.68,1321.7,297.02,158.57,0.0061509,158.57,0.0022225,179.29,37.274,33,107,32.134,0.0029965,1.94E-08,-0.0019769,-7.27E-05,82.153,0,8.7843,0.06234,39.952,29.329,4.7215,1.1904,32784517,0,188.21,0.76856,0.76856,0.3498,0.20875,0.21001,7.99E-04,0.0035523,4.89E-04,0,0,0,0,-1.06E-06,0.16229,2.25,3.9761,81.894,0.0039609,NaN,53.896,962.08,1111.1,0.05,0.083223
1.196,1243.3,1294.9,-289.03,1307,291.36,167.49,0.0067698,167.49,0.0023159,177.45,36.83,33,107,32.133,0.0011922,2.99E-08,-1.59E-05,-2.00E-04,82.153,0,8.7843,0.06234,39.975,29.329,4.7316,1.1774,32367622,0,184.2,0.77071,0.77071,0.35135,0.20703,0.21233,3.20E-04,0.0018438,1.17E-04,0,0,0,0,0,0.16048,2.25,3.9761,81.889,0.010826,NaN,53.663,959.75,1110.9,0.05,0.08377
1.246,1307.6,1280.6,-283.59,1292.6,285.86,176.32,0.0075045,176.32,0.0024387,175.64,35.966,33,107,32.133,6.56E-04,2.42E-08,3.55E-05,-4.35E-04,82.153,0,8.7843,0.06234,39.992,29.329,4.7391,1.1647,31958292,0,180.29,0.77285,0.77285,0.35287,0.20532,0.21465,1.77E-04,4.11E-04,4.04E-04,0,0,0,0,0,0.15871,2.25,3.9761,81.892,-1.71E-04,NaN,53.434,957.45,1110.6,0.05,0.084205
1.296,1371.3,1266.5,-278.3,1278.4,280.53,185.05,0.0081433,185.05,0.0025213,173.84,35.302,33,107,32.133,0.0010411,1.39E-08,3.26E-04,-7.07E-04,82.153,0,8.7843,0.06234,40.003,29.329,4.7443,1.1522,31558318,0,176.51,0.77497,0.77497,0.35436,0.20363,0.21698,2.82E-04,0.001269,-3.87E-04,0,0,0,0,3.08E-08,0.15697,2.25,3.9761,81.885,0.010564,NaN,53.207,955.18,1110.4,0.05,0.084767
1.346,1434.3,1252.7,-273.19,1264.5,275.36,193.7,0.0089023,193.7,0.0026333,172.11,34.487,33,107,32.133,8.15E-04,-6.62E-09,1.04E-04,-8.17E-04,82.153,0,8.7843,0.06234,40.011,29.329,4.7478,1.1399,31167644,0,172.83,0.77709,0.77709,0.35581,0.20195,0.21932,2.21E-04,0.0013146,8.12E-05,0,0,0,0,0,0.15527,2.25,3.9761,81.891,-0.0012436,NaN,52.982,953.01,1110.1,0.05,0.08562
1.396,1496.6,1239.2,-268.21,1250.9,270.38,202.26,0.0096035,202.26,0.0027204,170.36,34.126,33,107,32.133,0.0024349,-4.06E-08,0.0029026,-3.40E-04,82.153,0,8.7843,0.06234,40.014,29.329,4.7491,1.1279,30789037,0,169.3,0.77918,0.77918,0.35723,0.20031,0.22165,6.63E-04,0.0026823,3.98E-04,0,0,0,0,2.55E-06,0.15359,2.25,3.9761,81.858,0.0069714,NaN,52.76,950.88,1109.9,0.05,0.086138
1.446,1558.2,1225.9,-263.46,1237.5,265.5,210.74,0.010393,210.74,0.0028256,168.74,32.804,33,107,32.132,0.0050976,-5.88E-08,0.0019181,-2.48E-04,82.153,0,8.7843,0.06234,40.013,29.329,4.7487,1.116,30413856,0,165.83,0.78129,0.78129,0.35863,0.19865,0.22401,0.0013905,0.0062335,-2.69E-04,0,0,0,0,1.14E-06,0.15195,2.25,3.9761,81.863,0.002046,NaN,52.54,948.79,1109.6,0.05,0.086577
1.496,1619.2,1212.9,-258.67,1224.3,260.76,219.13,0.011176,219.13,0.0029221,167.05,32.973,33,107,32.132,0.0050904,-5.91E-08,0.002025,1.92E-04,82.153,0,8.7843,0.06234,40.01,29.329,4.7473,1.1044,30048487,0,162.48,0.78338,0.78338,0.35999,0.19702,0.22636,0.0013903,0.0062984,-3.43E-04,0,0,0,0,1.30E-06,0.15034,2.25,3.9761,81.856,0.0020013,NaN,52.323,946.71,1109.4,0.05,0.087
1.546,1679.5,1200,-254.03,1211.4,255.98,227.45,0.011946,227.45,0.0030092,165.47,31.572,33,107,32.132,0.0047256,-4.00E-08,6.73E-04,1.60E-04,82.153,0,8.7843,0.06234,40.004,29.329,4.7446,1.093,29688664,0,159.08,0.78483,0.78483,0.36202,0.19409,0.22873,0.0012915,0.0058873,8.99E-05,0,0,0,0,1.46E-07,0.14875,2.25,3.9761,81.846,0.010906,NaN,52.108,944.65,1109.1,0.05,0.087411
1.596,1739.2,1187.5,-249.24,1198.7,251.23,235.68,0.01282,235.68,0.0031166,163.87,31.518,33,107,32.132,0.0035114,-2.60E-08,7.21E-04,1.04E-04,82.153,0,8.7843,0.06234,39.996,29.329,4.7409,1.0818,29336690,0,155.71,0.7859,0.7859,0.36442,0.19038,0.2311,9.60E-04,0.0050331,1.57E-04,0,0,0,0,1.71E-07,0.1472,2.25,3.9761,81.846,0.0028628,NaN,51.895,942.62,1108.9,0.05,0.087833
1.646,1798.3,1175.1,-244.7,1186.3,246.66,243.83,0.013676,243.83,0.0032136,162.29,31.063,33,107,32.132,0.0039025,-4.00E-08,0.0032887,-2.21E-04,82.153,0,8.7843,0.06234,39.984,29.329,4.7358,1.0709,28994480,0,152.47,0.78698,0.78698,0.36677,0.18676,0.23345,0.0010663,0.0054017,1.14E-04,0,0,0,0,3.64E-06,0.14567,2.25,3.9761,81.801,0.0081234,NaN,51.684,940.61,1108.7,0.05,0.088252
1.696,1856.7,1163,-240.41,1174.1,242.19,251.91,0.01461,251.91,0.0033229,160.83,29.311,33,107,32.132,0.011747,-4.89E-08,0.0017946,6.96E-05,82.153,0,8.7843,0.06234,39.967,29.329,4.7282,1.06,28654658,0,149.28,0.78808,0.78808,0.3691,0.18314,0.23584,0.0032081,0.014827,-3.42E-04,0,0,0,0,1.11E-06,0.14417,2.25,3.9761,81.794,0.0076753,NaN,51.476,938.62,1108.5,0.05,0.088674
1.746,1914.6,1151.1,-235.81,1162.1,237.78,259.92,0.015599,259.92,0.0034386,159.29,30.553,33,107,32.131,0.014329,-4.60E-08,0.0024996,2.61E-06,82.153,0,8.7843,0.06234,39.951,29.329,4.7209,1.0495,28324497,0,146.18,0.78893,0.78893,0.37136,0.17935,0.23822,0.0039089,0.018415,2.29E-04,0,0,0,0,2.19E-06,0.1427,2.25,3.9761,81.791,0.0076209,NaN,51.269,936.65,1108.2,0.05,0.089145
1.796,1971.8,1139.4,-230.62,1150.3,232.34,267.84,0.016622,267.84,0.0035557,157.84,28.199,33,107,32.131,0.010356,-4.44E-08,-0.0010908,4.36E-05,82.153,0,8.7843,0.06234,39.935,29.329,4.714,1.0391,28000510,0,142.29,0.78502,0.78502,0.37359,0.17083,0.24059,0.0028205,0.013368,1.40E-04,0,0,0,0,-4.26E-07,0.14125,2.25,3.9761,81.747,0.0043371,NaN,51.065,934.7,1108,0.05,0.089642
1.846,2028.5,1128,-225.32,1138.8,227.06,275.7,0.01763,275.7,0.0036638,156.44,28.069,33,107,32.131,8.17E-04,-5.04E-08,7.55E-04,-7.52E-05,82.153,0,8.7843,0.06234,39.921,29.329,4.7076,1.0289,27682830,0,138.55,0.78121,0.78121,0.37578,0.16246,0.24298,2.22E-04,6.48E-04,-3.45E-04,0,0,0,0,2.08E-07,0.13984,2.25,3.9761,81.756,0.0063011,NaN,50.863,932.77,1107.8,0.05,0.090178
1.896,2084.6,1116.9,-220.25,1127.6,222.02,283.49,0.018668,283.49,0.003773,155.02,27.963,33,107,32.131,0.0079899,-5.64E-08,0.0017541,-1.95E-05,82.153,0,8.7843,0.06234,39.898,29.329,4.6973,1.019,27374005,0,134.98,0.77755,0.77755,0.37791,0.1543,0.24534,0.0021676,0.0098442,3.40E-04,0,0,0,0,1.15E-06,0.13847,2.25,3.9761,81.745,0.0089833,NaN,50.663,930.86,1107.6,0.05,0.090708
1.946,2140.2,1106,-215.58,1116.6,217.2,291.2,0.019765,291.2,0.0038889,153.67,26.528,33,107,32.131,0.0050393,-5.59E-08,-0.0013164,1.51E-05,82.153,0,8.7843,0.06234,39.878,29.329,4.6886,1.0093,27072089,0,131.55,0.77399,0.77399,0.37999,0.14631,0.24769,0.0013639,0.006695,2.95E-04,0,0,0,0,-6.58E-07,0.13712,2.25,3.9761,81.711,0.0070892,NaN,50.465,928.97,1107.3,0.05,0.091157
1.996,2195.2,1095.3,-210.94,1105.9,212.54,298.85,0.02087,298.85,0.0040011,152.36,26.009,33,107,32.13,0.0028989,-5.86E-08,2.56E-04,2.85E-05,82.153,0,8.7843,0.06234,39.857,29.329,4.6793,0.9998,26775869,0,128.24,0.77052,0.77052,0.38203,0.13854,0.24995,7.83E-04,0.0033171,1.18E-04,0,0,0,0,2.53E-08,0.1358,2.25,3.9761,81.707,0.0078716,NaN,50.268,927.09,1107.1,0.05,0.091744
2.046,2249.7,1084.9,-206.24,1095.4,207.91,306.44,0.021999,306.44,0.0041133,151.04,26.302,33,107,32.13,0.011845,-5.70E-08,0.0022334,-2.73E-05,82.153,0,8.7843,0.06234,39.831,29.329,4.6676,0.99056,26488139,0,124.97,0.76647,0.76647,0.38402,0.1349,0.24756,0.0031906,0.014938,-3.13E-04,0,0,0,0,1.97E-06,0.13451,2.25,3.9761,81.69,0.0093443,NaN,50.074,925.24,1106.9,0.05,0.092238
2.096,2303.7,1074.7,-202,1085.1,203.49,313.96,0.02316,313.96,0.0042266,149.77,24.563,33,107,32.13,0.0084705,-5.69E-08,-0.0019078,2.48E-05,82.153,0,8.7843,0.06234,39.809,29.329,4.658,0.98149,26206236,0,121.82,0.76253,0.76253,0.38597,0.13133,0.24523,0.0022752,0.010992,1.24E-04,0,0,0,0,-1.46E-06,0.13325,2.25,3.9761,81.644,0.0079437,NaN,49.882,923.4,1106.7,0.05,0.092692
2.146,2357.2,1064.7,-197.89,1075,199.37,321.42,0.024326,321.42,0.0043364,148.56,24.251,33,107,32.13,0.0041478,-6.12E-08,2.53E-04,-2.37E-05,82.153,0,8.7843,0.06234,39.788,29.329,4.6485,0.97258,25929494,0,118.9,0.75944,0.75944,0.38788,0.12859,0.24297,0.0011109,0.0048276,-4.76E-04,0,0,0,0,2.62E-08,0.13202,2.25,3.9761,81.636,0.0065232,NaN,49.691,921.58,1106.5,0.05,0.093118
2.196,2410.2,1054.9,-194.29,1065.1,195.82,328.81,0.025496,328.81,0.0044427,147.33,24.473,33,107,32.13,0.0083613,-6.67E-08,0.0011272,2.56E-05,82.153,0,8.7843,0.06234,39.762,29.329,4.6371,0.96385,25658722,0,116.39,0.75845,0.75845,0.38975,0.12792,0.24077,0.0022332,0.010703,3.00E-04,0,0,0,0,5.30E-07,0.1308,2.25,3.9761,81.63,0.0087192,NaN,49.502,919.77,1106.3,0.05,0.093539
2.246,2462.7,1045.3,-191.07,1055.4,192.4,336.15,0.026704,336.15,0.0045516,146.17,22.595,33,107,32.13,0.016363,-6.66E-08,9.94E-04,1.14E-05,82.153,0,8.7843,0.06234,39.734,29.329,4.6247,0.95518,2.54E+07,0,113.94,0.75748,0.75748,0.39162,0.12726,0.23861,0.0043587,0.020218,2.47E-04,0,0,0,0,4.20E-07,0.12961,2.25,3.9761,81.624,0.007945,NaN,49.315,917.98,1106.1,0.05,0.093965
2.296,2514.7,1035.8,-187.74,1045.9,189.26,343.43,0.027914,343.43,0.0046571,145,23.976,33,107,32.129,0.017783,-6.30E-08,1.29E-04,5.33E-06,82.153,0,8.7843,0.06234,39.71,29.329,4.6137,0.94674,25129397,0,111.74,0.75762,0.75762,0.39343,0.12767,0.23652,0.0047232,0.02158,-3.25E-04,0,0,0,0,7.18E-09,0.12844,2.25,3.9761,81.642,0.0082929,NaN,49.129,916.21,1105.9,0.05,0.094441
2.346,2566.3,1026.5,-185.31,1036.5,186.6,350.65,0.029129,350.65,0.0047596,143.85,21.897,33,107,32.129,0.014036,-5.81E-08,-3.12E-05,4.81E-05,82.153,0,8.7843,0.06234,39.687,29.329,4.6037,0.93835,2.49E+07,0,109.82,0.75946,0.75946,0.39523,0.12976,0.23446,0.0037162,0.017538,1.91E-04,0,0,0,0,0,0.12729,2.25,3.9761,81.63,0.0087997,NaN,48.945,914.46,1105.7,0.05,0.09491
2.396,2617.4,1017.3,-182.52,1027.2,183.95,357.82,0.030351,357.82,0.00486,142.73,22.867,33,107,32.129,0.011944,-5.51E-08,1.36E-04,-1.33E-05,82.153,0,8.7843,0.06234,39.664,29.329,4.5934,0.93015,24617569,0,107.96,0.76126,0.76126,0.39699,0.1318,0.23247,0.0031528,0.014076,8.14E-07,0,0,0,0,8.34E-09,0.12615,2.25,3.9761,81.637,0.011131,NaN,48.763,912.72,1105.5,0.05,0.095358
2.446,2668,1008.2,-180.07,1018.1,181.39,364.93,0.031605,364.93,0.0049622,141.61,21.838,33,107,32.129,0.0016932,-5.71E-08,-0.0014558,1.55E-04,82.153,0,8.7843,0.06234,39.644,29.329,4.5848,0.92205,24368093,0,106.14,0.76307,0.76307,0.39873,0.13381,0.23052,4.45E-04,0.0018745,-1.89E-04,0,0,0,0,-9.68E-07,0.12503,2.25,3.9761,81.616,0.0081904,NaN,48.582,910.99,1105.3,0.05,0.09586
2.496,2718.2,999.27,-177.63,1009.1,178.89,371.98,0.032858,371.98,0.0050611,140.54,21.14,33,107,32.129,0.0088356,-5.51E-08,3.29E-04,-2.12E-05,82.153,0,8.7843,0.06234,39.617,29.329,4.5728,0.91404,24121979,0,104.35,0.76487,0.76487,0.40045,0.1358,0.22861,0.0023184,0.010349,-3.14E-04,0,0,0,0,5.03E-08,0.12393,2.25,3.9761,81.606,0.0063271,NaN,48.403,909.28,1105.1,0.05,0.096307
2.546,2767.9,990.45,-175.13,1000.2,176.41,378.98,0.034094,378.98,0.0051545,139.49,21.188,33,107,32.129,3.60E-04,-5.33E-08,-9.15E-04,7.25E-04,82.153,0,8.7843,0.06234,39.598,29.329,4.564,0.90611,23878972,0,102.6,0.76667,0.76667,0.40216,0.13777,0.22674,9.41E-05,1.27E-04,4.63E-04,0,0,0,0,-3.97E-07,0.12284,2.25,3.9761,81.624,0.011393,NaN,48.226,907.59,1104.9,0.05,0.096739
2.596,2817.2,981.76,-172.18,991.47,173.51,385.93,0.035378,385.93,0.0052524,138.41,21.424,33,107,32.129,0.014137,-5.17E-08,0.0010329,2.75E-05,82.153,0,8.7843,0.06234,39.569,29.329,4.5511,0.89835,23641060,0,100.55,0.76584,0.76584,0.4036,0.13733,0.22491,0.0036889,0.016765,-4.44E-04,0,0,0,0,5.14E-07,0.12177,2.25,3.9761,81.626,0.011076,NaN,48.05,905.91,1104.7,0.05,0.097139
2.646,2866.1,973.26,-168.01,982.9,169.29,392.82,0.036683,392.82,0.0053505,137.35,20.733,33,107,32.128,0.010371,-4.30E-08,0.0038202,9.67E-05,82.153,0,8.7843,0.06234,39.548,29.329,4.542,0.89083,2.34E+07,0,97.555,0.75701,0.75702,0.40419,0.12966,0.22316,0.0026987,0.011993,2.64E-04,0,0,0,0,7.15E-06,0.12071,2.25,3.9761,81.577,0.0082499,NaN,47.876,904.25,1104.5,0.05,0.097551
2.696,2914.6,964.95,-164.34,974.54,165.39,399.66,0.037976,399.66,0.0054443,136.38,18.575,33,107,32.128,0.026535,-3.65E-08,-0.0012224,2.38E-05,82.153,0,8.7843,0.06234,39.519,29.329,4.5292,0.88341,23183166,0,94.752,0.74904,0.74904,0.40477,0.12282,0.22145,0.0068908,0.031269,-7.59E-05,0,0,0,0,-7.45E-07,0.11969,2.25,3.9761,81.525,0.012759,NaN,47.703,902.6,1104.3,0.05,0.09796
2.746,2962.6,956.83,-160.49,966.37,161.68,406.46,0.039326,406.46,0.0055435,135.43,19.531,33,107,32.128,0.006676,-3.21E-08,-7.13E-04,4.75E-05,82.153,0,8.7843,0.06234,39.508,29.329,4.524,0.87619,22961857,0,92.148,0.74186,0.74186,0.40533,0.11674,0.2198,0.0017282,0.0076104,-4.96E-04,0,0,0,0,-2.58E-07,0.11869,2.25,3.9761,81.532,0.011146,NaN,47.532,900.96,1104.1,0.05,0.098347
2.796,3010.3,948.89,-157.04,958.37,158.23,413.21,0.040681,413.21,0.0056409,134.45,19.3,33,107,32.128,0.012575,-2.64E-08,0.0017534,-2.50E-06,82.153,0,8.7843,0.06234,39.485,29.329,4.5139,0.8691,22745044,0,89.703,0.73533,0.73533,0.40587,0.11126,0.21819,0.0032481,0.014945,4.84E-04,0,0,0,0,1.58E-06,0.11771,2.25,3.9761,81.521,0.0092797,NaN,47.362,899.34,1103.9,0.05,0.09874
2.846,3057.5,941.12,-153.94,950.54,155.02,419.91,0.04204,419.91,0.0057363,133.51,18.279,33,107,32.128,0.0020098,-3.16E-08,-0.0025947,-3.08E-04,82.153,0,8.7843,0.06234,39.47,29.329,4.5074,0.8622,22534700,0,87.414,0.72936,0.72936,0.40639,0.10632,0.21664,5.18E-04,0.0023405,1.34E-04,0,0,0,0,-3.53E-06,0.11674,2.25,3.9761,81.477,0.012782,NaN,47.193,897.78,1103.7,0.05,0.099156
2.896,3104.4,933.5,-150.95,942.87,151.98,426.56,0.043435,426.56,0.0058342,132.62,17.649,33,107,32.128,0.0080492,-3.34E-08,-0.0014581,1.45E-05,82.153,0,8.7843,0.06234,39.449,29.329,4.4977,0.85542,22329330,0,85.253,0.72386,0.72386,0.4069,0.10183,0.21513,0.0020695,0.0088967,-4.85E-04,0,0,0,0,-1.13E-06,0.1158,2.25,3.9761,81.44,0.011146,NaN,47.026,896.26,1103.5,0.05,0.099651
2.946,3150.9,926.02,-148.08,935.35,149.07,433.17,0.044851,433.17,0.0059326,131.75,17.165,33,107,32.128,0.0098794,-3.26E-08,2.89E-04,1.09E-05,82.153,0,8.7843,0.06234,39.429,29.329,4.4892,0.84873,22126645,0,83.188,0.71873,0.71873,0.40741,0.097675,0.21364,0.0025347,0.011398,-1.77E-04,0,0,0,0,4.51E-08,0.11488,2.25,3.9761,81.431,0.012569,NaN,46.861,894.75,1103.4,0.05,0.10005
2.996,3197,918.69,-145.21,927.97,146.29,439.73,0.046298,439.73,0.0060325,130.88,17.741,33,107,32.127,0.014454,-2.98E-08,4.09E-04,2.81E-05,82.153,0,8.7843,0.06234,39.409,29.329,4.4803,0.8422,21928710,0,81.234,0.71397,0.71398,0.40789,0.093876,0.21221,0.0037012,0.016406,-9.49E-05,0,0,0,0,9.20E-08,0.11398,2.25,3.9761,81.435,0.010802,NaN,46.696,893.26,1103.2,0.05,0.10045
3.046,3242.7,911.5,-142.64,920.72,143.68,446.26,0.04775,446.26,0.0061308,130,17.249,33,107,32.127,0.010602,-3.41E-08,0.0028514,2.06E-05,82.153,0,8.7843,0.06234,39.394,29.329,4.4734,0.8358,21735020,0,79.377,0.70955,0.70955,0.40836,0.090378,0.21081,0.0027092,0.01163,6.63E-05,0,0,0,0,4.54E-06,0.11309,2.25,3.9761,81.403,0.011311,NaN,46.533,891.77,1103,0.05,0.10086
3.096,3288.1,904.42,-140.34,913.6,141.21,452.73,0.049214,452.73,0.0062283,129.18,15.606,33,107,32.127,0.023653,-3.03E-08,-0.0012288,9.55E-06,82.153,0,8.7843,0.06234,39.371,29.329,4.4631,0.82947,21543529,0,77.589,0.70537,0.70537,0.40882,0.087107,0.20944,0.0060348,0.026654,4.88E-04,0,0,0,0,-8.56E-07,0.11221,2.25,3.9761,81.36,0.014832,NaN,46.371,890.3,1102.8,0.05,0.10164
3.146,3333.2,897.46,-137.88,906.6,138.77,459.17,0.050718,459.17,0.0063286,128.4,15.747,33,107,32.127,0.010388,-3.77E-08,0.0019027,-4.35E-06,82.153,0,8.7843,0.06234,39.36,29.329,4.4585,0.82322,21354990,0,75.874,0.70143,0.70143,0.40928,0.084056,0.2081,0.0026442,0.011451,-1.19E-04,0,0,0,0,2.08E-06,0.11136,2.25,3.9761,81.372,0.013324,NaN,46.21,888.84,1102.6,0.05,0.10222
3.196,3377.9,890.63,-135.45,899.73,136.42,465.57,0.052242,465.57,0.0064291,127.6,16.243,33,107,32.127,0.013473,-3.75E-08,-0.001306,-3.57E-06,82.153,0,8.7843,0.06234,39.343,29.329,4.4506,0.81707,21169281,0,74.225,0.69771,0.69771,0.40972,0.081201,0.20679,0.0034235,0.015217,2.03E-04,0,0,0,0,-9.97E-07,0.11051,2.25,3.9761,81.405,0.010473,NaN,46.051,887.39,1102.5,0.05,0.10264
3.246,3422.2,883.92,-133.21,892.96,134.2,471.93,0.053756,471.93,0.0065263,126.78,16.241,33,107,32.127,0.022319,-4.12E-08,0.0019018,-6.56E-05,82.153,0,8.7843,0.06234,39.323,29.329,4.4419,0.81107,20988211,0,72.655,0.69422,0.69422,0.41015,0.078554,0.20552,0.005663,0.025159,-4.50E-04,0,0,0,0,2.15E-06,0.10968,2.25,3.9761,81.398,0.013398,NaN,45.893,885.95,1102.3,0.05,0.10308
3.296,3466.3,877.31,-131.26,886.31,132.11,478.25,0.055292,478.25,0.0066241,126,14.988,33,107,32.127,0.0054678,-4.30E-08,-0.0030896,-2.35E-04,82.153,0,8.7843,0.06234,39.315,29.329,4.4385,0.80518,20810533,0,71.148,0.69092,0.69092,0.41057,0.076075,0.20428,0.0013842,0.006196,-4.39E-04,0,0,0,0,-5.75E-06,0.10887,2.25,3.9761,81.347,0.016054,NaN,45.736,884.52,1102.1,0.05,0.10377
3.346,3510,870.79,-129.4,879.76,130.09,484.54,0.056873,484.54,0.0067252,125.3,13.446,33,107,32.126,0.041055,-4.03E-08,0.0010416,-3.92E-05,82.153,0,8.7843,0.06234,39.284,29.329,4.4246,0.79929,20633496,0,69.678,0.68774,0.68775,0.41098,0.073709,0.20305,0.010388,0.046203,-5.82E-05,0,0,0,0,6.63E-07,0.10806,2.25,3.9761,81.325,0.013572,NaN,45.58,883.11,1101.9,0.05,0.10436
3.396,3553.4,864.38,-127.11,873.31,128.03,490.78,0.058469,490.78,0.0068259,124.58,15.341,33,107,32.126,0.022846,-4.77E-08,-0.0023045,-5.13E-05,82.153,0,8.7843,0.06234,39.278,29.329,4.4218,0.79357,20461249,0,68.276,0.68476,0.68476,0.41138,0.071507,0.20187,0.0057679,0.025541,-5.91E-05,0,0,0,0,-3.29E-06,0.10727,2.25,3.9761,81.368,0.011067,NaN,45.425,881.7,1101.8,0.05,0.10491
3.446,3596.4,858.07,-125.08,866.95,126.12,496.99,0.060048,496.99,0.0069226,123.78,16.195,33,107,32.126,0.055394,-3.95E-08,0.0042716,-1.98E-05,82.153,0,8.7843,0.06234,39.249,29.329,4.409,0.78801,20293590,0,66.94,0.68195,0.68195,0.41177,0.069453,0.20072,0.013979,0.062026,-1.03E-04,0,0,0,0,1.15E-05,0.10649,2.25,3.9761,81.352,0.012913,NaN,45.272,880.3,1101.6,0.05,0.10546
3.496,3639.2,851.86,-123.64,860.69,124.37,503.16,0.061634,503.16,0.0070183,123.03,13.5,33,107,32.126,0.020381,-4.14E-08,-0.0066632,-1.12E-04,82.153,0,8.7843,0.06234,39.251,29.329,4.41,0.7825,20127768,0,65.642,0.67925,0.67925,0.41215,0.067498,0.1996,0.0051292,0.022953,1.85E-04,0,0,0,0,-2.83E-05,0.10572,2.25,3.9761,81.238,0.016924,NaN,45.119,878.92,1101.4,0.05,0.10589
3.546,3681.6,845.71,-122.19,854.52,122.69,509.3,0.063267,509.3,0.0071176,122.44,11.006,33,107,32.126,0.089382,-6.30E-08,0.002214,-2.20E-05,82.153,0,8.7843,0.06234,39.206,29.329,4.3898,0.77692,19960711,0,64.357,0.67659,0.67661,0.41253,0.065593,0.19847,0.022514,0.098821,1.74E-04,0,0,0,0,3.18E-06,0.10497,2.25,3.9761,81.191,0.015766,NaN,44.968,877.54,1101.3,0.048108,0.10638
3.5941,3722.1,839.88,-119.99,848.67,120.84,515.17,0.064863,515.17,0.0072139,121.84,14.354,33,107,32.126,0.023601,-6.35E-08,-0.0066585,-6.61E-05,82.153,0,8.7843,0.06234,39.223,29.329,4.3976,0.77171,19804478,0,63.175,0.67418,0.67419,0.41288,0.063879,0.19742,0.0059228,0.026301,2.89E-05,0,0,0,0,-2.91E-05,0.10425,2.25,3.9761,81.289,0.012951,NaN,44.823,876.23,1101.1,0.05,0.10685
3.6441,3764,833.93,-118.06,842.67,119.13,521.25,0.066522,521.25,0.0073122,121.06,15.916,33,107,32.126,0.08249,-7.46E-08,0.0018201,-2.53E-05,82.153,0,8.7843,0.06234,39.183,29.329,4.3798,0.76639,19644741,0,61.988,0.67179,0.6718,0.41324,0.062187,0.19636,0.020714,0.091184,4.71E-04,0,0,0,0,2.21E-06,0.10352,2.25,3.9761,81.337,0.01423,NaN,44.674,874.87,1100.9,0.05,0.10733
3.6941,3805.5,828.06,-116.94,836.76,117.59,527.28,0.068198,527.28,0.0074106,120.35,12.38,33,107,32.126,0.023954,-8.42E-08,-0.0057966,-4.99E-05,82.153,0,8.7843,0.06234,39.197,29.329,4.3861,0.76107,19485668,0,60.823,0.66945,0.66946,0.4136,0.060555,0.1953,0.0059944,0.025881,-1.68E-04,0,0,0,0,-2.27E-05,0.10279,2.25,3.9761,81.248,0.01678,NaN,44.526,873.52,1100.8,0.05,0.10778
3.7441,3846.8,822.24,-115.54,830.92,116.07,533.28,0.069906,533.28,0.0075107,119.78,11.136,33,107,32.125,0.058785,-7.34E-08,6.31E-04,-3.35E-05,82.153,0,8.7843,0.06234,39.169,29.329,4.3734,0.75586,1.93E+07,0,59.704,0.66723,0.66724,0.41395,0.059012,0.19427,0.014709,0.063982,4.49E-06,0,0,0,0,2.73E-07,0.10207,2.25,3.9761,81.2,0.015836,NaN,44.379,872.19,1100.6,0.05,0.10821
3.7941,3887.8,816.51,-113.7,825.16,114.44,539.26,0.071632,539.26,0.0076109,119.17,13.044,33,107,32.125,0.012538,-7.76E-08,-0.0036028,-1.43E-04,82.153,0,8.7843,0.06234,39.178,29.329,4.3776,0.75074,19177017,0,58.62,0.6651,0.6651,0.41429,0.057543,0.19327,0.003128,0.01377,1.36E-04,0,0,0,0,-9.02E-06,0.10137,2.25,3.9761,81.251,0.012234,NaN,44.233,870.86,1100.5,0.05,0.10869
3.8441,3928.5,810.87,-112.05,819.48,112.92,545.2,0.073343,545.2,0.0077077,118.49,13.987,33,107,32.125,0.052694,-8.12E-08,0.0011639,-4.42E-05,82.153,0,8.7843,0.06234,39.148,29.329,4.3641,0.74569,19026201,0,57.568,0.66304,0.66305,0.41462,0.056139,0.19229,0.013148,0.057011,1.63E-04,0,0,0,0,9.54E-07,0.10067,2.25,3.9761,81.277,0.01515,NaN,44.088,869.54,1100.3,0.05,0.10912
3.8941,3968.9,805.3,-110.77,813.87,111.52,551.11,0.075067,551.11,0.0078044,117.81,12.94,33,107,32.125,0.022307,-8.63E-08,0.0059203,-4.15E-05,82.153,0,8.7843,0.06234,39.151,29.329,4.3653,0.74076,18878780,0,56.555,0.66108,0.66108,0.41494,0.054808,0.19133,0.005553,0.023887,-4.66E-04,0,0,0,0,2.50E-05,0.099984,2.25,3.9761,81.206,0.017336,NaN,43.943,868.23,1100.1,0.05,0.10957
3.9441,4009,799.79,-109.73,808.33,110.23,556.98,0.076814,556.98,0.0079017,117.23,10.502,33,107,32.125,0.057869,-8.76E-08,-0.003404,8.74E-06,82.153,0,8.7843,0.06234,39.123,29.329,4.3529,0.73582,18731724,0,55.558,0.65916,0.65917,0.41526,0.053516,0.19039,0.014406,0.063149,-2.81E-04,0,0,0,0,-8.39E-06,0.099305,2.25,3.9761,81.111,0.015454,NaN,43.8,866.93,1100,0.05,0.10999
3.9941,4048.8,794.34,-108.32,802.86,108.84,562.83,0.078571,562.83,0.0079985,116.71,10.59,33,107,32.125,0.048102,-9.59E-08,0.0034629,8.56E-06,82.153,0,8.7843,0.06234,39.116,29.329,4.35,0.73092,18585882,0,54.583,0.6573,0.6573,0.41558,0.052268,0.18945,0.011956,0.051905,3.56E-04,0,0,0,0,8.80E-06,0.098635,2.25,3.9761,81.116,0.015891,NaN,43.658,865.64,1099.8,0.05,0.11044
4.0441,4088.4,788.96,-106.61,797.46,107.4,568.65,0.080338,568.65,0.0080947,116.12,12.951,33,107,32.125,0.045396,-9.31E-08,-0.0033909,-8.62E-06,82.153,0,8.7843,0.06234,39.107,29.329,4.3458,0.72611,18442952,0,53.641,0.6555,0.65551,0.41588,0.05108,0.18854,0.011269,0.049182,1.18E-04,0,0,0,0,-8.55E-06,0.097973,2.25,3.9761,81.192,0.015779,NaN,43.517,864.35,1099.7,0.05,0.11087
4.0941,4127.7,783.67,-105.19,792.13,106.09,574.44,0.082112,574.44,0.00819,115.44,13.794,33,107,32.125,0.082871,-8.28E-08,0.0046407,5.49E-06,82.153,0,8.7843,0.06234,39.079,29.329,4.3335,0.72144,18303673,0,52.737,0.6538,0.65381,0.41618,0.049955,0.18766,0.020576,0.089074,-3.25E-04,0,0,0,0,1.62E-05,0.097318,2.25,3.9761,81.182,0.015527,NaN,43.377,863.08,1099.5,0.05,0.11136
4.1441,4166.8,778.43,-104.52,786.85,104.98,580.2,0.083888,580.2,0.0082841,114.85,9.8191,33,107,32.124,0.058979,-8.30E-08,-0.0060953,2.62E-05,82.153,0,8.7843,0.06234,39.079,29.329,4.3337,0.71666,18162378,0,51.829,0.65209,0.65209,0.41648,0.048836,0.18677,0.014615,0.063638,3.19E-04,0,0,0,0,-2.84E-05,0.096672,2.25,3.9761,81.064,0.01548,NaN,43.238,861.81,1099.4,0.05,0.11189
4.1941,4205.6,773.23,-103.31,781.64,103.76,585.93,0.085666,585.93,0.008377,114.38,9.6445,33,107,32.124,0.061029,-8.58E-08,0.0015701,3.35E-05,82.153,0,8.7843,0.06234,39.068,29.329,4.3288,0.71205,18025375,0,50.961,0.65047,0.65047,0.41677,0.047782,0.18591,0.015107,0.065128,1.23E-04,0,0,0,0,1.91E-06,0.096034,2.25,3.9761,81.027,0.017372,NaN,43.099,860.55,1099.2,0.05,0.1123
4.2441,4244.1,768.1,-101.81,776.49,102.45,591.63,0.087465,591.63,0.0084704,113.85,11.431,33,107,32.124,0.015129,-8.40E-08,-0.0038928,8.49E-05,82.153,0,8.7843,0.06234,39.08,29.329,4.3338,0.70745,17889343,0,50.11,0.64888,0.64888,0.41706,0.04676,0.18506,0.0037351,0.015845,-2.84E-04,0,0,0,0,-1.19E-05,0.095403,2.25,3.9761,81.088,0.019342,NaN,42.962,859.31,1099,0.05,0.11269
4.2941,4282.4,763.05,-100.42,771.4,101.24,597.31,0.089294,597.31,0.0085653,113.23,12.821,33,107,32.124,0.076527,-7.55E-08,0.0015089,1.81E-05,82.153,0,8.7843,0.06234,39.042,29.329,4.3169,0.70296,17756227,0,49.288,0.64736,0.64737,0.41734,0.045784,0.18424,0.018914,0.081681,3.08E-05,0,0,0,0,1.81E-06,0.094778,2.25,3.9761,81.115,0.017712,NaN,42.825,858.06,1098.9,0.05,0.11308
4.3441,4320.4,758.05,-99.619,766.37,100.17,602.96,0.091134,602.96,0.0086599,112.64,10.516,33,107,32.124,0.0082024,-6.86E-08,-0.0054095,1.61E-04,82.153,0,8.7843,0.06234,39.064,29.329,4.3267,0.69843,17622593,0,48.471,0.64585,0.64585,0.41761,0.044825,0.18341,0.0020203,0.0091235,-3.82E-04,0,0,0,0,-2.36E-05,0.094161,2.25,3.9761,81.04,0.016064,NaN,42.69,856.83,1098.7,0.05,0.11347
4.3941,4358.2,753.09,-98.774,761.4,99.154,608.58,0.092974,608.58,0.0087533,112.17,8.6627,33,107,32.124,0.077119,-5.79E-08,-4.18E-04,1.03E-05,82.153,0,8.7843,0.06234,39.023,29.329,4.3084,0.69393,1.75E+07,0,47.673,0.64438,0.6444,0.41789,0.043894,0.1826,0.019022,0.08221,3.77E-04,0,0,0,0,-1.43E-07,0.093551,2.25,3.9761,80.98,0.017496,NaN,42.555,855.61,1098.6,0.05,0.11385
4.4441,4395.7,748.18,-97.344,756.47,97.946,614.17,0.094828,614.17,0.0088465,111.69,10.84,33,107,32.124,0.017239,-5.49E-08,-0.0030059,6.51E-06,82.153,0,8.7843,0.06234,39.041,29.329,4.3167,0.68962,17362584,0,46.913,0.643,0.643,0.41815,0.043021,0.18182,0.0042389,0.018593,-2.04E-04,0,0,0,0,-7.47E-06,0.092949,2.25,3.9761,81.017,0.01834,NaN,42.421,854.39,1098.4,0.05,0.11423
4.4941,4433,743.35,-96.213,751.61,96.858,619.75,0.0967,619.75,0.0089399,111.13,11.154,33,107,32.124,0.038183,-5.28E-08,3.97E-04,5.49E-06,82.153,0,8.7843,0.06234,39.023,29.329,4.3084,0.68524,17233900,0,46.155,0.64161,0.64162,0.41842,0.042157,0.18104,0.0093868,0.040716,5.88E-05,0,0,0,0,1.32E-07,0.092352,2.25,3.9761,81.042,0.017744,NaN,42.288,853.18,1098.3,0.05,0.11461
4.5441,4470.1,738.56,-95.27,746.79,95.844,625.29,0.09858,625.29,0.009033,110.59,10.47,33,107,32.123,0.015635,-5.54E-08,0.0030773,-1.95E-05,82.153,0,8.7843,0.06234,39.024,29.329,4.3092,0.68094,17107468,0,45.418,0.64028,0.64028,0.41867,0.041326,0.18028,0.0038369,0.016381,-4.00E-04,0,0,0,0,8.03E-06,0.091761,2.25,3.9761,81.007,0.0187,NaN,42.156,851.98,1098.2,0.05,0.11499
4.5941,4506.9,733.82,-94.382,742.03,94.872,630.81,0.10048,630.81,0.0091262,110.09,9.6306,33,107,32.123,0.015329,-5.63E-08,-0.0029923,6.01E-06,82.153,0,8.7843,0.06234,39.016,29.329,4.3055,0.67671,16983067,0,44.702,0.63898,0.63898,0.41893,0.040525,0.17953,0.0037582,0.016399,-2.31E-05,0,0,0,0,-7.69E-06,0.091178,2.25,3.9761,80.949,0.017924,NaN,42.025,850.79,1098,0.05,0.11539
4.6441,4543.4,729.12,-93.487,737.32,93.912,636.3,0.10238,636.3,0.0092188,109.63,8.9188,33,107,32.123,0.040525,-5.71E-08,-1.97E-04,-1.27E-05,82.153,0,8.7843,0.06234,38.996,29.329,4.2966,0.67248,16858949,0,43.995,0.63771,0.63771,0.41918,0.039741,0.17879,0.0099358,0.042833,1.36E-04,0,0,0,0,-3.39E-08,0.0906,2.25,3.9761,80.918,0.015715,NaN,41.894,849.6,1097.9,0.05,0.11589
4.6941,4579.8,724.47,-92.416,732.65,92.898,641.77,0.10427,641.77,0.0093093,109.17,9.447,33,107,32.123,0.010635,-5.76E-08,0.0023172,-4.00E-06,82.153,0,8.7843,0.06234,39.002,29.329,4.2991,0.66829,16736277,0,43.304,0.63646,0.63646,0.41942,0.038981,0.17806,0.0026024,0.011156,4.37E-04,0,0,0,0,4.73E-06,0.090029,2.25,3.9761,80.941,0.017493,NaN,41.765,848.42,1097.7,0.05,0.11628
4.7441,4615.9,719.88,-91.231,728.04,91.885,647.21,0.10617,647.21,0.0093989,108.66,10.946,33,107,32.123,0.062474,-5.84E-08,1.91E-04,-3.52E-05,82.153,0,8.7843,0.06234,38.97,29.329,4.2849,0.66423,16617039,0,42.64,0.63528,0.63528,0.41966,0.038259,0.17736,0.015302,0.065486,1.84E-05,0,0,0,0,3.27E-08,0.089463,2.25,3.9761,80.968,0.021905,NaN,41.636,847.25,1097.6,0.05,0.11668
4.7941,4651.8,715.34,-90.447,723.47,90.993,652.63,0.1081,652.63,0.0094905,108.13,9.9588,33,107,32.123,0.023937,-5.98E-08,0.0045172,-1.13E-04,82.153,0,8.7843,0.06234,38.98,29.329,4.2894,0.66014,16497535,0,41.981,0.6341,0.6341,0.4199,0.037546,0.17665,0.0058499,0.024988,3.68E-04,0,0,0,0,1.84E-05,0.088903,2.25,3.9761,80.92,0.023636,NaN,41.508,846.09,1097.4,0.05,0.1171
4.8441,4687.4,710.83,-89.796,718.94,90.176,658.03,0.11008,658.03,0.0095848,107.68,8.2732,33,107,32.123,0.048685,-5.91E-08,-0.0031947,-5.18E-05,82.153,0,8.7843,0.06234,38.961,29.329,4.2808,0.65608,16379450,0,41.335,0.63294,0.63295,0.42013,0.036852,0.17596,0.011899,0.05101,1.79E-04,0,0,0,0,-9.34E-06,0.088349,2.25,3.9761,80.842,0.021035,NaN,41.381,844.96,1097.3,0.05,0.11752
4.8941,4722.9,706.37,-88.891,714.47,89.281,663.4,0.11208,663.4,0.0096798,107.27,8.3344,33,107,32.123,0.040909,-5.78E-08,0.0010992,-3.90E-05,82.153,0,8.7843,0.06234,38.957,29.329,4.2791,0.65208,16263884,0,40.708,0.63182,0.63182,0.42036,0.036182,0.17528,0.009987,0.042892,-1.45E-04,0,0,0,0,1.12E-06,0.0878,2.25,3.9761,80.826,0.017125,NaN,41.255,843.87,1097.2,0.05,0.11794
4.9441,4758.1,701.95,-87.847,710.03,88.345,668.76,0.11407,668.76,0.0097728,106.83,9.3642,33,107,32.123,0.014352,-5.97E-08,-0.0022014,-8.79E-05,82.153,0,8.7843,0.06234,38.962,29.329,4.2813,0.64812,16149445,0,40.093,0.63073,0.63073,0.42059,0.03553,0.17461,0.0034975,0.014917,2.50E-04,0,0,0,0,-4.55E-06,0.087257,2.25,3.9761,80.862,0.017745,NaN,41.129,842.78,1097,0.05,0.11844
4.9941,4793.1,697.58,-86.854,705.64,87.457,674.08,0.11606,674.08,0.0098646,106.33,10.253,33,107,32.122,0.063139,-6.01E-08,0.0013219,-5.60E-05,82.153,0,8.7843,0.06234,38.932,29.329,4.2681,0.64423,16037214,0,39.497,0.62967,0.62967,0.42081,0.034903,0.17395,0.015402,0.065825,4.94E-04,0,0,0,0,1.66E-06,0.086718,2.25,3.9761,80.875,0.022767,NaN,41.004,841.7,1096.9,0.05,0.11889
5.0441,4827.8,693.26,-86.187,701.29,86.672,679.39,0.11808,679.39,0.0099579,105.84,9.1583,33,107,32.122,0.015435,-6.10E-08,0.0048771,-2.67E-04,82.153,0,8.7843,0.06234,38.947,29.329,4.2748,0.64034,15925167,0,38.906,0.62862,0.62862,0.42103,0.034286,0.17331,0.0037556,0.016143,1.03E-05,0,0,0,0,2.29E-05,0.086185,2.25,3.9761,80.813,0.026096,NaN,40.88,840.63,1096.7,0.05,0.11932
5.0941,4862.4,688.96,-85.588,696.98,85.939,684.67,0.12014,684.67,0.010054,105.42,7.7608,33,107,32.122,0.049289,-6.38E-08,-0.003316,-7.02E-05,82.153,0,8.7843,0.06234,38.924,29.329,4.2648,0.63648,15814100,0,38.327,0.62759,0.6276,0.42125,0.033685,0.17266,0.011999,0.050693,5.51E-05,0,0,0,0,-1.07E-05,0.085657,2.25,3.9761,80.732,0.022558,NaN,40.757,839.57,1096.6,0.05,0.11974
5.1441,4896.7,684.7,-84.826,692.71,85.152,689.93,0.12223,689.93,0.010151,105.05,7.4421,33,107,32.122,0.060034,-6.04E-08,0.0013688,-4.00E-05,82.153,0,8.7843,0.06234,38.913,29.329,4.2595,0.63264,15703634,0,37.757,0.62659,0.62659,0.42146,0.033097,0.17203,0.014609,0.062272,3.97E-04,0,0,0,0,1.85E-06,0.085135,2.25,3.9761,80.715,0.01732,NaN,40.635,838.51,1096.5,0.05,0.12021
5.1941,4930.9,680.48,-83.826,688.48,84.277,695.17,0.12431,695.17,0.010245,104.65,8.7024,33,107,32.122,0.010469,-6.21E-08,-0.0034146,-2.62E-04,82.153,0,8.7843,0.06234,38.929,29.329,4.2668,0.62885,15594970,0,37.201,0.62561,0.62561,0.42167,0.032528,0.17141,0.0025412,0.010786,-3.28E-05,0,0,0,0,-1.16E-05,0.084617,2.25,3.9761,80.766,0.016762,NaN,40.513,837.45,1096.3,0.05,0.12061
5.2441,4964.8,676.32,-82.879,684.29,83.455,700.4,0.12636,700.4,0.010337,104.18,9.7819,33,107,32.122,0.072759,-6.78E-08,1.12E-04,-5.82E-05,82.153,0,8.7843,0.06234,38.894,29.329,4.2511,0.62513,15487991,0,36.66,0.62465,0.62466,0.42187,0.031977,0.1708,0.017688,0.075366,-4.13E-04,0,0,0,0,1.27E-08,0.084103,2.25,3.9761,80.801,0.02222,NaN,40.392,836.41,1096.2,0.05,0.12101
5.2941,4998.5,672.19,-82.228,680.14,82.73,705.59,0.12844,705.59,0.010429,103.7,9.1033,33,107,32.122,0.043108,-6.28E-08,0.0048772,-1.09E-04,82.153,0,8.7843,0.06234,38.901,29.329,4.2544,0.62142,15381810,0,36.127,0.62372,0.62372,0.42208,0.031438,0.1702,0.010461,0.044037,1.19E-04,0,0,0,0,2.43E-05,0.083594,2.25,3.9761,80.752,0.026504,NaN,40.272,835.37,1096.1,0.05,0.1214
5.3441,5032,668.09,-81.709,676.03,82.073,710.77,0.13055,710.77,0.010524,103.28,7.7288,33,107,32.122,0.025969,-6.50E-08,-0.0054374,-1.44E-04,82.153,0,8.7843,0.06234,38.903,29.329,4.2552,0.61776,15276982,0,35.606,0.6228,0.6228,0.42228,0.030915,0.16961,0.0062934,0.026679,-3.60E-04,0,0,0,0,-3.06E-05,0.08309,2.25,3.9761,80.652,0.02534,NaN,40.152,834.33,1095.9,0.05,0.12189
5.3941,5065.3,664.02,-81.072,671.95,81.39,715.92,0.1327,715.92,0.01062,102.91,7.1954,33,107,32.122,0.051403,-6.35E-08,-0.0022618,-3.02E-05,82.153,0,8.7843,0.06234,38.885,29.329,4.2473,0.61415,15173649,0,35.098,0.62191,0.62192,0.42247,0.030407,0.16903,0.01246,0.053332,4.77E-04,0,0,0,0,-5.36E-06,0.082591,2.25,3.9761,80.581,0.020633,NaN,40.033,833.31,1095.8,0.05,0.12238
5.4441,5098.4,659.99,-80.309,667.91,80.655,721.06,0.13485,721.06,0.010715,102.55,7.4658,33,107,32.122,0.031942,-6.43E-08,9.18E-04,-3.33E-05,82.153,0,8.7843,0.06234,38.888,29.329,4.2487,0.61054,15070589,0,34.595,0.62103,0.62103,0.42267,0.029908,0.16846,0.0077322,0.032707,2.14E-04,0,0,0,0,8.94E-07,0.082096,2.25,3.9761,80.571,0.017487,NaN,39.915,832.28,1095.7,0.05,0.12288
5.4941,5131.3,655.99,-79.478,663.9,79.901,726.18,0.13698,726.18,0.010808,102.16,8.2167,33,107,32.121,0.01565,-6.49E-08,-0.0014852,-9.11E-05,82.153,0,8.7843,0.06234,38.89,29.329,4.2495,0.60696,14968309,0,34.1,0.62017,0.62017,0.42286,0.029419,0.16789,0.0037837,0.01618,1.25E-05,0,0,0,0,-2.37E-06,0.081605,2.25,3.9761,80.598,0.019472,NaN,39.798,831.27,1095.6,0.05,0.12392
5.5441,5164,652.04,-78.748,659.93,79.196,731.27,0.1391,731.27,0.010899,101.74,8.4166,33,107,32.121,0.033479,-6.45E-08,4.28E-04,-4.17E-05,82.153,0,8.7843,0.06234,38.876,29.329,4.2433,0.60338,14866513,0,33.613,0.61932,0.61932,0.42305,0.028939,0.16733,0.008094,0.033859,-1.60E-04,0,0,0,0,1.99E-07,0.081118,2.25,3.9761,80.609,0.024353,NaN,39.681,830.26,1095.4,0.05,0.12434
5.5941,5196.5,648.12,-78.116,655.99,78.536,736.35,0.14125,736.35,0.010991,101.32,8.1154,33,107,32.121,0.022112,-6.69E-08,0.0024599,-6.79E-05,82.153,0,8.7843,0.06234,38.876,29.329,4.2432,0.59985,14766074,0,33.136,0.61848,0.61848,0.42323,0.028473,0.16678,0.0053401,0.022473,4.59E-04,0,0,0,0,6.65E-06,0.080636,2.25,3.9761,80.581,0.026846,NaN,39.566,829.26,1095.3,0.05,0.12475
5.6441,5228.8,644.22,-77.522,652.08,77.903,741.41,0.14344,741.41,0.011085,100.93,7.6954,33,107,32.121,0.0024353,-6.70E-08,0.0032303,-4.81E-04,82.153,0,8.7843,0.06234,38.88,29.329,4.2449,0.59638,14667278,0,32.671,0.61767,0.61767,0.42342,0.028021,0.16624,5.87E-04,0.0020742,2.72E-04,0,0,0,0,1.16E-05,0.080157,2.25,3.9761,80.528,0.02572,NaN,39.45,828.26,1095.2,0.05,0.12514
5.6941,5260.9,640.36,-76.929,648.21,77.279,746.44,0.14565,746.44,0.01118,100.55,7.3503,33,107,32.121,0.013732,-6.77E-08,-0.0028196,9.25E-06,82.153,0,8.7843,0.06234,38.869,29.329,4.2402,0.59294,1.46E+07,0,32.215,0.61688,0.61688,0.4236,0.02758,0.16571,0.0033111,0.01396,3.71E-04,0,0,0,0,-8.94E-06,0.079683,2.25,3.9761,80.472,0.022493,NaN,39.336,827.27,1095,0.05,0.12564
5.7441,5292.8,636.53,-76.373,644.37,76.675,751.46,0.14786,751.46,0.011274,100.2,6.7981,33,107,32.121,0.041325,-6.89E-08,-9.42E-04,2.73E-06,82.153,0,8.7843,0.06234,38.851,29.329,4.2321,0.58947,14471417,0,31.761,0.61609,0.61609,0.42378,0.027142,0.16517,0.0099683,0.042026,3.91E-04,0,0,0,0,-1.01E-06,0.079213,2.25,3.9761,80.436,0.019866,NaN,39.222,826.29,1094.9,0.05,0.126
