=~=~=~=~=~=~=~=~=~=~=~= PuTTY log 2017.06.09 10:57:11 =~=~=~=~=~=~=~=~=~=~=~=
01,02,ANTSTATUS=DONTKNOW*2D
$GNTXT,01,01,02,PF=3FF*4B
$GNRMC,,V,,,,,,,,,,N*4D
$GNVTG,,,,,,,,,N*2E
$GNGGA,,,,,,0,00,99.99,,,,,,*56
$GNGSA,A,1,,,,,,,,,,,,,99.99,99.99,99.99*2E
$GNGSA,A,1,,,,,,,,,,,,,99.99,99.99,99.99*2E
$GPGSV,1,1,00*79
$$GNRMC,,V,,,,,,,,,,N*4D
$GNVTG,,,,,,,,,N*2E
$GNGGA,,,,,,0,00,99.99,,,,,,*56
$GNGSA,A,1,,,,,,,,,,,,,99.99,99.99,99.99*2E
$GNGSA,A,1,,,,,,,,,,,,,99.99,99.99,99.99*2E
$GPGSV,1,1,00*79
$GLGSV,1,1,00*65
$GNGLL,,,,,,V,N*7A
$GNRMC,,V,,,,,,,,,,N*4D
$GNVTG,,,,,,,,,N*2E
$GNGGA,,,,,,0,00,99.99,,,,,,*56
$GNGSA,A,1,,,,,,,,,,,,,99.99,99.99,99.99*2E
$GNGSA,A,1,,,,,,,,,,,,,99.99,99.99,99.99*2E
$GPGSV,1,1,00*79
$GLGSV,1,1,00*65
$GNGLL,,,,,,V,N*7A
$GNRMC,,V,,,,,,,,,,N*4D
$GNVTG,,,,,,,,,N*2E
$GNGGA,,,,,,0,00,99.99,,,,,,*56
$GNGSA,A,1,,,,,,,,,,,,,99.99,99.99,99.99*2E
$GNGSA,A,1,,,,,,,,,,,,,99.99,99.99,99.99*2E
$GPGSV,1,1,00*79
$GLGSV,1,1,00*65
$GNGLL,,,,,,V,N*7A
$GNRMC,,V,,,,,,,,,,N*4D
$GNVTG,,,,,,,,,N*2E
$GNGGA,,,,,,0,00,99.99,,,,,,*56
$GNGSA,A,1,,,,,,,,,,,,,99.99,99.99,99.99*2E
$GNGSA,A,1,,,,,,,,,,,,,99.99,99.99,99.99*2E
$GPGSV,1,1,00*79
$GLGSV,1,1,00*65
$GNGLL,,,,,,V,N*7A
$GNRMC,,V,,,,,,,,,,N*4D
$GNVTG,,,,,,,,,N*2E
$GNGGA,,,,,,0,00,99.99,,,,,,*56
$GNGSA,A,1,,,,,,,,,,,,,99.99,99.99,99.99*2E
$GNGSA,A,1,,,,,,,,,,,,,99.99,99.99,99.99*2E
$GPGSV,1,1,00*79
$GLGSV,1,1,00*65
$GNGLL,,,,,,V,N*7A
$GNRMC,,V,,,,,,,,,,N*4D
$GNVTG,,,,,,,,,N*2E
$GNGGA,,,,,,0,00,99.99,,,,,,*56
$GNGSA,A,1,,,,,,,,,,,,,99.99,99.99,99.99*2E
$GNGSA,A,1,,,,,,,,,,,,,99.99,99.99,99.99*2E
$GPGSV,1,1,00*79
$GLGSV,1,1,00*65
$GNGLL,,,,,,V,N*7A
$GNRMC,,V,,,,,,,,,,N*4D
$GNVTG,,,,,,,,,N*2E
$GNGGA,,,,,,0,00,99.99,,,,,,*56
$GNGSA,A,1,,,,,,,,,,,,,99.99,99.99,99.99*2E
$GNGSA,A,1,,,,,,,,,,,,,99.99,99.99,99.99*2E
$GPGSV,1,1,00*79
$GLGSV,1,1,00*65
$GNGLL,,,,,,V,N*7A
$GNRMC,,V,,,,,,,,,,N*4D
$GNVTG,,,,,,,,,N*2E
$GNGGA,,,,,,0,00,99.99,,,,,,*56
$GNGSA,A,1,,,,,,,,,,,,,99.99,99.99,99.99*2E
$GNGSA,A,1,,,,,,,,,,,,,99.99,99.99,99.99*2E
$GPGSV,1,1,00*79
$GLGSV,1,1,00*65
$GNGLL,,,,,,V,N*7A
$GNRMC,,V,,,,,,,,,,N*4D
$GNVTG,,,,,,,,,N*2E
$GNGGA,,,,,,0,00,99.99,,,,,,*56
$GNGSA,A,1,,,,,,,,,,,,,99.99,99.99,99.99*2E
$GNGSA,A,1,,,,,,,,,,,,,99.99,99.99,99.99*2E
$GPGSV,1,1,00*79
$GLGSV,1,1,00*65
$GNGLL,,,,,,V,N*7A
$GNRMC,,V,,,,,,,,,,N*4D
$GNVTG,,,,,,,,,N*2E
$GNGGA,,,,,,0,00,99.99,,,,,,*56
$GNGSA,A,1,,,,,,,,,,,,,99.99,99.99,99.99*2E
$GNGSA,A,1,,,,,,,,,,,,,99.99,99.99,99.99*2E
$GPGSV,1,1,00*79
$GLGSV,1,1,00*65
$GNGLL,,,,,,V,N*7A
$GNRMC,,V,,,,,,,,,,N*4D
$GNVTG,,,,,,,,,N*2E
$GNGGA,,,,,,0,00,99.99,,,,,,*56
$GNGSA,A,1,,,,,,,,,,,,,99.99,99.99,99.99*2E
$GNGSA,A,1,,,,,,,,,,,,,99.99,99.99,99.99*2E
$GPGSV,1,1,00*79
$GLGSV,1,1,00*65
$GNGLL,,,,,,V,N*7A
$GNRMC,,V,,,,,,,,,,N*4D
$GNVTG,,,,,,,,,N*2E
$GNGGA,,,,,,0,00,99.99,,,,,,*56
$GNGSA,A,1,,,,,,,,,,,,,99.99,99.99,99.99*2E
$GNGSA,A,1,,,,,,,,,,,,,99.99,99.99,99.99*2E
$GPGSV,1,1,00*79
$GLGSV,1,1,00*65
$GNGLL,,,,,,V,N*7A
$GNRMC,,V,,,,,,,,,,N*4D
$GNVTG,,,,,,,,,N*2E
$GNGGA,,,,,,0,00,99.99,,,,,,*56
$GNGSA,A,1,,,,,,,,,,,,,99.99,99.99,99.99*2E
$GNGSA,A,1,,,,,,,,,,,,,99.99,99.99,99.99*2E
$GPGSV,1,1,00*79
$GLGSV,1,1,00*65
$GNGLL,,,,,,V,N*7A
$GNRMC,,V,,,,,,,,,,N*4D
$GNVTG,,,,,,,,,N*2E
$GNGGA,,,,,,0,00,99.99,,,,,,*56
$GNGSA,A,1,,,,,,,,,,,,,99.99,99.99,99.99*2E
$GNGSA,A,1,,,,,,,,,,,,,99.99,99.99,99.99*2E
$GPGSV,1,1,00*79
$GLGSV,1,1,00*65
$GNGLL,,,,,,V,N*7A
$GNRMC,,V,,,,,,,,,,N*4D
$GNVTG,,,,,,,,,N*2E
$GNGGA,,,,,,0,00,99.99,,,,,,*56
$GNGSA,A,1,,,,,,,,,,,,,99.99,99.99,99.99*2E
$GNGSA,A,1,,,,,,,,,,,,,99.99,99.99,99.99*2E
$GPGSV,1,1,00*79
$GLGSV,1,1,00*65
$GNGLL,,,,,,V,N*7A
$GNRMC,,V,,,,,,,,,,N*4D
$GNVTG,,,,,,,,,N*2E
$GNGGA,,,,,,0,00,99.99,,,,,,*56
$GNGSA,A,1,,,,,,,,,,,,,99.99,99.99,99.99*2E
$GNGSA,A,1,,,,,,,,,,,,,99.99,99.99,99.99*2E
$GPGSV,1,1,00*79
$GLGSV,1,1,00*65
$GNGLL,,,,,,V,N*7A
$GNRMC,,V,,,,,,,,,,N*4D
$GNVTG,,,,,,,,,N*2E
$GNGGA,,,,,,0,00,99.99,,,,,,*56
$GNGSA,A,1,,,,,,,,,,,,,99.99,99.99,99.99*2E
$GNGSA,A,1,,,,,,,,,,,,,99.99,99.99,99.99*2E
$GPGSV,1,1,00*79
$GLGSV,1,1,00*65
$GNGLL,,,,,,V,N*7A
$GNRMC,,V,,,,,,,,,,N*4D
$GNVTG,,,,,,,,,N*2E
$GNGGA,,,,,,0,00,99.99,,,,,,*56
$GNGSA,A,1,,,,,,,,,,,,,99.99,99.99,99.99*2E
$GNGSA,A,1,,,,,,,,,,,,,99.99,99.99,99.99*2E
$GPGSV,1,1,00*79
$GLGSV,1,1,00*65
$GNGLL,,,,,,V,N*7A
$GNRMC,,V,,,,,,,,,,N*4D
$GNVTG,,,,,,,,,N*2E
$GNGGA,,,,,,0,00,99.99,,,,,,*56
$GNGSA,A,1,,,,,,,,,,,,,99.99,99.99,99.99*2E
$GNGSA,A,1,,,,,,,,,,,,,99.99,99.99,99.99*2E
$GPGSV,1,1,00*79
$GLGSV,1,1,00*65
$GNGLL,,,,,,V,N*7A
$GNRMC,,V,,,,,,,,,,N*4D
$GNVTG,,,,,,,,,N*2E
$GNGGA,,,,,,0,00,99.99,,,,,,*56
$GNGSA,A,1,,,,,,,,,,,,,99.99,99.99,99.99*2E
$GNGSA,A,1,,,,,,,,,,,,,99.99,99.99,99.99*2E
$GPGSV,1,1,00*79
$GLGSV,1,1,00*65
$GNGLL,,,,,,V,N*7A
$GNRMC,,V,,,,,,,,,,N*4D
$GNVTG,,,,,,,,,N*2E
$GNGGA,,,,,,0,00,99.99,,,,,,*56
$GNGSA,A,1,,,,,,,,,,,,,99.99,99.99,99.99*2E
$GNGSA,A,1,,,,,,,,,,,,,99.99,99.99,99.99*2E
$GPGSV,1,1,00*79
$GLGSV,1,1,00*65
$GNGLL,,,,,,V,N*7A
$GNRMC,,V,,,,,,,,,,N*4D
$GNVTG,,,,,,,,,N*2E
$GNGGA,,,,,,0,00,99.99,,,,,,*56
$GNGSA,A,1,,,,,,,,,,,,,99.99,99.99,99.99*2E
$GNGSA,A,1,,,,,,,,,,,,,99.99,99.99,99.99*2E
$GPGSV,1,1,00*79
$GLGSV,1,1,00*65
$GNGLL,,,,,,V,N*7A
$GNRMC,,V,,,,,,,,,,N*4D
$GNVTG,,,,,,,,,N*2E
$GNGGA,,,,,,0,00,99.99,,,,,,*56
$GNGSA,A,1,,,,,,,,,,,,,99.99,99.99,99.99*2E
$GNGSA,A,1,,,,,,,,,,,,,99.99,99.99,99.99*2E
$GPGSV,1,1,00*79
$GLGSV,1,1,00*65
$GNGLL,,,,,,V,N*7A
$GNRMC,,V,,,,,,,,,,N*4D
$GNVTG,,,,,,,,,N*2E
$GNGGA,,,,,,0,00,99.99,,,,,,*56
$GNGSA,A,1,,,,,,,,,,,,,99.99,99.99,99.99*2E
$GNGSA,A,1,,,,,,,,,,,,,99.99,99.99,99.99*2E
$GPGSV,1,1,00*79
$GLGSV,1,1,00*65
$GNGLL,,,,,,V,N*7A
$GNRMC,,V,,,,,,,,,,N*4D
$GNVTG,,,,,,,,,N*2E
$GNGGA,,,,,,0,00,99.99,,,,,,*56
$GNGSA,A,1,,,,,,,,,,,,,99.99,99.99,99.99*2E
$GNGSA,A,1,,,,,,,,,,,,,99.99,99.99,99.99*2E
$GPGSV,1,1,00*79
$GLGSV,1,1,00*65
$GNGLL,,,,,,V,N*7A
$GNRMC,,V,,,,,,,,,,N*4D
$GNVTG,,,,,,,,,N*2E
$GNGGA,,,,,,0,00,99.99,,,,,,*56
$GNGSA,A,1,,,,,,,,,,,,,99.99,99.99,99.99*2E
$GNGSA,A,1,,,,,,,,,,,,,99.99,99.99,99.99*2E
$GPGSV,1,1,00*79
$GLGSV,1,1,00*65
$GNGLL,,,,,,V,N*7A
$GNRMC,,V,,,,,,,,,,N*4D
$GNVTG,,,,,,,,,N*2E
$GNGGA,,,,,,0,00,99.99,,,,,,*56
$GNGSA,A,1,,,,,,,,,,,,,99.99,99.99,99.99*2E
$GNGSA,A,1,,,,,,,,,,,,,99.99,99.99,99.99*2E
$GPGSV,1,1,04,03,,,50,08,,,49,18,,,24,23,,,50*75
$GLGSV,1,1,00*65
$GNGLL,,,,,,V,N*7A
$GNRMC,,V,,,,,,,,,,N*4D
$GNVTG,,,,,,,,,N*2E
$GNGGA,,,,,,0,00,99.99,,,,,,*56
$GNGSA,A,1,,,,,,,,,,,,,99.99,99.99,99.99*2E
$GNGSA,A,1,,,,,,,,,,,,,99.99,99.99,99.99*2E
$GPGSV,2,1,07,03,,,49,05,,,49,07,,,51,08,,,50*75
$GPGSV,2,2,07,16,,,49,23,,,50,30,,,50*76
$GLGSV,1,1,00*65
$GNGLL,,,,,,V,N*7A
$GNRMC,,V,,,,,,,,,,N*4D
$GNVTG,,,,,,,,,N*2E
$GNGGA,,,,,,0,00,99.99,,,,,,*56
$GNGSA,A,1,,,,,,,,,,,,,99.99,99.99,99.99*2E
$GNGSA,A,1,,,,,,,,,,,,,99.99,99.99,99.99*2E
$GPGSV,2,1,07,03,,,49,05,,,49,07,,,50,08,,,49*7C
$GPGSV,2,2,07,16,,,49,23,,,50,30,,,49*7E
$GLGSV,1,1,00*65
$GNGLL,,,,,,V,N*7A
$GNRMC,,V,,,,,,,,,,N*4D
$GNVTG,,,,,,,,,N*2E
$GNGGA,,,,,,0,00,99.99,,,,,,*56
$GNGSA,A,1,,,,,,,,,,,,,99.99,99.99,99.99*2E
$GNGSA,A,1,,,,,,,,,,,,,99.99,99.99,99.99*2E
$GPGSV,3,1,09,03,,,49,05,,,49,07,,,50,08,,,49*73
$GPGSV,3,2,09,16,,,49,23,,,50,27,,,49,28,,,49*70
$GPGSV,3,3,09,30,,,49*7E
$GLGSV,1,1,00*65
$GNGLL,,,,,,V,N*7A
$GNRMC,,V,,,,,,,,,,N*4D
$GNVTG,,,,,,,,,N*2E
$GNGGA,,,,,,0,00,99.99,,,,,,*56
$GNGSA,A,1,,,,,,,,,,,,,99.99,99.99,99.99*2E
$GNGSA,A,1,,,,,,,,,,,,,99.99,99.99,99.99*2E
$GPGSV,3,1,09,03,,,48,05,,,48,07,,,50,08,,,49*73
$GPGSV,3,2,09,16,,,49,23,,,49,27,,,49,28,,,48*79
$GPGSV,3,3,09,30,,,49*7E
$GLGSV,1,1,00*65
$GNGLL,,,,,,V,N*7A
$GNRMC,,V,,,,,,,,,,N*4D
$GNVTG,,,,,,,,,N*2E
$GNGGA,,,,,,0,00,99.99,,,,,,*56
$GNGSA,A,1,,,,,,,,,,,,,99.99,99.99,99.99*2E
$GNGSA,A,1,,,,,,,,,,,,,99.99,99.99,99.99*2E
$GPGSV,3,1,09,03,,,48,05,,,48,07,,,50,08,,,49*73
$GPGSV,3,2,09,16,,,48,23,,,49,27,,,49,28,,,48*78
$GPGSV,3,3,09,30,,,49*7E
$GLGSV,1,1,00*65
$GNGLL,,,,,,V,N*7A
$GNRMC,,V,,,,,,,,,,N*4D
$GNVTG,,,,,,,,,N*2E
$GNGGA,,,,,,0,00,99.99,,,,,,*56
$GNGSA,A,1,,,,,,,,,,,,,99.99,99.99,99.99*2E
$GNGSA,A,1,,,,,,,,,,,,,99.99,99.99,99.99*2E
$GPGSV,3,1,10,03,,,48,05,,,48,07,,,50,08,,,49*7B
$GPGSV,3,2,10,09,,,50,16,,,48,23,,,49,27,,,48*7B
$GPGSV,3,3,10,28,,,48,30,,,49*70
$GLGSV,1,1,00*65
$GNGLL,,,,,,V,N*7A
$GNRMC,180001.00,V,,,,,,,,,,N*6B
$GNVTG,,,,,,,,,N*2E
$GNGGA,180001.00,,,,,0,00,99.99,,,,,,*70
$GNGSA,A,1,,,,,,,,,,,,,99.99,99.99,99.99*2E
$GNGSA,A,1,,,,,,,,,,,,,99.99,99.99,99.99*2E
$GPGSV,3,1,10,03,,,48,05,,,48,07,,,50,08,,,49*7B
$GPGSV,3,2,10,09,,,50,16,,,48,23,,,49,27,,,48*7B
$GPGSV,3,3,10,28,,,48,30,,,49*70
$GLGSV,1,1,00*65
$GNGLL,,,,,180001.00,V,N*5C
$GNRMC,180002.00,V,,,,,,,,,,N*68
$GNVTG,,,,,,,,,N*2E
$GNGGA,180002.00,,,,,0,00,99.99,,,,,,*73
$GNGSA,A,1,,,,,,,,,,,,,99.99,99.99,99.99*2E
$GNGSA,A,1,,,,,,,,,,,,,99.99,99.99,99.99*2E
$GPGSV,3,1,10,03,,,48,05,,,48,07,,,50,08,,,49*7B
$GPGSV,3,2,10,09,,,50,16,,,48,23,,,49,27,,,49*7A
$GPGSV,3,3,10,28,,,48,30,,,49*70
$GLGSV,1,1,00*65
$GNGLL,,,,,180002.00,V,N*5F
$GNRMC,180003.00,V,,,,,,,,,,N*69
$GNVTG,,,,,,,,,N*2E
$GNGGA,180003.00,,,,,0,00,99.99,,,,,,*72
$GNGSA,A,1,,,,,,,,,,,,,99.99,99.99,99.99*2E
$GNGSA,A,1,,,,,,,,,,,,,99.99,99.99,99.99*2E
$GPGSV,3,1,10,03,,,48,05,,,48,07,,,49,08,,,49*73
$GPGSV,3,2,10,09,,,50,16,,,48,23,,,49,27,,,49*7A
$GPGSV,3,3,10,28,,,48,30,,,49*70
$GLGSV,1,1,00*65
$GNGLL,,,,,180003.00,V,N*5E
$GNRMC,180004.00,V,,,,,,,,,,N*6E
$GNVTG,,,,,,,,,N*2E
$GNGGA,180004.00,,,,,0,00,99.99,,,,,,*75
$GNGSA,A,1,,,,,,,,,,,,,99.99,99.99,99.99*2E
$GNGSA,A,1,,,,,,,,,,,,,99.99,99.99,99.99*2E
$GPGSV,3,1,10,03,,,48,05,,,48,07,,,49,08,,,49*73
$GPGSV,3,2,10,09,,,50,16,,,49,23,,,49,27,,,49*7B
$GPGSV,3,3,10,28,,,48,30,,,49*70
$GLGSV,1,1,00*65
$GNGLL,,,,,180004.00,V,N*59
$GNRMC,180005.00,V,,,,,,,,,,N*6F
$GNVTG,,,,,,,,,N*2E
$GNGGA,180005.00,,,,,0,00,99.99,,,,,,*74
$GNGSA,A,1,,,,,,,,,,,,,99.99,99.99,99.99*2E
$GNGSA,A,1,,,,,,,,,,,,,99.99,99.99,99.99*2E
$GPGSV,3,1,10,03,,,48,05,,,48,07,,,49,08,,,49*73
$GPGSV,3,2,10,09,,,50,16,,,48,23,,,49,27,,,49*7A
$GPGSV,3,3,10,28,,,48,30,,,49*70
$GLGSV,1,1,00*65
$GNGLL,,,,,180005.00,V,N*58
$GNRMC,180006.00,V,,,,,,,,,,N*6C
$GNVTG,,,,,,,,,N*2E
$GNGGA,180006.00,,,,,0,00,99.99,,,,,,*77
$GNGSA,A,1,,,,,,,,,,,,,99.99,99.99,99.99*2E
$GNGSA,A,1,,,,,,,,,,,,,99.99,99.99,99.99*2E
$GPGSV,3,1,10,03,,,48,05,,,48,07,,,50,08,,,48*7A
$GPGSV,3,2,10,09,,,50,16,,,48,23,,,49,27,,,49*7A
$GPGSV,3,3,10,28,,,48,30,,,49*70
$GLGSV,1,1,00*65
$GNGLL,,,,,180006.00,V,N*5B
$GNRMC,180007.00,V,,,,,,,,,,N*6D
$GNVTG,,,,,,,,,N*2E
$GNGGA,180007.00,,,,,0,00,99.99,,,,,,*76
$GNGSA,A,1,,,,,,,,,,,,,99.99,99.99,99.99*2E
$GNGSA,A,1,,,,,,,,,,,,,99.99,99.99,99.99*2E
$GPGSV,3,1,10,03,,,48,05,,,48,07,,,49,08,,,49*73
$GPGSV,3,2,10,09,,,50,16,,,48,23,,,49,27,,,49*7A
$GPGSV,3,3,10,28,,,48,30,,,49*70
$GLGSV,1,1,00*65
$GNGLL,,,,,180007.00,V,N*5A
$GNRMC,180008.00,V,,,,,,,,,,N*62
$GNVTG,,,,,,,,,N*2E
$GNGGA,180008.00,,,,,0,00,99.99,,,,,,*79
$GNGSA,A,1,,,,,,,,,,,,,99.99,99.99,99.99*2E
$GNGSA,A,1,,,,,,,,,,,,,99.99,99.99,99.99*2E
$GPGSV,3,1,10,03,,,48,05,,,48,07,,,49,08,,,49*73
$GPGSV,3,2,10,09,,,50,16,,,48,23,,,49,27,,,49*7A
$GPGSV,3,3,10,28,,,48,30,,,49*70
$GLGSV,1,1,00*65
$GNGLL,,,,,180008.00,V,N*55
$GNRMC,180009.00,V,,,,,,,,,,N*63
$GNVTG,,,,,,,,,N*2E
$GNGGA,180009.00,,,,,0,00,99.99,,,,,,*78
$GNGSA,A,1,,,,,,,,,,,,,99.99,99.99,99.99*2E
$GNGSA,A,1,,,,,,,,,,,,,99.99,99.99,99.99*2E
$GPGSV,3,1,10,03,,,48,05,,,48,07,,,49,08,,,49*73
$GPGSV,3,2,10,09,,,50,16,,,48,23,,,49,27,,,49*7A
$GPGSV,3,3,10,28,,,48,30,,,49*70
$GLGSV,1,1,00*65
$GNGLL,,,,,180009.00,V,N*54
$GNRMC,180010.00,V,,,,,,,,,,N*6B
$GNVTG,,,,,,,,,N*2E
$GNGGA,180010.00,,,,,0,00,99.99,,,,,,*70
$GNGSA,A,1,,,,,,,,,,,,,99.99,99.99,99.99*2E
$GNGSA,A,1,,,,,,,,,,,,,99.99,99.99,99.99*2E
$GPGSV,3,1,10,03,,,48,05,,,48,07,,,49,08,,,49*73
$GPGSV,3,2,10,09,,,50,16,,,48,23,,,49,27,,,49*7A
$GPGSV,3,3,10,28,,,48,30,,,49*70
$GLGSV,1,1,00*65
$GNGLL,,,,,180010.00,V,N*5C
$GNRMC,180011.00,V,,,,,,,,,,N*6A
$GNVTG,,,,,,,,,N*2E
$GNGGA,180011.00,,,,,0,00,99.99,,,,,,*71
$GNGSA,A,1,,,,,,,,,,,,,99.99,99.99,99.99*2E
$GNGSA,A,1,,,,,,,,,,,,,99.99,99.99,99.99*2E
$GPGSV,3,1,10,03,,,48,05,,,48,07,,,49,08,,,49*73
$GPGSV,3,2,10,09,,,50,16,,,48,23,,,49,27,,,49*7A
$GPGSV,3,3,10,28,,,48,30,,,49*70
$GLGSV,1,1,00*65
$GNGLL,,,,,180011.00,V,N*5D
$GNRMC,180012.00,V,,,,,,,,,,N*69
$GNVTG,,,,,,,,,N*2E
$GNGGA,180012.00,,,,,0,00,99.99,,,,,,*72
$GNGSA,A,1,,,,,,,,,,,,,99.99,99.99,99.99*2E
$GNGSA,A,1,,,,,,,,,,,,,99.99,99.99,99.99*2E
$GPGSV,3,1,10,03,,,48,05,,,48,07,,,49,08,,,49*73
$GPGSV,3,2,10,09,,,50,16,,,48,23,,,49,27,,,49*7A
$GPGSV,3,3,10,28,,,48,30,,,49*70
$GLGSV,1,1,00*65
$GNGLL,,,,,180012.00,V,N*5E
$GNRMC,180013.00,V,,,,,,,,,,N*68
$GNVTG,,,,,,,,,N*2E
$GNGGA,180013.00,,,,,0,00,99.99,,,,,,*73
$GNGSA,A,1,,,,,,,,,,,,,99.99,99.99,99.99*2E
$GNGSA,A,1,,,,,,,,,,,,,99.99,99.99,99.99*2E
$GPGSV,3,1,10,03,,,48,05,,,48,07,,,49,08,,,49*73
$GPGSV,3,2,10,09,,,50,16,,,48,23,,,49,27,,,49*7A
$GPGSV,3,3,10,28,,,48,30,,,49*70
$GLGSV,1,1,00*65
$GNGLL,,,,,180013.00,V,N*5F
$GNRMC,180014.00,V,,,,,,,,,,N*6F
$GNVTG,,,,,,,,,N*2E
$GNGGA,180014.00,,,,,0,00,99.99,,,,,,*74
$GNGSA,A,1,,,,,,,,,,,,,99.99,99.99,99.99*2E
$GNGSA,A,1,,,,,,,,,,,,,99.99,99.99,99.99*2E
$GPGSV,3,1,10,03,,,48,05,,,48,07,,,49,08,,,49*73
$GPGSV,3,2,10,09,,,50,16,,,48,23,,,49,27,,,49*7A
$GPGSV,3,3,10,28,,,48,30,,,49*70
$GLGSV,1,1,00*65
$GNGLL,,,,,180014.00,V,N*58
$GNRMC,180015.00,V,,,,,,,240417,,,N*6A
$GNVTG,,,,,,,,,N*2E
$GNGGA,180015.00,,,,,0,00,99.99,,,,,,*75
$GNGSA,A,1,,,,,,,,,,,,,99.99,99.99,99.99*2E
$GNGSA,A,1,,,,,,,,,,,,,99.99,99.99,99.99*2E
$GPGSV,3,1,10,03,,,48,05,,,48,07,,,49,08,,,49*73
$GPGSV,3,2,10,09,,,50,16,,,48,23,,,49,27,,,49*7A
$GPGSV,3,3,10,28,,,48,30,,,49*70
$GLGSV,1,1,00*65
$GNGLL,,,,,180015.00,V,N*59
$GNRMC,180016.00,V,,,,,,,240417,,,N*69
$GNVTG,,,,,,,,,N*2E
$GNGGA,180016.00,,,,,0,00,99.99,,,,,,*76
$GNGSA,A,1,,,,,,,,,,,,,99.99,99.99,99.99*2E
$GNGSA,A,1,,,,,,,,,,,,,99.99,99.99,99.99*2E
$GPGSV,3,1,10,03,,,48,05,,,48,07,,,49,08,,,49*73
$GPGSV,3,2,10,09,,,50,16,,,48,23,,,49,27,,,49*7A
$GPGSV,3,3,10,28,,,48,30,,,49*70
$GLGSV,1,1,00*65
$GNGLL,,,,,180016.00,V,N*5A
$GNRMC,180017.00,V,,,,,,,240417,,,N*68
$GNVTG,,,,,,,,,N*2E
$GNGGA,180017.00,,,,,0,00,99.99,,,,,,*77
$GNGSA,A,1,,,,,,,,,,,,,99.99,99.99,99.99*2E
$GNGSA,A,1,,,,,,,,,,,,,99.99,99.99,99.99*2E
$GPGSV,3,1,10,03,,,48,05,,,48,07,,,49,08,,,49*73
$GPGSV,3,2,10,09,,,50,16,,,48,23,,,49,27,,,49*7A
$GPGSV,3,3,10,28,,,48,30,,,49*70
$GLGSV,1,1,00*65
$GNGLL,,,,,180017.00,V,N*5B
$GNRMC,180018.00,V,,,,,,,240417,,,N*67
$GNVTG,,,,,,,,,N*2E
$GNGGA,180018.00,,,,,0,00,99.99,,,,,,*78
$GNGSA,A,1,,,,,,,,,,,,,99.99,99.99,99.99*2E
$GNGSA,A,1,,,,,,,,,,,,,99.99,99.99,99.99*2E
$GPGSV,3,1,10,03,,,48,05,,,48,07,,,49,08,,,49*73
$GPGSV,3,2,10,09,,,50,16,,,48,23,,,49,27,,,49*7A
$GPGSV,3,3,10,28,,,48,30,,,49*70
$GLGSV,1,1,00*65
$GNGLL,,,,,180018.00,V,N*54
$GNRMC,180019.00,V,,,,,,,240417,,,N*66
$GNVTG,,,,,,,,,N*2E
$GNGGA,180019.00,,,,,0,00,99.99,,,,,,*79
$GNGSA,A,1,,,,,,,,,,,,,99.99,99.99,99.99*2E
$GNGSA,A,1,,,,,,,,,,,,,99.99,99.99,99.99*2E
$GPGSV,3,1,10,03,,,48,05,,,48,07,,,49,08,,,49*73
$GPGSV,3,2,10,09,,,50,16,,,48,23,,,49,27,,,49*7A
$GPGSV,3,3,10,28,,,48,30,,,49*70
$GLGSV,1,1,00*65
$GNGLL,,,,,180019.00,V,N*55
$GNRMC,180020.00,V,,,,,,,240417,,,N*6C
$GNVTG,,,,,,,,,N*2E
$GNGGA,180020.00,,,,,0,00,99.99,,,,,,*73
$GNGSA,A,1,,,,,,,,,,,,,99.99,99.99,99.99*2E
$GNGSA,A,1,,,,,,,,,,,,,99.99,99.99,99.99*2E
$GPGSV,3,1,10,03,,,48,05,,,48,07,,,49,08,,,48*72
$GPGSV,3,2,10,09,,,50,16,,,48,23,,,49,27,,,49*7A
$GPGSV,3,3,10,28,,,48,30,,,49*70
$GLGSV,1,1,00*65
$GNGLL,,,,,180020.00,V,N*5F
$GNRMC,180021.00,V,,,,,,,240417,,,N*6D
$GNVTG,,,,,,,,,N*2E
$GNGGA,180021.00,,,,,0,00,99.99,,,,,,*72
$GNGSA,A,1,,,,,,,,,,,,,99.99,99.99,99.99*2E
$GNGSA,A,1,,,,,,,,,,,,,99.99,99.99,99.99*2E
$GPGSV,3,1,10,03,,,48,05,,,48,07,,,49,08,,,48*72
$GPGSV,3,2,10,09,,,50,16,,,48,23,,,49,27,,,49*7A
$GPGSV,3,3,10,28,,,48,30,,,49*70
$GLGSV,1,1,00*65
$GNGLL,,,,,180021.00,V,N*5E
$GNRMC,180022.00,V,,,,,,,240417,,,N*6E
$GNVTG,,,,,,,,,N*2E
$GNGGA,180022.00,,,,,0,00,99.99,,,,,,*71
$GNGSA,A,1,,,,,,,,,,,,,99.99,99.99,99.99*2E
$GNGSA,A,1,,,,,,,,,,,,,99.99,99.99,99.99*2E
$GPGSV,3,1,10,03,,,48,05,,,48,07,,,50,08,,,48*7A
$GPGSV,3,2,10,09,,,50,16,,,48,23,,,49,27,,,49*7A
$GPGSV,3,3,10,28,,,48,30,,,49*70
$GLGSV,1,1,00*65
$GNGLL,,,,,180022.00,V,N*5D
$GNRMC,180023.00,V,,,,,,,240417,,,N*6F
$GNVTG,,,,,,,,,N*2E
$GNGGA,180023.00,,,,,0,00,99.99,,,,,,*70
$GNGSA,A,1,,,,,,,,,,,,,99.99,99.99,99.99*2E
$GNGSA,A,1,,,,,,,,,,,,,99.99,99.99,99.99*2E
$GPGSV,3,1,10,03,,,48,05,,,48,07,,,49,08,,,49*73
$GPGSV,3,2,10,09,,,50,16,,,48,23,,,49,27,,,49*7A
$GPGSV,3,3,10,28,,,48,30,,,49*70
$GLGSV,1,1,00*65
$GNGLL,,,,,180023.00,V,N*5C
$GNRMC,180024.00,V,,,,,,,240417,,,N*68
$GNVTG,,,,,,,,,N*2E
$GNGGA,180024.00,,,,,0,00,99.99,,,,,,*77
$GNGSA,A,1,,,,,,,,,,,,,99.99,99.99,99.99*2E
$GNGSA,A,1,,,,,,,,,,,,,99.99,99.99,99.99*2E
$GPGSV,3,1,10,03,,,48,05,,,48,07,,,49,08,,,49*73
$GPGSV,3,2,10,09,,,50,16,,,48,23,,,49,27,,,49*7A
$GPGSV,3,3,10,28,,,48,30,,,49*70
$GLGSV,1,1,00*65
$GNGLL,,,,,180024.00,V,N*5B
$GNRMC,180024.51,V,,,,,,,240417,,,N*6C
$GNVTG,,,,,,,,,N*2E
$GNGGA,180024.51,,,,,0,03,6.10,,,,,,*47
$GNGSA,A,1,03,08,23,,,,,,,,,,6.18,6.10,1.00*1D
$GNGSA,A,1,,,,,,,,,,,,,6.18,6.10,1.00*17
$GPGSV,3,1,10,03,06,173,48,05,,,48,07,,,49,08,26,117,49*73
$GPGSV,3,2,10,09,,,50,16,,,48,23,51,121,49,27,,,49*4C
$GPGSV,3,3,10,28,,,48,30,,,49*70
$GLGSV,1,1,00*65
$GNGLL,,,,,180024.51,V,N*5F
$GNRMC,180025.00,V,,,,,,,240417,,,N*69
$GNVTG,,,,,,,,,N*2E
$GNGGA,180025.00,,,,,0,03,6.10,,,,,,*42
$GNGSA,A,1,03,08,23,,,,,,,,,,6.18,6.10,1.00*1D
$GNGSA,A,1,,,,,,,,,,,,,6.18,6.10,1.00*17
$GPGSV,3,1,10,03,06,173,48,05,,,48,07,,,49,08,26,117,49*73
$GPGSV,3,2,10,09,,,50,16,,,48,23,51,121,49,27,,,48*4D
$GPGSV,3,3,10,28,,,48,30,,,49*70
$GLGSV,1,1,00*65
$GNGLL,,,,,180025.00,V,N*5A
$GNRMC,180026.00,A,3725.61515,N,12210.39717,W,0.021,,240417,,,A*78
$GNVTG,,T,,M,0.021,N,0.039,K,A*34
$GNGGA,180026.00,3725.61515,N,12210.39717,W,1,07,0.95,29.6,M,-30.0,M,,*4B
$GNGSA,A,3,03,08,23,30,16,05,07,,,,,,1.68,0.95,1.38*19
$GNGSA,A,3,,,,,,,,,,,,,1.68,0.95,1.38*15
$GPGSV,3,1,10,03,06,173,48,05,09,322,48,07,64,313,49,08,26,117,49*7A
$GPGSV,3,2,10,09,,,50,16,20,041,48,23,51,121,49,27,,,49*7B
$GPGSV,3,3,10,28,,,48,30,32,273,49*47
$GLGSV,1,1,00*65
$GNGLL,3725.61515,N,12210.39717,W,180026.00,A,A*66
$GNRMC,180027.00,A,3725.61584,N,12210.39671,W,0.026,,240417,,,A*77
$GNVTG,,T,,M,0.026,N,0.048,K,A*35
$GNGGA,180027.00,3725.61584,N,12210.39671,W,1,09,0.78,29.8,M,-30.0,M,,*40
$GNGSA,A,3,03,08,23,30,16,05,07,27,28,,,,1.56,0.78,1.35*15
$GNGSA,A,3,,,,,,,,,,,,,1.56,0.78,1.35*16
$GPGSV,3,1,10,03,06,173,48,05,09,322,48,07,64,313,49,08,26,117,49*7A
$GPGSV,3,2,10,09,,,50,16,20,041,48,23,51,121,49,27,24,077,49*4D
$GPGSV,3,3,10,28,15,209,48,30,32,273,49*78
$GLGSV,1,1,00*65
$GNGLL,3725.61584,N,12210.39671,W,180027.00,A,A*6E
$GNRMC,180028.00,A,3725.61597,N,12210.39665,W,0.008,,240417,,,A*73
$GNVTG,,T,,M,0.008,N,0.014,K,A*30
$GNGGA,180028.00,3725.61597,N,12210.39665,W,1,09,0.78,30.1,M,-30.0,M,,*49
$GNGSA,A,3,03,08,23,30,16,05,07,27,28,,,,1.56,0.78,1.35*15
$GNGSA,A,3,,,,,,,,,,,,,1.56,0.78,1.35*16
$GPGSV,3,1,10,03,06,173,48,05,09,322,48,07,64,313,49,08,26,117,49*7A
$GPGSV,3,2,10,09,,,50,16,20,041,48,23,51,121,49,27,24,077,48*4C
$GPGSV,3,3,10,28,15,209,48,30,32,273,49*78
$GLGSV,1,1,00*65
$GNGLL,3725.61597,N,12210.39665,W,180028.00,A,A*66
$GNRMC,180029.00,A,3725.61601,N,12210.39658,W,0.005,,240417,,,A*7D
$GNVTG,,T,,M,0.005,N,0.009,K,A*31
$GNGGA,180029.00,3725.61601,N,12210.39658,W,1,09,0.78,30.2,M,-30.0,M,,*49
$GNGSA,A,3,03,08,23,30,16,05,07,27,28,,,,1.56,0.78,1.35*15
$GNGSA,A,3,,,,,,,,,,,,,1.56,0.78,1.35*16
$GPGSV,3,1,10,03,06,173,48,05,09,322,48,07,64,313,49,08,26,117,49*7A
$GPGSV,3,2,10,09,,,50,16,20,041,48,23,51,121,49,27,24,077,49*4D
$GPGSV,3,3,10,28,15,209,48,30,32,273,49*78
$GLGSV,1,1,00*65
$GNGLL,3725.61601,N,12210.39658,W,180029.00,A,A*65
$GNRMC,180030.00,A,3725.61603,N,12210.39656,W,0.009,,240417,,,A*75
$GNVTG,,T,,M,0.009,N,0.016,K,A*33
$GNGGA,180030.00,3725.61603,N,12210.39656,W,1,09,0.78,30.3,M,-30.0,M,,*4C
$GNGSA,A,3,03,08,23,30,16,05,07,27,28,,,,1.56,0.78,1.35*15
$GNGSA,A,3,,,,,,,,,,,,,1.56,0.78,1.35*16
$GPGSV,3,1,10,03,06,173,48,05,09,322,48,07,64,313,49,08,26,117,48*7B
$GPGSV,3,2,10,09,,,50,16,20,041,48,23,51,121,49,27,24,077,49*4D
$GPGSV,3,3,10,28,15,209,48,30,32,273,49*78
$GLGSV,1,1,00*65
$GNGLL,3725.61603,N,12210.39656,W,180030.00,A,A*61
$GNRMC,180031.00,A,3725.61603,N,12210.39652,W,0.010,,240417,,,A*78
$GNVTG,,T,,M,0.010,N,0.018,K,A*35
$GNGGA,180031.00,3725.61603,N,12210.39652,W,1,10,0.78,30.9,M,-30.0,M,,*4B
$GNGSA,A,3,03,08,23,30,16,05,07,27,28,09,,,1.35,0.78,1.10*1E
$GNGSA,A,3,,,,,,,,,,,,,1.35,0.78,1.10*14
$GPGSV,3,1,10,03,06,173,48,05,09,322,48,07,64,313,49,08,26,117,49*7A
$GPGSV,3,2,10,09,84,041,50,16,20,041,48,23,51,121,49,27,24,077,49*74
$GPGSV,3,3,10,28,15,209,48,30,32,273,49*78
$GLGSV,1,1,00*65
$GNGLL,3725.61603,N,12210.39652,W,180031.00,A,A*64
$GNRMC,180032.00,A,3725.61603,N,12210.39652,W,0.004,,240417,,,A*7E
$GNVTG,,T,,M,0.004,N,0.007,K,A*3E
$GNGGA,180032.00,3725.61603,N,12210.39652,W,1,10,0.78,31.3,M,-30.0,M,,*43
$GNGSA,A,3,03,08,23,30,16,05,07,27,28,09,,,1.35,0.78,1.10*1E
$GNGSA,A,3,,,,,,,,,,,,,1.35,0.78,1.10*14
$GPGSV,3,1,10,03,06,173,48,05,09,322,48,07,64,313,49,08,26,117,49*7A
$GPGSV,3,2,10,09,84,041,50,16,20,041,48,23,51,121,49,27,24,077,49*74
$GPGSV,3,3,10,28,15,209,48,30,32,273,49*78
$GLGSV,1,1,00*65
$GNGLL,3725.61603,N,12210.39652,W,180032.00,A,A*67
$GNRMC,180033.00,A,3725.61602,N,12210.39651,W,0.004,,240417,,,A*7D
$GNVTG,,T,,M,0.004,N,0.008,K,A*31
$GNGGA,180033.00,3725.61602,N,12210.39651,W,1,10,0.78,31.5,M,-30.0,M,,*46
$GNGSA,A,3,03,08,23,30,16,05,07,27,28,09,,,1.35,0.78,1.10*1E
$GNGSA,A,3,,,,,,,,,,,,,1.35,0.78,1.10*14
$GPGSV,3,1,10,03,06,173,48,05,09,322,48,07,64,313,49,08,26,117,49*7A
$GPGSV,3,2,10,09,84,041,50,16,20,041,48,23,51,121,49,27,24,077,48*75
$GPGSV,3,3,10,28,15,209,48,30,32,273,49*78
$GLGSV,1,1,00*65
$GNGLL,3725.61602,N,12210.39651,W,180033.00,A,A*64
$GNRMC,180034.00,A,3725.61602,N,12210.39651,W,0.007,,240417,,,A*79
$GNVTG,,T,,M,0.007,N,0.014,K,A*3F
$GNGGA,180034.00,3725.61602,N,12210.39651,W,1,10,0.78,31.7,M,-30.0,M,,*43
$GNGSA,A,3,03,08,23,30,16,05,07,27,28,09,,,1.35,0.78,1.10*1E
$GNGSA,A,3,,,,,,,,,,,,,1.35,0.78,1.10*14
$GPGSV,3,1,10,03,06,173,48,05,09,322,48,07,64,313,49,08,26,117,49*7A
$GPGSV,3,2,10,09,84,041,50,16,20,041,48,23,51,121,49,27,24,077,48*75
$GPGSV,3,3,10,28,15,209,48,30,32,273,49*78
$GLGSV,1,1,00*65
$GNGLL,3725.61602,N,12210.39651,W,180034.00,A,A*63
$GNRMC,180035.00,A,3725.61601,N,12210.39652,W,0.001,,240417,,,A*7E
$GNVTG,,T,,M,0.001,N,0.002,K,A*3E
$GNGGA,180035.00,3725.61601,N,12210.39652,W,1,10,0.78,31.8,M,-30.0,M,,*4D
$GNGSA,A,3,03,08,23,30,16,05,07,27,28,09,,,1.35,0.78,1.10*1E
$GNGSA,A,3,,,,,,,,,,,,,1.35,0.78,1.10*14
$GPGSV,3,1,10,03,06,173,48,05,09,322,48,07,64,313,49,08,26,117,49*7A
$GPGSV,3,2,10,09,84,041,50,16,20,041,48,23,51,121,49,27,24,077,48*75
$GPGSV,3,3,10,28,15,209,48,30,32,273,49*78
$GLGSV,1,1,00*65
$GNGLL,3725.61601,N,12210.39652,W,180035.00,A,A*62
$GNRMC,180036.00,A,3725.61601,N,12210.39652,W,0.003,,240417,,,A*7F
$GNVTG,,T,,M,0.003,N,0.005,K,A*3B
$GNGGA,180036.00,3725.61601,N,12210.39652,W,1,10,0.78,31.9,M,-30.0,M,,*4F
$GNGSA,A,3,03,08,23,30,16,05,07,27,28,09,,,1.35,0.78,1.10*1E
$GNGSA,A,3,,,,,,,,,,,,,1.35,0.78,1.10*14
$GPGSV,3,1,10,03,06,173,48,05,09,322,48,07,64,313,49,08,26,117,49*7A
$GPGSV,3,2,10,09,84,041,50,16,20,041,48,23,51,121,49,27,24,077,48*75
$GPGSV,3,3,10,28,15,209,48,30,32,273,49*78
$GLGSV,1,1,00*65
$GNGLL,3725.61601,N,12210.39652,W,180036.00,A,A*61
$GNRMC,180037.00,A,3725.61601,N,12210.39651,W,0.003,,240417,,,A*7D
$GNVTG,,T,,M,0.003,N,0.006,K,A*38
$GNGGA,180037.00,3725.61601,N,12210.39651,W,1,10,0.78,32.0,M,-30.0,M,,*47
$GNGSA,A,3,03,08,23,30,16,05,07,27,28,09,,,1.35,0.78,1.10*1E
$GNGSA,A,3,,,,,,,,,,,,,1.35,0.78,1.10*14
$GPGSV,3,1,10,03,06,173,48,05,09,322,48,07,64,313,49,08,26,117,48*7B
$GPGSV,3,2,10,09,84,041,50,16,20,041,48,23,51,121,49,27,24,077,48*75
$GPGSV,3,3,10,28,15,209,48,30,32,273,49*78
$GLGSV,1,1,00*65
$GNGLL,3725.61601,N,12210.39651,W,180037.00,A,A*63
$GNRMC,180038.00,A,3725.61602,N,12210.39650,W,0.002,,240417,,,A*71
$GNVTG,,T,,M,0.002,N,0.003,K,A*3C
$GNGGA,180038.00,3725.61602,N,12210.39650,W,1,10,0.78,32.1,M,-30.0,M,,*4B
$GNGSA,A,3,03,08,23,30,16,05,07,27,28,09,,,1.35,0.78,1.10*1E
$GNGSA,A,3,,,,,,,,,,,,,1.35,0.78,1.10*14
$GPGSV,3,1,10,03,06,173,48,05,09,322,48,07,64,313,49,08,26,117,48*7B
$GPGSV,3,2,10,09,84,041,50,16,20,041,48,23,51,121,49,27,24,077,48*75
$GPGSV,3,3,10,28,15,209,48,30,32,273,49*78
$GLGSV,1,1,00*65
$GNGLL,3725.61602,N,12210.39650,W,180038.00,A,A*6E
$GNRMC,180039.00,A,3725.61602,N,12210.39651,W,0.005,,240417,,,A*76
$GNVTG,,T,,M,0.005,N,0.008,K,A*30
$GNGGA,180039.00,3725.61602,N,12210.39651,W,1,10,0.78,32.2,M,-30.0,M,,*48
$GNGSA,A,3,03,08,23,30,16,05,07,27,28,09,,,1.35,0.78,1.10*1E
$GNGSA,A,3,,,,,,,,,,,,,1.35,0.78,1.10*14
$GPGSV,3,1,10,03,06,173,48,05,09,322,48,07,64,313,49,08,26,117,48*7B
$GPGSV,3,2,10,09,84,041,50,16,20,041,48,23,51,121,49,27,24,077,48*75
$GPGSV,3,3,10,28,15,209,48,30,32,273,49*78
$GLGSV,1,1,00*65
$GNGLL,3725.61602,N,12210.39651,W,180039.00,A,A*6E
$GNRMC,180040.00,A,3725.61601,N,12210.39650,W,0.001,,240417,,,A*7E
$GNVTG,,T,,M,0.001,N,0.001,K,A*3D
$GNGGA,180040.00,3725.61601,N,12210.39650,W,1,10,0.78,32.3,M,-30.0,M,,*45
$GNGSA,A,3,03,08,23,30,16,05,07,27,28,09,,,1.35,0.78,1.10*1E
$GNGSA,A,3,,,,,,,,,,,,,1.35,0.78,1.10*14
$GPGSV,3,1,10,03,06,173,48,05,09,322,48,07,64,313,49,08,26,117,48*7B
$GPGSV,3,2,10,09,84,041,50,16,20,041,48,23,51,121,49,27,24,077,48*75
$GPGSV,3,3,10,28,15,209,48,30,32,273,49*78
$GLGSV,1,1,00*65
$GNGLL,3725.61601,N,12210.39650,W,180040.00,A,A*62
$GNRMC,180041.00,A,3725.61601,N,12210.39650,W,0.004,,240417,,,A*7A
$GNVTG,,T,,M,0.004,N,0.007,K,A*3E
$GNGGA,180041.00,3725.61601,N,12210.39650,W,1,10,0.78,32.3,M,-30.0,M,,*44
$GNGSA,A,3,03,08,23,30,16,05,07,27,28,09,,,1.35,0.78,1.10*1E
$GNGSA,A,3,,,,,,,,,,,,,1.35,0.78,1.10*14
$GPGSV,3,1,10,03,06,173,48,05,09,322,48,07,64,313,49,08,26,117,48*7B
$GPGSV,3,2,10,09,84,041,50,16,20,041,48,23,51,121,49,27,24,077,48*75
$GPGSV,3,3,10,28,15,209,48,30,32,273,49*78
$GLGSV,1,1,00*65
$GNGLL,3725.61601,N,12210.39650,W,180041.00,A,A*63
$GNRMC,180042.00,A,3725.61601,N,12210.39650,W,0.002,,240417,,,A*7F
$GNVTG,,T,,M,0.002,N,0.004,K,A*3B
$GNGGA,180042.00,3725.61601,N,12210.39650,W,1,10,0.78,32.4,M,-30.0,M,,*40
$GNGSA,A,3,03,08,23,30,16,05,07,27,28,09,,,1.35,0.78,1.10*1E
$GNGSA,A,3,,,,,,,,,,,,,1.35,0.78,1.10*14
$GPGSV,3,1,10,03,06,173,48,05,09,322,48,07,64,313,49,08,26,117,48*7B
$GPGSV,3,2,10,09,84,041,50,16,20,041,48,23,51,121,49,27,24,077,49*74
$GPGSV,3,3,10,28,15,209,48,30,32,273,49*78
$GLGSV,1,1,00*65
$GNGLL,3725.61601,N,12210.39650,W,180042.00,A,A*60
$GNRMC,180043.00,A,3725.61602,N,12210.39650,W,0.006,,240417,,,A*79
$GNVTG,,T,,M,0.006,N,0.011,K,A*3B
$GNGGA,180043.00,3725.61602,N,12210.39650,W,1,10,0.78,32.4,M,-30.0,M,,*42
$GNGSA,A,3,03,08,23,30,16,05,07,27,28,09,,,1.35,0.78,1.10*1E
$GNGSA,A,3,,,,,,,,,,,,,1.35,0.78,1.10*14
$GPGSV,3,1,10,03,06,173,48,05,09,322,48,07,64,313,49,08,26,117,48*7B
$GPGSV,3,2,10,09,84,041,50,16,20,041,48,23,51,121,49,27,24,077,48*75
$GPGSV,3,3,10,28,15,209,48,30,32,273,49*78
$GLGSV,1,1,00*65
$GNGLL,3725.61602,N,12210.39650,W,180043.00,A,A*62
$GNRMC,180044.00,A,3725.61602,N,12210.39650,W,0.002,,240417,,,A*7A
$GNVTG,,T,,M,0.002,N,0.004,K,A*3B
$GNGGA,180044.00,3725.61602,N,12210.39650,W,1,10,0.78,32.4,M,-30.0,M,,*45
$GNGSA,A,3,03,08,23,30,16,05,07,27,28,09,,,1.35,0.78,1.10*1E
$GNGSA,A,3,,,,,,,,,,,,,1.35,0.78,1.10*14
$GPGSV,3,1,10,03,06,173,48,05,09,322,48,07,64,313,49,08,26,117,48*7B
$GPGSV,3,2,10,09,84,041,50,16,20,041,48,23,51,121,49,27,24,077,48*75
$GPGSV,3,3,10,28,15,209,48,30,32,273,49*78
$GLGSV,1,1,00*65
$GNGLL,3725.61602,N,12210.39650,W,180044.00,A,A*65
$GNRMC,180045.00,A,3725.61602,N,12210.39650,W,0.008,,240417,,,A*71
$GNVTG,,T,,M,0.008,N,0.015,K,A*31
$GNGGA,180045.00,3725.61602,N,12210.39650,W,1,10,0.78,32.5,M,-30.0,M,,*45
$GNGSA,A,3,03,08,23,30,16,05,07,27,28,09,,,1.35,0.78,1.10*1E
$GNGSA,A,3,,,,,,,,,,,,,1.35,0.78,1.10*14
$GPGSV,3,1,10,03,06,173,48,05,09,322,48,07,64,313,49,08,26,117,48*7B
$GPGSV,3,2,10,09,84,041,50,16,20,041,48,23,51,121,49,27,24,077,48*75
$GPGSV,3,3,10,28,15,209,48,30,32,273,49*78
$GLGSV,1,1,00*65
$GNGLL,3725.61602,N,12210.39650,W,180045.00,A,A*64
$GNRMC,180046.00,A,3725.61602,N,12210.39650,W,0.003,,240417,,,A*79
$GNVTG,,T,,M,0.003,N,0.005,K,A*3B
$GNGGA,180046.00,3725.61602,N,12210.39650,W,1,10,0.78,32.5,M,-30.0,M,,*46
$GNGSA,A,3,03,08,23,30,16,05,07,27,28,09,,,1.35,0.78,1.10*1E
$GNGSA,A,3,,,,,,,,,,,,,1.35,0.78,1.10*14
$GPGSV,3,1,10,03,06,173,48,05,09,322,48,07,64,313,49,08,26,117,48*7B
$GPGSV,3,2,10,09,84,041,50,16,20,041,48,23,51,121,49,27,24,077,48*75
$GPGSV,3,3,10,28,15,209,48,30,32,273,49*78
$GLGSV,1,1,00*65
$GNGLL,3725.61602,N,12210.39650,W,180046.00,A,A*67
$GNRMC,180047.00,A,3725.61602,N,12210.39650,W,0.004,,240417,,,A*7F
$GNVTG,,T,,M,0.004,N,0.006,K,A*3F
$GNGGA,180047.00,3725.61602,N,12210.39650,W,1,10,0.78,32.5,M,-30.0,M,,*47
$GNGSA,A,3,03,08,23,30,16,05,07,27,28,09,,,1.35,0.78,1.10*1E
$GNGSA,A,3,,,,,,,,,,,,,1.35,0.78,1.10*14
$GPGSV,3,1,10,03,06,173,48,05,09,322,48,07,64,313,49,08,26,117,48*7B
$GPGSV,3,2,10,09,84,041,50,16,20,041,48,23,51,121,49,27,24,077,48*75
$GPGSV,3,3,10,28,15,209,48,30,32,273,49*78
$GLGSV,1,1,00*65
$GNGLL,3725.61602,N,12210.39650,W,180047.00,A,A*66
$GNRMC,180048.00,A,3725.61601,N,12210.39650,W,0.004,,240417,,,A*73
$GNVTG,,T,,M,0.004,N,0.007,K,A*3E
$GNGGA,180048.00,3725.61601,N,12210.39650,W,1,10,0.78,32.6,M,-30.0,M,,*48
$GNGSA,A,3,03,08,23,30,16,05,07,27,28,09,,,1.35,0.78,1.10*1E
$GNGSA,A,3,,,,,,,,,,,,,1.35,0.78,1.10*14
$GPGSV,3,1,10,03,06,173,48,05,09,322,48,07,64,313,49,08,26,117,48*7B
$GPGSV,3,2,10,09,84,041,50,16,20,041,48,23,51,121,49,27,24,077,48*75
$GPGSV,3,3,10,28,15,209,48,30,32,273,49*78
$GLGSV,1,1,00*65
$GNGLL,3725.61601,N,12210.39650,W,180048.00,A,A*6A
$GNRMC,180049.00,A,3725.61601,N,12210.39650,W,0.007,,240417,,,A*71
$GNVTG,,T,,M,0.007,N,0.014,K,A*3F
$GNGGA,180049.00,3725.61601,N,12210.39650,W,1,10,0.78,32.6,M,-30.0,M,,*49
$GNGSA,A,3,03,08,23,30,16,05,07,27,28,09,,,1.35,0.78,1.10*1E
$GNGSA,A,3,,,,,,,,,,,,,1.35,0.78,1.10*14
$GPGSV,3,1,10,03,06,173,48,05,09,322,48,07,64,313,49,08,26,117,48*7B
$GPGSV,3,2,10,09,84,041,50,16,20,041,48,23,51,121,49,27,24,077,48*75
$GPGSV,3,3,10,28,15,209,48,30,32,273,49*78
$GLGSV,1,1,00*65
$GNGLL,3725.61601,N,12210.39650,W,180049.00,A,A*6B
$GNRMC,180050.00,A,3725.61601,N,12210.39650,W,0.003,,240417,,,A*7D
$GNVTG,,T,,M,0.003,N,0.006,K,A*38
$GNGGA,180050.00,3725.61601,N,12210.39650,W,1,10,0.78,32.6,M,-30.0,M,,*41
$GNGSA,A,3,03,08,23,30,16,05,07,27,28,09,,,1.35,0.78,1.10*1E
$GNGSA,A,3,,,,,,,,,,,,,1.35,0.78,1.10*14
$GPGSV,3,1,10,03,06,173,48,05,09,322,48,07,64,313,49,08,26,117,48*7B
$GPGSV,3,2,10,09,84,041,50,16,20,041,48,23,51,121,49,27,24,077,48*75
$GPGSV,3,3,10,28,15,209,48,30,32,273,49*78
$GLGSV,1,1,00*65
$GNGLL,3725.61601,N,12210.39650,W,180050.00,A,A*63
$GNRMC,180051.00,A,3725.61600,N,12210.39650,W,0.002,,240417,,,A*7C
$GNVTG,,T,,M,0.002,N,0.005,K,A*3A
$GNGGA,180051.00,3725.61600,N,12210.39650,W,1,10,0.78,32.6,M,-30.0,M,,*41
$GNGSA,A,3,03,08,23,30,16,05,07,27,28,09,,,1.35,0.78,1.10*1E
$GNGSA,A,3,,,,,,,,,,,,,1.35,0.78,1.10*14
$GPGSV,3,1,10,03,06,173,48,05,09,322,48,07,64,313,49,08,26,117,48*7B
$GPGSV,3,2,10,09,84,041,50,16,20,041,48,23,51,121,49,27,24,077,48*75
$GPGSV,3,3,10,28,15,209,48,30,32,273,49*78
$GLGSV,1,1,00*65
$GNGLL,3725.61600,N,12210.39650,W,180051.00,A,A*63
$GNRMC,180052.00,A,3725.61600,N,12210.39650,W,0.002,,240417,,,A*7F
$GNVTG,,T,,M,0.002,N,0.003,K,A*3C
$GNGGA,180052.00,3725.61600,N,12210.39650,W,1,10,0.78,32.6,M,-30.0,M,,*42
$GNGSA,A,3,03,08,23,30,16,05,07,27,28,09,,,1.35,0.78,1.10*1E
$GNGSA,A,3,,,,,,,,,,,,,1.35,0.78,1.10*14
$GPGSV,3,1,10,03,06,173,48,05,09,322,48,07,64,313,49,08,26,117,48*7B
$GPGSV,3,2,10,09,84,041,50,16,20,041,48,23,51,121,49,27,24,077,48*75
$GPGSV,3,3,10,28,15,209,48,30,32,273,49*78
$GLGSV,1,1,00*65
$GNGLL,3725.61600,N,12210.39650,W,180052.00,A,A*60
$GNRMC,180053.00,A,3725.61600,N,12210.39650,W,0.007,,240417,,,A*7B
$GNVTG,,T,,M,0.007,N,0.012,K,A*39
$GNGGA,180053.00,3725.61600,N,12210.39650,W,1,10,0.78,32.6,M,-30.0,M,,*43
$GNGSA,A,3,03,08,23,30,16,05,07,27,28,09,,,1.35,0.78,1.10*1E
$GNGSA,A,3,,,,,,,,,,,,,1.35,0.78,1.10*14
$GPGSV,3,1,10,03,06,173,48,05,09,322,48,07,64,313,49,08,26,117,48*7B
$GPGSV,3,2,10,09,84,041,50,16,20,041,48,23,51,121,49,27,24,077,48*75
$GPGSV,3,3,10,28,15,209,48,30,32,273,49*78
$GLGSV,1,1,00*65
$GNGLL,3725.61600,N,12210.39650,W,180053.00,A,A*61
$GNRMC,180054.00,A,3725.61601,N,12210.39651,W,0.006,,240417,,,A*7D
$GNVTG,,T,,M,0.006,N,0.011,K,A*3B
$GNGGA,180054.00,3725.61601,N,12210.39651,W,1,10,0.78,32.7,M,-30.0,M,,*45
$GNGSA,A,3,03,08,23,30,16,05,07,27,28,09,,,1.35,0.78,1.10*1E
$GNGSA,A,3,,,,,,,,,,,,,1.35,0.78,1.10*14
$GPGSV,3,1,10,03,06,173,48,05,09,322,48,07,64,314,49,08,26,117,48*7C
$GPGSV,3,2,10,09,84,041,50,16,20,041,48,23,51,121,49,27,24,077,48*75
$GPGSV,3,3,10,28,15,209,48,30,32,273,49*78
$GLGSV,1,1,00*65
$GNGLL,3725.61601,N,12210.39651,W,180054.00,A,A*66
$GNRMC,180055.00,A,3725.61600,N,12210.39650,W,0.004,,240417,,,A*7E
$GNVTG,,T,,M,0.004,N,0.007,K,A*3E
$GNGGA,180055.00,3725.61600,N,12210.39650,W,1,10,0.78,32.7,M,-30.0,M,,*44
$GNGSA,A,3,03,08,23,30,16,05,07,27,28,09,,,1.35,0.78,1.10*1E
$GNGSA,A,3,,,,,,,,,,,,,1.35,0.78,1.10*14
$GPGSV,3,1,10,03,06,173,48,05,09,322,48,07,64,314,49,08,26,117,48*7C
$GPGSV,3,2,10,09,84,041,50,16,20,041,48,23,51,121,49,27,24,077,48*75
$GPGSV,3,3,10,28,15,209,48,30,32,273,49*78
$GLGSV,1,1,00*65
$GNGLL,3725.61600,N,12210.39650,W,180055.00,A,A*67
$GNRMC,180056.00,A,3725.61600,N,12210.39650,W,0.005,,240417,,,A*7C
$GNVTG,,T,,M,0.005,N,0.009,K,A*31
$GNGGA,180056.00,3725.61600,N,12210.39650,W,1,10,0.78,32.7,M,-30.0,M,,*47
$GNGSA,A,3,03,08,23,30,16,05,07,27,28,09,,,1.35,0.78,1.10*1E
$GNGSA,A,3,,,,,,,,,,,,,1.35,0.78,1.10*14
$GPGSV,3,1,10,03,06,173,48,05,09,322,48,07,64,314,49,08,26,117,48*7C
$GPGSV,3,2,10,09,84,043,50,16,20,041,48,23,51,121,49,27,24,077,48*77
$GPGSV,3,3,10,28,15,209,48,30,32,273,49*78
$GLGSV,1,1,00*65
$GNGLL,3725.61600,N,12210.39650,W,180056.00,A,A*64
$GNRMC,180057.00,A,3725.61599,N,12210.39650,W,0.002,,240417,,,A*79
$GNVTG,,T,,M,0.002,N,0.003,K,A*3C
$GNGGA,180057.00,3725.61599,N,12210.39650,W,1,10,0.78,32.7,M,-30.0,M,,*45
$GNGSA,A,3,03,08,23,30,16,05,07,27,28,09,,,1.35,0.78,1.10*1E
$GNGSA,A,3,,,,,,,,,,,,,1.35,0.78,1.10*14
$GPGSV,3,1,10,03,06,173,48,05,09,322,48,07,64,314,49,08,26,117,48*7C
$GPGSV,3,2,10,09,84,043,50,16,20,041,48,23,51,121,49,27,24,077,48*77
$GPGSV,3,3,10,28,15,209,48,30,32,273,49*78
$GLGSV,1,1,00*65
$GNGLL,3725.61599,N,12210.39650,W,180057.00,A,A*66
$GNRMC,180058.00,A,3725.61599,N,12210.39651,W,0.004,,240417,,,A*71
$GNVTG,,T,,M,0.004,N,0.007,K,A*3E
$GNGGA,180058.00,3725.61599,N,12210.39651,W,1,10,0.78,32.7,M,-30.0,M,,*4B
$GNGSA,A,3,03,08,23,30,16,05,07,27,28,09,,,1.35,0.78,1.10*1E
$GNGSA,A,3,,,,,,,,,,,,,1.35,0.78,1.10*14
$GPGSV,3,1,10,03,06,173,48,05,09,322,48,07,64,314,49,08,26,117,48*7C
$GPGSV,3,2,10,09,84,043,50,16,20,041,48,23,51,121,49,27,24,077,48*77
$GPGSV,3,3,10,28,15,209,48,30,32,273,49*78
$GLGSV,1,1,00*65
$GNGLL,3725.61599,N,12210.39651,W,180058.00,A,A*68
$GNRMC,180059.00,A,3725.61599,N,12210.39651,W,0.007,,240417,,,A*73
$GNVTG,,T,,M,0.007,N,0.012,K,A*39
$GNGGA,180059.00,3725.61599,N,12210.39651,W,1,10,0.78,32.7,M,-30.0,M,,*4A
$GNGSA,A,3,03,08,23,30,16,05,07,27,28,09,,,1.35,0.78,1.10*1E
$GNGSA,A,3,,,,,,,,,,,,,1.35,0.78,1.10*14
$GPGSV,3,1,10,03,06,173,48,05,09,322,48,07,64,314,49,08,26,117,48*7C
$GPGSV,3,2,10,09,84,043,50,16,20,041,48,23,51,121,49,27,24,077,48*77
$GPGSV,3,3,10,28,15,209,48,30,32,273,49*78
$GLGSV,1,1,00*65
$GNGLL,3725.61599,N,12210.39651,W,180059.00,A,A*69
$GNRMC,180100.00,A,3725.61599,N,12210.39652,W,0.004,,240417,,,A*7E
$GNVTG,,T,,M,0.004,N,0.007,K,A*3E
$GNGGA,180100.00,3725.61599,N,12210.39652,W,1,10,0.78,32.7,M,-30.0,M,,*44
$GNGSA,A,3,03,08,23,30,16,05,07,27,28,09,,,1.35,0.78,1.10*1E
$GNGSA,A,3,,,,,,,,,,,,,1.35,0.78,1.10*14
$GPGSV,3,1,10,03,06,173,48,05,09,322,48,07,64,314,49,08,26,117,48*7C
$GPGSV,3,2,10,09,84,043,50,16,20,041,48,23,51,121,49,27,24,077,48*77
$GPGSV,3,3,10,28,15,209,48,30,32,273,49*78
$GLGSV,1,1,00*65
$GNGLL,3725.61599,N,12210.39652,W,180100.00,A,A*67
$GNRMC,180101.00,A,3725.61598,N,12210.39651,W,0.002,,240417,,,A*7B
$GNVTG,,T,,M,0.002,N,0.004,K,A*3B
$GNGGA,180101.00,3725.61598,N,12210.39651,W,1,10,0.78,32.7,M,-30.0,M,,*47
$GNGSA,A,3,03,08,23,30,16,05,07,27,28,09,,,1.35,0.78,1.10*1E
$GNGSA,A,3,,,,,,,,,,,,,1.35,0.78,1.10*14
$GPGSV,3,1,10,03,06,173,48,05,09,322,48,07,64,314,49,08,26,117,48*7C
$GPGSV,3,2,10,09,84,043,50,16,20,041,48,23,51,121,49,27,24,077,48*77
$GPGSV,3,3,10,28,15,209,48,30,32,273,49*78
$GLGSV,1,1,00*65
$GNGLL,3725.61598,N,12210.39651,W,180101.00,A,A*64
$GNRMC,180102.00,A,3725.61598,N,12210.39651,W,0.004,,240417,,,A*7E
$GNVTG,,T,,M,0.004,N,0.007,K,A*3E
$GNGGA,180102.00,3725.61598,N,12210.39651,W,1,10,0.78,32.7,M,-30.0,M,,*44
$GNGSA,A,3,03,08,23,30,16,05,07,27,28,09,,,1.35,0.78,1.10*1E
$GNGSA,A,3,,,,,,,,,,,,,1.35,0.78,1.10*14
$GPGSV,3,1,10,03,06,173,48,05,09,322,48,07,64,314,49,08,26,117,48*7C
$GPGSV,3,2,10,09,84,043,50,16,20,041,48,23,51,121,49,27,24,077,48*77
$GPGSV,3,3,10,28,15,209,48,30,32,273,49*78
$GLGSV,1,1,00*65
$GNGLL,3725.61598,N,12210.39651,W,180102.00,A,A*67
$GNRMC,180103.00,A,3725.61598,N,12210.39651,W,0.003,,240417,,,A*78
$GNVTG,,T,,M,0.003,N,0.005,K,A*3B
$GNGGA,180103.00,3725.61598,N,12210.39651,W,1,10,0.78,32.8,M,-30.0,M,,*4A
$GNGSA,A,3,03,08,23,30,16,05,07,27,28,09,,,1.35,0.78,1.10*1E
$GNGSA,A,3,,,,,,,,,,,,,1.35,0.78,1.10*14
$GPGSV,3,1,10,03,06,173,48,05,09,322,48,07,64,314,49,08,26,117,48*7C
$GPGSV,3,2,10,09,84,043,50,16,20,041,48,23,51,121,49,27,24,077,48*77
$GPGSV,3,3,10,28,15,209,48,30,32,273,49*78
$GLGSV,1,1,00*65
$GNGLL,3725.61598,N,12210.39651,W,180103.00,A,A*66
$GNRMC,180104.00,A,3725.61598,N,12210.39651,W,0.008,,240417,,,A*74
$GNVTG,,T,,M,0.008,N,0.014,K,A*30
$GNGGA,180104.00,3725.61598,N,12210.39651,W,1,10,0.78,32.8,M,-30.0,M,,*4D
$GNGSA,A,3,03,08,23,30,16,05,07,27,28,09,,,1.35,0.78,1.10*1E
$GNGSA,A,3,,,,,,,,,,,,,1.35,0.78,1.10*14
$GPGSV,3,1,10,03,06,173,48,05,09,322,48,07,64,314,49,08,26,117,48*7C
$GPGSV,3,2,10,09,84,043,50,16,20,041,48,23,51,121,49,27,24,077,48*77
$GPGSV,3,3,10,28,15,209,48,30,32,273,48*79
$GLGSV,1,1,00*65
$GNGLL,3725.61598,N,12210.39651,W,180104.00,A,A*61
$GNRMC,180105.00,A,3725.61599,N,12210.39651,W,0.003,,240417,,,A*7F
$GNVTG,,T,,M,0.003,N,0.006,K,A*38
$GNGGA,180105.00,3725.61599,N,12210.39651,W,1,10,0.78,32.8,M,-30.0,M,,*4D
$GNGSA,A,3,03,08,23,30,16,05,07,27,28,09,,,1.35,0.78,1.10*1E
$GNGSA,A,3,,,,,,,,,,,,,1.35,0.78,1.10*14
$GPGSV,3,1,10,03,06,173,48,05,09,322,48,07,64,314,49,08,26,117,48*7C
$GPGSV,3,2,10,09,84,043,50,16,20,041,48,23,51,121,49,27,24,077,48*77
$GPGSV,3,3,10,28,15,209,48,30,32,273,49*78
$GLGSV,1,1,00*65
$GNGLL,3725.61599,N,12210.39651,W,180105.00,A,A*61
$GNRMC,180106.00,A,3725.61598,N,12210.39651,W,0.006,,240417,,,A*78
$GNVTG,,T,,M,0.006,N,0.011,K,A*3B
$GNGGA,180106.00,3725.61598,N,12210.39651,W,1,10,0.78,32.8,M,-30.0,M,,*4F
$GNGSA,A,3,03,08,23,30,16,05,07,27,28,09,,,1.35,0.78,1.10*1E
$GNGSA,A,3,,,,,,,,,,,,,1.35,0.78,1.10*14
$GPGSV,3,1,10,03,06,173,48,05,09,322,48,07,64,314,49,08,26,117,48*7C
$GPGSV,3,2,10,09,84,043,50,16,20,041,48,23,51,121,49,27,24,077,48*77
$GPGSV,3,3,10,28,15,209,48,30,32,273,49*78
$GLGSV,1,1,00*65
$GNGLL,3725.61598,N,12210.39651,W,180106.00,A,A*63
$GNRMC,180107.00,A,3725.61598,N,12210.39651,W,0.002,,240417,,,A*7D
$GNVTG,,T,,M,0.002,N,0.005,K,A*3A
$GNGGA,180107.00,3725.61598,N,12210.39651,W,1,10,0.78,32.8,M,-30.0,M,,*4E
$GNGSA,A,3,03,08,23,30,16,05,07,27,28,09,,,1.35,0.78,1.10*1E
$GNGSA,A,3,,,,,,,,,,,,,1.35,0.78,1.10*14
$GPGSV,3,1,10,03,06,173,48,05,09,322,48,07,64,314,49,08,26,117,48*7C
$GPGSV,3,2,10,09,84,043,50,16,20,041,48,23,51,121,49,27,24,077,48*77
$GPGSV,3,3,10,28,15,209,48,30,32,273,49*78
$GLGSV,1,1,00*65
$GNGLL,3725.61598,N,12210.39651,W,180107.00,A,A*62
$GNRMC,180108.00,A,3725.61599,N,12210.39650,W,0.007,,240417,,,A*77
$GNVTG,,T,,M,0.007,N,0.013,K,A*38
$GNGGA,180108.00,3725.61599,N,12210.39650,W,1,10,0.78,32.8,M,-30.0,M,,*41
$GNGSA,A,3,03,08,23,30,16,05,07,27,28,09,,,1.35,0.78,1.10*1E
$GNGSA,A,3,,,,,,,,,,,,,1.35,0.78,1.10*14
$GPGSV,3,1,10,03,06,173,48,05,09,322,48,07,64,314,49,08,26,117,48*7C
$GPGSV,3,2,10,09,84,043,50,16,20,041,48,23,51,121,49,27,24,077,48*77
$GPGSV,3,3,10,28,15,209,48,30,32,273,49*78
$GLGSV,1,1,00*65
$GNGLL,3725.61599,N,12210.39650,W,180108.00,A,A*6D
$GNRMC,180109.00,A,3725.61599,N,12210.39648,W,0.005,,240417,,,A*7D
$GNVTG,,T,,M,0.005,N,0.009,K,A*31
$GNGGA,180109.00,3725.61599,N,12210.39648,W,1,10,0.78,32.8,M,-30.0,M,,*49
$GNGSA,A,3,03,08,23,30,16,05,07,27,28,09,,,1.35,0.78,1.10*1E
$GNGSA,A,3,,,,,,,,,,,,,1.35,0.78,1.10*14
$GPGSV,3,1,10,03,06,173,48,05,09,322,48,07,64,314,49,08,26,117,48*7C
$GPGSV,3,2,10,09,84,043,50,16,20,041,48,23,51,121,49,27,24,077,48*77
$GPGSV,3,3,10,28,15,209,48,30,32,273,49*78
$GLGSV,1,1,00*65
$GNGLL,3725.61599,N,12210.39648,W,180109.00,A,A*65
$GNRMC,180110.00,A,3725.61600,N,12210.39647,W,0.004,,240417,,,A*78
$GNVTG,,T,,M,0.004,N,0.007,K,A*3E
$GNGGA,180110.00,3725.61600,N,12210.39647,W,1,10,0.78,32.8,M,-30.0,M,,*4D
$GNGSA,A,3,03,08,23,30,16,05,07,27,28,09,,,1.35,0.78,1.10*1E
$GNGSA,A,3,,,,,,,,,,,,,1.35,0.78,1.10*14
$GPGSV,3,1,10,03,06,173,48,05,09,322,48,07,64,314,49,08,26,117,48*7C
$GPGSV,3,2,10,09,84,043,50,16,20,041,48,23,51,121,49,27,24,077,48*77
$GPGSV,3,3,10,28,15,209,48,30,32,273,49*78
$GLGSV,1,1,00*65
$GNGLL,3725.61600,N,12210.39647,W,180110.00,A,A*61
$GNRMC,180111.00,A,3725.61600,N,12210.39646,W,0.005,,240417,,,A*79
$GNVTG,,T,,M,0.005,N,0.009,K,A*31
$GNGGA,180111.00,3725.61600,N,12210.39646,W,1,10,0.78,32.7,M,-30.0,M,,*42
$GNGSA,A,3,03,08,23,30,16,05,07,27,28,09,,,1.35,0.78,1.10*1E
$GNGSA,A,3,,,,,,,,,,,,,1.35,0.78,1.10*14
$GPGSV,3,1,10,03,06,173,48,05,09,322,48,07,64,314,49,08,26,117,48*7C
$GPGSV,3,2,10,09,84,043,50,16,20,041,48,23,51,121,49,27,24,077,48*77
$GPGSV,3,3,10,28,15,209,48,30,32,273,49*78
$GLGSV,1,1,00*65
$GNGLL,3725.61600,N,12210.39646,W,180111.00,A,A*61
$GNRMC,180112.00,A,3725.61601,N,12210.39644,W,0.001,,240417,,,A*7D
$GNVTG,,T,,M,0.001,N,0.002,K,A*3E
$GNGGA,180112.00,3725.61601,N,12210.39644,W,1,10,0.78,32.7,M,-30.0,M,,*42
$GNGSA,A,3,03,08,23,30,16,05,07,27,28,09,,,1.35,0.78,1.10*1E
$GNGSA,A,3,,,,,,,,,,,,,1.35,0.78,1.10*14
$GPGSV,3,1,10,03,06,173,48,05,09,322,48,07,64,314,49,08,26,117,48*7C
$GPGSV,3,2,10,09,84,043,50,16,20,041,48,23,51,121,49,27,24,077,48*77
$GPGSV,3,3,10,28,15,209,48,30,32,273,49*78
$GLGSV,1,1,00*65
$GNGLL,3725.61601,N,12210.39644,W,180112.00,A,A*61
$GNRMC,180113.00,A,3725.61601,N,12210.39642,W,0.005,,240417,,,A*7E
$GNVTG,,T,,M,0.005,N,0.009,K,A*31
$GNGGA,180113.00,3725.61601,N,12210.39642,W,1,10,0.78,32.7,M,-30.0,M,,*45
$GNGSA,A,3,03,08,23,30,16,05,07,27,28,09,,,1.35,0.78,1.10*1E
$GNGSA,A,3,,,,,,,,,,,,,1.35,0.78,1.10*14
$GPGSV,3,1,10,03,06,173,48,05,09,322,48,07,64,314,49,08,26,117,48*7C
$GPGSV,3,2,10,09,84,043,50,16,20,041,48,23,51,121,49,27,24,077,48*77
$GPGSV,3,3,10,28,15,209,48,30,32,273,49*78
$GLGSV,1,1,00*65
$GNGLL,3725.61601,N,12210.39642,W,180113.00,A,A*66
$GNRMC,180114.00,A,3725.61601,N,12210.39641,W,0.003,,240417,,,A*7C
$GNVTG,,T,,M,0.003,N,0.005,K,A*3B
$GNGGA,180114.00,3725.61601,N,12210.39641,W,1,10,0.78,32.7,M,-30.0,M,,*41
$GNGSA,A,3,03,08,23,30,16,05,07,27,28,09,,,1.35,0.78,1.10*1E
$GNGSA,A,3,,,,,,,,,,,,,1.35,0.78,1.10*14
$GPGSV,3,1,10,03,06,173,48,05,09,322,48,07,64,314,49,08,26,117,48*7C
$GPGSV,3,2,10,09,84,043,50,16,20,041,48,23,51,121,49,27,24,077,48*77
$GPGSV,3,3,10,28,15,209,48,30,32,273,48*79
$GLGSV,1,1,00*65
$GNGLL,3725.61601,N,12210.39641,W,180114.00,A,A*62
$GNRMC,180115.00,A,3725.61601,N,12210.39639,W,0.001,,240417,,,A*70
$GNVTG,,T,,M,0.001,N,0.002,K,A*3E
$GNGGA,180115.00,3725.61601,N,12210.39639,W,1,10,0.78,32.7,M,-30.0,M,,*4F
$GNGSA,A,3,03,08,23,30,16,05,07,27,28,09,,,1.35,0.78,1.10*1E
$GNGSA,A,3,,,,,,,,,,,,,1.35,0.78,1.10*14
$GPGSV,3,1,10,03,06,173,48,05,09,322,48,07,64,314,49,08,26,117,48*7C
$GPGSV,3,2,10,09,84,043,50,16,20,041,48,23,51,121,49,27,24,077,48*77
$GPGSV,3,3,10,28,15,209,48,30,32,273,48*79
$GLGSV,1,1,00*65
$GNGLL,3725.61601,N,12210.39639,W,180115.00,A,A*6C
$GNRMC,180116.00,A,3725.61601,N,12210.39638,W,0.005,,240417,,,A*76
$GNVTG,,T,,M,0.005,N,0.010,K,A*39
$GNGGA,180116.00,3725.61601,N,12210.39638,W,1,10,0.78,32.7,M,-30.0,M,,*4D
$GNGSA,A,3,03,08,23,30,16,05,07,27,28,09,,,1.35,0.78,1.10*1E
$GNGSA,A,3,,,,,,,,,,,,,1.35,0.78,1.10*14
$GPGSV,3,1,10,03,06,173,48,05,09,322,48,07,64,314,49,08,26,117,48*7C
$GPGSV,3,2,10,09,84,043,50,16,20,041,48,23,51,121,49,27,24,077,48*77
$GPGSV,3,3,10,28,15,209,48,30,32,273,49*78
$GLGSV,1,1,00*65
$GNGLL,3725.61601,N,12210.39638,W,180116.00,A,A*6E
$GNRMC,180117.00,A,3725.61602,N,12210.39636,W,0.005,,240417,,,A*7A
$GNVTG,,T,,M,0.005,N,0.009,K,A*31
$GNGGA,180117.00,3725.61602,N,12210.39636,W,1,10,0.78,32.6,M,-30.0,M,,*40
$GNGSA,A,3,03,08,23,30,16,05,07,27,28,09,,,1.35,0.78,1.10*1E
$GNGSA,A,3,,,,,,,,,,,,,1.35,0.78,1.10*14
$GPGSV,3,1,10,03,06,173,48,05,09,322,48,07,64,314,49,08,26,117,48*7C
$GPGSV,3,2,10,09,84,043,50,16,20,041,48,23,51,121,49,27,24,077,48*77
$GPGSV,3,3,10,28,15,209,48,30,32,273,49*78
$GLGSV,1,1,00*65
$GNGLL,3725.61602,N,12210.39636,W,180117.00,A,A*62
$GNRMC,180118.00,A,3725.61602,N,12210.39635,W,0.006,,240417,,,A*75
$GNVTG,,T,,M,0.006,N,0.011,K,A*3B
$GNGGA,180118.00,3725.61602,N,12210.39635,W,1,10,0.78,32.6,M,-30.0,M,,*4C
$GNGSA,A,3,03,08,23,30,16,05,07,27,28,09,,,1.35,0.78,1.10*1E
$GNGSA,A,3,,,,,,,,,,,,,1.35,0.78,1.10*14
$GPGSV,3,1,10,03,06,173,48,05,09,322,48,07,64,314,49,08,26,117,48*7C
$GPGSV,3,2,10,09,84,043,50,16,20,041,48,23,51,121,49,27,24,077,48*77
$GPGSV,3,3,10,28,15,209,48,30,32,273,49*78
$GLGSV,1,1,00*65
$GNGLL,3725.61602,N,12210.39635,W,180118.00,A,A*6E
$GNRMC,180119.00,A,3725.61602,N,12210.39633,W,0.003,,240417,,,A*77
$GNVTG,,T,,M,0.003,N,0.005,K,A*3B
$GNGGA,180119.00,3725.61602,N,12210.39633,W,1,10,0.78,32.6,M,-30.0,M,,*4B
$GNGSA,A,3,03,08,23,30,16,05,07,27,28,09,,,1.35,0.78,1.10*1E
$GNGSA,A,3,,,,,,,,,,,,,1.35,0.78,1.10*14
$GPGSV,3,1,10,03,06,173,48,05,09,322,48,07,64,314,49,08,26,117,48*7C
$GPGSV,3,2,10,09,84,043,50,16,20,041,48,23,51,121,49,27,24,077,48*77
$GPGSV,3,3,10,28,15,209,48,30,32,273,49*78
$GLGSV,1,1,00*65
$GNGLL,3725.61602,N,12210.39633,W,180119.00,A,A*69
$GNRMC,180120.00,A,3725.61602,N,12210.39632,W,0.006,,240417,,,A*79
$GNVTG,,T,,M,0.006,N,0.010,K,A*3A
$GNGGA,180120.00,3725.61602,N,12210.39632,W,1,10,0.78,32.6,M,-30.0,M,,*40
$GNGSA,A,3,03,08,23,30,16,05,07,27,28,09,,,1.35,0.78,1.10*1E
$GNGSA,A,3,,,,,,,,,,,,,1.35,0.78,1.10*14
$GPGSV,3,1,10,03,06,173,48,05,09,322,48,07,64,314,49,08,26,117,48*7C
$GPGSV,3,2,10,09,84,043,50,16,20,041,48,23,51,121,49,27,24,077,48*77
$GPGSV,3,3,10,28,15,209,48,30,32,273,49*78
$GLGSV,1,1,00*65
$GNGLL,3725.61602,N,12210.39632,W,180120.00,A,A*62
$GNRMC,180121.00,A,3725.61602,N,12210.39630,W,0.003,,240417,,,A*7F
$GNVTG,,T,,M,0.003,N,0.006,K,A*38
$GNGGA,180121.00,3725.61602,N,12210.39630,W,1,10,0.78,32.6,M,-30.0,M,,*43
$GNGSA,A,3,03,08,23,30,16,05,07,27,28,09,,,1.35,0.78,1.10*1E
$GNGSA,A,3,,,,,,,,,,,,,1.35,0.78,1.10*14
$GPGSV,3,1,10,03,06,173,48,05,09,322,48,07,64,314,49,08,26,117,48*7C
$GPGSV,3,2,10,09,84,043,49,16,20,041,48,23,51,121,49,27,24,077,48*7F
$GPGSV,3,3,10,28,15,209,48,30,32,273,49*78
$GLGSV,1,1,00*65
$GNGLL,3725.61602,N,12210.39630,W,180121.00,A,A*61
$GNRMC,180122.00,A,3725.61602,N,12210.39629,W,0.005,,240417,,,A*72
$GNVTG,,T,,M,0.005,N,0.010,K,A*39
$GNGGA,180122.00,3725.61602,N,12210.39629,W,1,10,0.78,32.6,M,-30.0,M,,*48
$GNGSA,A,3,03,08,23,30,16,05,07,27,28,09,,,1.35,0.78,1.10*1E
$GNGSA,A,3,,,,,,,,,,,,,1.35,0.78,1.10*14
$GPGSV,3,1,10,03,06,173,48,05,09,322,48,07,64,314,49,08,26,117,48*7C
$GPGSV,3,2,10,09,84,043,50,16,20,041,48,23,51,121,49,27,24,077,48*77
$GPGSV,3,3,10,28,15,209,48,30,32,273,49*78
$GLGSV,1,1,00*65
$GNGLL,3725.61602,N,12210.39629,W,180122.00,A,A*6A
$GNRMC,180123.00,A,3725.61602,N,12210.39628,W,0.003,,240417,,,A*74
$GNVTG,,T,,M,0.003,N,0.006,K,A*38
$GNGGA,180123.00,3725.61602,N,12210.39628,W,1,10,0.78,32.6,M,-30.0,M,,*48
$GNGSA,A,3,03,08,23,30,16,05,07,27,28,09,,,1.35,0.78,1.10*1E
$GNGSA,A,3,,,,,,,,,,,,,1.35,0.78,1.10*14
$GPGSV,3,1,10,03,06,173,48,05,09,322,48,07,64,314,49,08,26,117,48*7C
$GPGSV,3,2,10,09,84,043,50,16,20,041,48,23,51,121,49,27,24,077,48*77
$GPGSV,3,3,10,28,15,209,48,30,32,273,49*78
$GLGSV,1,1,00*65
$GNGLL,3725.61602,N,12210.39628,W,180123.00,A,A*6A
$GNRMC,180124.00,A,3725.61602,N,12210.39627,W,0.004,,240417,,,A*7B
$GNVTG,,T,,M,0.004,N,0.007,K,A*3E
$GNGGA,180124.00,3725.61602,N,12210.39627,W,1,10,0.78,32.6,M,-30.0,M,,*40
$GNGSA,A,3,03,08,23,30,16,05,07,27,28,09,,,1.35,0.78,1.10*1E
$GNGSA,A,3,,,,,,,,,,,,,1.35,0.78,1.10*14
$GPGSV,3,1,10,03,06,173,48,05,09,322,48,07,64,314,49,08,26,117,48*7C
$GPGSV,3,2,10,09,84,043,49,16,20,041,48,23,51,121,49,27,24,077,48*7F
$GPGSV,3,3,10,28,15,209,48,30,32,273,49*78
$GLGSV,1,1,00*65
$GNGLL,3725.61602,N,12210.39627,W,180124.00,A,A*62
$GNRMC,180125.00,A,3725.61603,N,12210.39626,W,0.006,,240417,,,A*78
$GNVTG,,T,,M,0.006,N,0.011,K,A*3B
$GNGGA,180125.00,3725.61603,N,12210.39626,W,1,10,0.78,32.6,M,-30.0,M,,*41
$GNGSA,A,3,03,08,23,30,16,05,07,27,28,09,,,1.35,0.78,1.10*1E
$GNGSA,A,3,,,,,,,,,,,,,1.35,0.78,1.10*14
$GPGSV,3,1,10,03,06,173,48,05,09,322,48,07,64,314,49,08,26,117,48*7C
$GPGSV,3,2,10,09,84,046,50,16,20,041,48,23,51,121,49,27,24,077,48*72
$GPGSV,3,3,10,28,15,209,48,30,32,273,49*78
$GLGSV,1,1,00*65
$GNGLL,3725.61603,N,12210.39626,W,180125.00,A,A*63
$GNRMC,180126.00,A,3725.61603,N,12210.39624,W,0.004,,240417,,,A*7B
$GNVTG,,T,,M,0.004,N,0.007,K,A*3E
$GNGGA,180126.00,3725.61603,N,12210.39624,W,1,10,0.78,32.5,M,-30.0,M,,*43
$GNGSA,A,3,03,08,23,30,16,05,07,27,28,09,,,1.35,0.78,1.10*1E
$GNGSA,A,3,,,,,,,,,,,,,1.35,0.78,1.10*14
$GPGSV,3,1,10,03,06,173,48,05,09,322,48,07,64,314,49,08,26,117,48*7C
$GPGSV,3,2,10,09,84,046,50,16,19,041,48,23,51,121,49,27,24,077,48*78
$GPGSV,3,3,10,28,15,209,48,30,32,273,48*79
$GLGSV,1,1,00*65
$GNGLL,3725.61603,N,12210.39624,W,180126.00,A,A*62
$GNRMC,180127.00,A,3725.61603,N,12210.39623,W,0.009,,240417,,,A*70
$GNVTG,,T,,M,0.009,N,0.016,K,A*33
$GNGGA,180127.00,3725.61603,N,12210.39623,W,1,10,0.78,32.5,M,-30.0,M,,*45
$GNGSA,A,3,03,08,23,30,16,05,07,27,28,09,,,1.35,0.78,1.10*1E
$GNGSA,A,3,,,,,,,,,,,,,1.35,0.78,1.10*14
$GPGSV,3,1,10,03,06,173,48,05,09,322,48,07,64,314,50,08,26,117,49*75
$GPGSV,3,2,10,09,84,046,50,16,19,041,49,23,51,121,50,27,24,077,49*70
$GPGSV,3,3,10,28,15,209,49,30,32,273,49*79
$GLGSV,1,1,00*65
$GNGLL,3725.61603,N,12210.39623,W,180127.00,A,A*64
$GNRMC,180128.00,A,3725.61603,N,12210.39620,W,0.006,,240417,,,A*73
$GNVTG,,T,,M,0.006,N,0.011,K,A*3B
$GNGGA,180128.00,3725.61603,N,12210.39620,W,1,10,0.78,32.5,M,-30.0,M,,*49
$GNGSA,A,3,03,08,23,30,16,05,07,27,28,09,,,1.35,0.78,1.10*1E
$GNGSA,A,3,,,,,,,,,,,,,1.35,0.78,1.10*14
$GPGSV,3,1,10,03,06,173,51,05,09,322,51,07,64,314,53,08,26,117,52*7C
$GPGSV,3,2,10,09,84,046,53,16,19,041,52,23,51,121,53,27,24,077,52*70
$GPGSV,3,3,10,28,15,209,52,30,32,273,52*79
$GLGSV,1,1,00*65
$GNGLL,3725.61603,N,12210.39620,W,180128.00,A,A*68
$GNRMC,180129.00,A,3725.61603,N,12210.39618,W,0.002,,240417,,,A*7D
$GNVTG,,T,,M,0.002,N,0.004,K,A*3B
$GNGGA,180129.00,3725.61603,N,12210.39618,W,1,10,0.78,32.5,M,-30.0,M,,*43
$GNGSA,A,3,03,08,23,30,16,05,07,27,28,09,,,1.35,0.78,1.10*1E
$GNGSA,A,3,,,,,,,,,,,,,1.35,0.78,1.10*14
$GPGSV,3,1,10,03,06,173,51,05,09,322,52,07,64,314,53,08,26,117,52*7F
$GPGSV,3,2,10,09,84,046,53,16,19,041,52,23,50,121,53,27,24,077,52*71
$GPGSV,3,3,10,28,15,209,52,30,32,273,52*79
$GLGSV,1,1,00*65
$GNGLL,3725.61603,N,12210.39618,W,180129.00,A,A*62
$GNRMC,180130.00,A,3725.61603,N,12210.39617,W,0.002,,240417,,,A*7A
$GNVTG,,T,,M,0.002,N,0.004,K,A*3B
$GNGGA,180130.00,3725.61603,N,12210.39617,W,1,10,0.78,32.5,M,-30.0,M,,*44
$GNGSA,A,3,03,08,23,30,16,05,07,27,28,09,,,1.35,0.78,1.10*1E
$GNGSA,A,3,,,,,,,,,,,,,1.35,0.78,1.10*14
$GPGSV,3,1,10,03,06,173,51,05,09,322,51,07,64,314,52,08,26,117,52*7D
$GPGSV,3,2,10,09,84,046,53,16,19,041,51,23,50,121,52,27,24,077,51*70
$GPGSV,3,3,10,28,15,209,51,30,32,273,52*7A
$GLGSV,1,1,00*65
$GNGLL,3725.61603,N,12210.39617,W,180130.00,A,A*65
$GNRMC,180131.00,A,3725.61603,N,12210.39616,W,0.005,,240417,,,A*7D
$GNVTG,,T,,M,0.005,N,0.009,K,A*31
$GNGGA,180131.00,3725.61603,N,12210.39616,W,1,10,0.78,32.5,M,-30.0,M,,*44
$GNGSA,A,3,03,08,23,30,16,05,07,27,28,09,,,1.35,0.78,1.10*1E
$GNGSA,A,3,,,,,,,,,,,,,1.35,0.78,1.10*14
$GPGSV,3,1,10,03,06,173,51,05,09,322,51,07,64,314,52,08,26,117,52*7D
$GPGSV,3,2,10,09,84,046,53,16,19,041,51,23,50,121,52,27,24,077,51*70
$GPGSV,3,3,10,28,15,209,51,30,32,273,52*7A
$GLGSV,1,1,00*65
$GNGLL,3725.61603,N,12210.39616,W,180131.00,A,A*65
$GNRMC,180132.00,A,3725.61603,N,12210.39615,W,0.001,,240417,,,A*79
$GNVTG,,T,,M,0.001,N,0.003,K,A*3F
$GNGGA,180132.00,3725.61603,N,12210.39615,W,1,10,0.78,32.5,M,-30.0,M,,*44
$GNGSA,A,3,03,08,23,30,16,05,07,27,28,09,,,1.35,0.78,1.10*1E
$GNGSA,A,3,,,,,,,,,,,,,1.35,0.78,1.10*14
$GPGSV,3,1,10,03,06,173,51,05,09,322,51,07,64,314,52,08,26,117,52*7D
$GPGSV,3,2,10,09,84,046,53,16,19,041,51,23,50,121,52,27,24,077,51*70
$GPGSV,3,3,10,28,15,209,51,30,32,273,52*7A
$GLGSV,1,1,00*65
$GNGLL,3725.61603,N,12210.39615,W,180132.00,A,A*65
$GNRMC,180133.00,A,3725.61603,N,12210.39613,W,0.004,,240417,,,A*7B
$GNVTG,,T,,M,0.004,N,0.007,K,A*3E
$GNGGA,180133.00,3725.61603,N,12210.39613,W,1,10,0.78,32.4,M,-30.0,M,,*42
$GNGSA,A,3,03,08,23,30,16,05,07,27,28,09,,,1.35,0.78,1.10*1E
$GNGSA,A,3,,,,,,,,,,,,,1.35,0.78,1.10*14
$GPGSV,3,1,10,03,06,173,51,05,09,322,51,07,64,314,52,08,26,117,51*7E
$GPGSV,3,2,10,09,84,046,53,16,19,041,51,23,50,121,52,27,24,077,51*70
$GPGSV,3,3,10,28,15,209,51,30,32,273,52*7A
$GLGSV,1,1,00*65
$GNGLL,3725.61603,N,12210.39613,W,180133.00,A,A*62
$GNRMC,180134.00,A,3725.61603,N,12210.39612,W,0.004,,240417,,,A*7D
$GNVTG,,T,,M,0.004,N,0.008,K,A*31
$GNGGA,180134.00,3725.61603,N,12210.39612,W,1,10,0.78,32.4,M,-30.0,M,,*44
$GNGSA,A,3,03,08,23,30,16,05,07,27,28,09,,,1.35,0.78,1.10*1E
$GNGSA,A,3,,,,,,,,,,,,,1.35,0.78,1.10*14
$GPGSV,3,1,10,03,06,173,51,05,09,322,51,07,64,314,52,08,26,117,51*7E
$GPGSV,3,2,10,09,84,046,53,16,19,041,51,23,50,121,52,27,24,077,51*70
$GPGSV,3,3,10,28,15,209,51,30,32,273,52*7A
$GLGSV,1,1,00*65
$GNGLL,3725.61603,N,12210.39612,W,180134.00,A,A*64
$GNRMC,180135.00,A,3725.61603,N,12210.39611,W,0.009,,240417,,,A*72
$GNVTG,,T,,M,0.009,N,0.017,K,A*32
$GNGGA,180135.00,3725.61603,N,12210.39611,W,1,10,0.78,32.4,M,-30.0,M,,*46
$GNGSA,A,3,03,08,23,30,16,05,07,27,28,09,,,1.35,0.78,1.10*1E
$GNGSA,A,3,,,,,,,,,,,,,1.35,0.78,1.10*14
$GPGSV,3,1,10,03,06,173,50,05,09,322,50,07,64,314,52,08,26,117,51*7E
$GPGSV,3,2,10,09,84,046,52,16,19,041,51,23,50,121,52,27,24,077,51*71
$GPGSV,3,3,10,28,15,209,51,30,32,273,51*79
$GLGSV,1,1,00*65
$GNGLL,3725.61603,N,12210.39611,W,180135.00,A,A*66
$GNRMC,180136.00,A,3725.61603,N,12210.39610,W,0.003,,240417,,,A*7A
$GNVTG,,T,,M,0.003,N,0.006,K,A*38
$GNGGA,180136.00,3725.61603,N,12210.39610,W,1,10,0.78,32.4,M,-30.0,M,,*44
$GNGSA,A,3,03,08,23,30,16,05,07,27,28,09,,,1.35,0.78,1.10*1E
$GNGSA,A,3,,,,,,,,,,,,,1.35,0.78,1.10*14
$GPGSV,3,1,10,03,06,173,50,05,09,322,50,07,64,314,52,08,26,117,51*7E
$GPGSV,3,2,10,09,84,046,52,16,19,041,51,23,50,121,52,27,24,077,51*71
$GPGSV,3,3,10,28,15,209,51,30,32,273,51*79
$GLGSV,1,1,00*65
$GNGLL,3725.61603,N,12210.39610,W,180136.00,A,A*64
$GNRMC,180137.00,A,3725.61603,N,12210.39609,W,0.003,,240417,,,A*73
$GNVTG,,T,,M,0.003,N,0.005,K,A*3B
$GNGGA,180137.00,3725.61603,N,12210.39609,W,1,10,0.78,32.4,M,-30.0,M,,*4D
$GNGSA,A,3,03,08,23,30,16,05,07,27,28,09,,,1.35,0.78,1.10*1E
$GNGSA,A,3,,,,,,,,,,,,,1.35,0.78,1.10*14
$GPGSV,3,1,10,03,06,173,50,05,09,322,50,07,64,314,52,08,26,117,51*7E
$GPGSV,3,2,10,09,84,046,52,16,19,041,51,23,50,121,52,27,24,077,51*71
$GPGSV,3,3,10,28,15,209,51,30,32,273,51*79
$GLGSV,1,1,00*65
$GNGLL,3725.61603,N,12210.39609,W,180137.00,A,A*6D
$GNRMC,180138.00,A,3725.61603,N,12210.39608,W,0.009,,240417,,,A*77
$GNVTG,,T,,M,0.009,N,0.017,K,A*32
$GNGGA,180138.00,3725.61603,N,12210.39608,W,1,10,0.78,32.3,M,-30.0,M,,*44
$GNGSA,A,3,03,08,23,30,16,05,07,27,28,09,,,1.35,0.78,1.10*1E
$GNGSA,A,3,,,,,,,,,,,,,1.35,0.78,1.10*14
$GPGSV,3,1,10,03,06,173,50,05,09,322,50,07,64,314,52,08,26,117,51*7E
$GPGSV,3,2,10,09,84,046,52,16,19,041,51,23,50,121,52,27,24,077,51*71
$GPGSV,3,3,10,28,15,209,51,30,32,273,51*79
$GLGSV,1,1,00*65
$GNGLL,3725.61603,N,12210.39608,W,180138.00,A,A*63
$GNRMC,180139.00,A,3725.61603,N,12210.39607,W,0.010,,240417,,,A*71
$GNVTG,,T,,M,0.010,N,0.018,K,A*35
$GNGGA,180139.00,3725.61603,N,12210.39607,W,1,10,0.78,32.3,M,-30.0,M,,*4A
$GNGSA,A,3,03,08,23,30,16,05,07,27,28,09,,,1.35,0.78,1.10*1E
$GNGSA,A,3,,,,,,,,,,,,,1.35,0.78,1.10*14
$GPGSV,3,1,10,03,06,173,50,05,09,322,50,07,64,314,52,08,26,117,51*7E
$GPGSV,3,2,10,09,84,046,52,16,19,041,51,23,50,121,52,27,24,077,51*71
$GPGSV,3,3,10,28,15,209,51,30,32,273,51*79
$GLGSV,1,1,00*65
$GNGLL,3725.61603,N,12210.39607,W,180139.00,A,A*6D
$GNRMC,180140.00,A,3725.61603,N,12210.39607,W,0.006,,240417,,,A*78
$GNVTG,,T,,M,0.006,N,0.012,K,A*38
$GNGGA,180140.00,3725.61603,N,12210.39607,W,1,10,0.78,32.3,M,-30.0,M,,*44
$GNGSA,A,3,03,08,23,30,16,05,07,27,28,09,,,1.35,0.78,1.10*1E
$GNGSA,A,3,,,,,,,,,,,,,1.35,0.78,1.10*14
$GPGSV,3,1,10,03,06,173,50,05,09,322,50,07,64,314,52,08,26,117,51*7E
$GPGSV,3,2,10,09,84,046,52,16,19,041,51,23,50,121,52,27,24,077,51*71
$GPGSV,3,3,10,28,15,209,51,30,32,273,51*79
$GLGSV,1,1,00*65
$GNGLL,3725.61603,N,12210.39607,W,180140.00,A,A*63
$GNRMC,180141.00,A,3725.61603,N,12210.39606,W,0.009,,240417,,,A*77
$GNVTG,,T,,M,0.009,N,0.017,K,A*32
$GNGGA,180141.00,3725.61603,N,12210.39606,W,1,10,0.78,32.3,M,-30.0,M,,*44
$GNGSA,A,3,03,08,23,30,16,05,07,27,28,09,,,1.35,0.78,1.10*1E
$GNGSA,A,3,,,,,,,,,,,,,1.35,0.78,1.10*14
$GPGSV,3,1,10,03,06,173,50,05,09,322,50,07,64,314,52,08,26,117,51*7E
$GPGSV,3,2,10,09,84,046,52,16,19,041,51,23,50,121,52,27,24,077,51*71
$GPGSV,3,3,10,28,15,209,51,30,32,273,51*79
$GLGSV,1,1,00*65
$GNGLL,3725.61603,N,12210.39606,W,180141.00,A,A*63
$GNRMC,180142.00,A,3725.61603,N,12210.39605,W,0.008,,240417,,,A*76
$GNVTG,,T,,M,0.008,N,0.015,K,A*31
$GNGGA,180142.00,3725.61603,N,12210.39605,W,1,10,0.78,32.3,M,-30.0,M,,*44
$GNGSA,A,3,03,08,23,30,16,05,07,27,28,09,,,1.35,0.78,1.10*1E
$GNGSA,A,3,,,,,,,,,,,,,1.35,0.78,1.10*14
$GPGSV,3,1,10,03,06,173,50,05,09,322,50,07,64,314,52,08,26,117,51*7E
$GPGSV,3,2,10,09,84,046,52,16,19,041,51,23,50,121,52,27,24,077,51*71
$GPGSV,3,3,10,28,15,209,51,30,32,273,51*79
$GLGSV,1,1,00*65
$GNGLL,3725.61603,N,12210.39605,W,180142.00,A,A*63
$GNRMC,180143.00,A,3725.61603,N,12210.39605,W,0.006,,240417,,,A*79
$GNVTG,,T,,M,0.006,N,0.011,K,A*3B
$GNGGA,180143.00,3725.61603,N,12210.39605,W,1,10,0.78,32.3,M,-30.0,M,,*45
$GNGSA,A,3,03,08,23,30,16,05,07,27,28,09,,,1.35,0.78,1.10*1E
$GNGSA,A,3,,,,,,,,,,,,,1.35,0.78,1.10*14
$GPGSV,3,1,10,03,06,173,50,05,09,322,50,07,64,314,52,08,26,117,51*7E
$GPGSV,3,2,10,09,84,046,52,16,19,041,51,23,50,121,52,27,24,077,51*71
$GPGSV,3,3,10,28,15,209,51,30,32,273,51*79
$GLGSV,1,1,00*65
$GNGLL,3725.61603,N,12210.39605,W,180143.00,A,A*62
$GNRMC,180144.00,A,3725.61603,N,12210.39604,W,0.007,,240417,,,A*7E
$GNVTG,,T,,M,0.007,N,0.012,K,A*39
$GNGGA,180144.00,3725.61603,N,12210.39604,W,1,10,0.78,32.3,M,-30.0,M,,*43
$GNGSA,A,3,03,08,23,30,16,05,07,27,28,09,,,1.35,0.78,1.10*1E
$GNGSA,A,3,,,,,,,,,,,,,1.35,0.78,1.10*14
$GPGSV,3,1,10,03,06,173,50,05,09,322,50,07,64,314,51,08,26,117,50*7C
$GPGSV,3,2,10,09,84,046,52,16,19,041,50,23,50,121,51,27,24,077,50*72
$GPGSV,3,3,10,28,15,209,50,30,32,273,51*78
$GLGSV,1,1,00*65
$GNGLL,3725.61603,N,12210.39604,W,180144.00,A,A*64
$GNRMC,180145.00,A,3725.61603,N,12210.39603,W,0.005,,240417,,,A*7A
$GNVTG,,T,,M,0.005,N,0.010,K,A*39
$GNGGA,180145.00,3725.61603,N,12210.39603,W,1,10,0.78,32.3,M,-30.0,M,,*45
$GNGSA,A,3,03,08,23,30,16,05,07,27,28,09,,,1.35,0.78,1.10*1E
$GNGSA,A,3,,,,,,,,,,,,,1.35,0.78,1.10*14
$GPGSV,3,1,10,03,06,173,50,05,09,322,50,07,64,314,51,08,26,117,50*7C
$GPGSV,3,2,10,09,84,046,52,16,19,041,50,23,50,121,51,27,24,077,50*72
$GPGSV,3,3,10,28,15,209,50,30,32,273,51*78
$GLGSV,1,1,00*65
$GNGLL,3725.61603,N,12210.39603,W,180145.00,A,A*62
$GNRMC,180146.00,A,3725.61753,N,12210.39706,W,8.780,331.04,240417,,,A*60
$GNVTG,331.04,T,,M,8.780,N,16.261,K,A*13
$GNGGA,180146.00,3725.61753,N,12210.39706,W,1,10,1.20,35.7,M,-30.0,M,,*49
$GNGSA,A,3,03,08,23,30,16,05,07,27,28,09,,,2.00,1.20,1.60*10
$GNGSA,A,3,,,,,,,,,,,,,2.00,1.20,1.60*1A
$GPGSV,3,1,10,03,06,173,50,05,09,322,50,07,64,314,50,08,26,117,50*7D
$GPGSV,3,2,10,09,84,046,37,16,19,041,50,23,50,121,51,27,24,077,50*71
$GPGSV,3,3,10,28,15,209,50,30,32,273,51*78
